usaf,wban,datetime,latitude,longitude,elevation,windAngle,windSpeed,temperature,seaLvlPressure,cloudCoverage,presentWeatherIndicator,pastWeatherIndicator,precipTime,precipDepth,snowDepth,stationName,countryOrRegion,p_k,year,day,version
424630,99999,2019-10-03,25.45,78.617,258.0,230.0,3.1,27.4,998.1,OVC,5.0,2.0,21.0,6.0,,JHANSI,IN,424630-99999,2019,11,1.0
997988,99999,2019-10-03,46.817,-87.717,185.0,0.0,0.0,20.2,1007.5,,,,,,,BIG BAY,US,997988-99999,2019,11,1.0
010460,99999,2019-10-03,69.783,20.95,5.0,,,11.0,1014.9,,,,,,,SORKJOSEN,NO,010460-99999,2019,11,1.0
085150,99999,2019-10-03,36.973,-25.173,96.0,360.0,1.0,20.5,1024.5,FEW,,,99.0,9999.0,,SANTA MARIA,PO,085150-99999,2019,11,1.0
875820,99999,2019-10-03,-34.433,-58.4,6.0,140.0,1.5,12.5,1015.6,SCT,,,1.0,9999.0,,AEROPARQUE JORGE NEWBERY,AR,875820-99999,2019,11,1.0
712350,99999,2019-10-03,51.076,-114.552,1235.0,249.0,3.9,23.2,,,,,6.0,9999.0,,COP UPPER  ALTA,CA,712350-99999,2019,11,1.0
712350,99999,2019-10-03,51.08,-114.22,1235.0,250.0,4.1,24.0,,,,,,,,COP UPPER  ALTA,CA,712350-99999,2019,11,1.0
151200,99999,2019-10-03,46.785,23.686,316.0,270.0,3.1,12.0,,,,,,,,CLUJ NAPOCA,RO,151200-99999,2019,11,1.0
024860,99999,2019-10-03,59.367,17.517,6.0,,,12.4,,,,,1.0,0.0,,ADELSO,SW,024860-99999,2019,11,1.0
081600,99999,2019-10-03,41.661,-1.004,263.0,310.0,4.6,23.5,1014.7,CLR,,,6.0,9999.0,,ZARAGOZA AB,SP,081600-99999,2019,11,1.0
151200,99999,2019-10-03,46.783,23.567,414.0,220.0,2.0,11.0,1014.0,,,,6.0,0.0,,CLUJ NAPOCA,RO,151200-99999,2019,11,1.0
998264,99999,2019-10-03,30.217,-93.217,8.0,0.0,0.0,30.8,1012.5,,,,,,,LAKE CHARLES,US,998264-99999,2019,11,1.0
689263,99999,2019-10-03,-34.555,20.251,16.0,60.0,2.1,7.0,,,,,,,,OVERBERG,SF,689263-99999,2019,11,1.0
418590,99999,2019-10-03,25.733,89.233,34.0,180.0,1.0,26.0,999.8,OVC,61.0,6.0,24.0,586.0,,RANGPUR,BG,418590-99999,2019,11,1.0
623870,99999,2019-10-03,28.083,30.733,37.0,340.0,1.5,27.2,1003.9,,,,,,,MINYA,EG,623870-99999,2019,11,1.0
985500,99999,2019-10-03,11.233,125.033,3.0,320.0,2.0,28.2,1013.4,FEW,,,,,,DANIEL Z ROMUALDEZ,RP,985500-99999,2019,11,1.0
869850,99999,2019-10-03,-30.992,-54.815,152.0,91.0,2.6,16.5,1017.1,,,,99.0,9999.0,,DOM PEDRITO,BR,869850-99999,2019,11,1.0
868490,99999,2019-10-03,-21.106,-44.251,930.0,96.0,0.6,14.0,1021.8,,,,99.0,9999.0,,SAO JOAO DEL-REI,BR,868490-99999,2019,11,1.0
588130,99999,2019-10-03,26.85,116.333,142.0,70.0,1.0,23.7,1008.7,OVC,,,,,,GUANGCHANG,CH,588130-99999,2019,11,1.0
861700,99999,2019-10-03,-24.45,-58.817,292.0,90.0,4.1,22.2,1011.2,CLR,,,1.0,9999.0,,GRAL. BRUGUEZ,PA,861700-99999,2019,11,1.0
357010,99999,2019-10-03,47.217,50.983,-27.0,360.0,3.0,26.5,1006.4,,,,,,,ISATAI,KZ,357010-99999,2019,11,1.0
866340,99999,2019-10-03,-11.085,-43.139,408.0,53.0,0.8,26.2,1016.3,,,,99.0,9999.0,,BARRA,BR,866340-99999,2019,11,1.0
541860,99999,2019-10-03,43.367,128.2,525.0,160.0,2.0,14.7,1010.9,OVC,,,,,,DUNHUA,CH,541860-99999,2019,11,1.0
606620,99999,2019-10-03,25.817,8.183,1291.0,0.0,0.0,31.1,,,,,,,,FADNOUNE,AG,606620-99999,2019,11,1.0
999999,53926,2019-10-03,36.118,-97.091,271.0,,1.8,33.1,,,,,1.0,0.0,,STILLWATER 2 W,US,999999-53926,2019,11,1.0
722500,12919,2019-10-03,25.917,-97.417,8.0,120.0,5.7,32.2,1012.4,FEW,,,,,,BROWNSVILLE/S PADRE  ISLAND INTL AP,US,722500-12919,2019,11,1.0
634500,99999,2019-10-03,8.978,38.799,2326.0,240.0,2.6,12.0,,,,,,,,BOLE INTL,ET,634500-99999,2019,11,1.0
566910,99999,2019-10-03,26.87,104.28,2236.0,160.0,2.0,15.5,,OVC,60.0,,24.0,12.0,,WEINING,CH,566910-99999,2019,11,1.0
085150,99999,2019-10-03,36.971,-25.171,94.0,0.0,0.0,20.0,,,,,,,,SANTA MARIA,PO,085150-99999,2019,11,1.0
994008,99999,2019-10-03,28.12,-82.8,6.0,200.0,5.7,28.8,1015.9,,,,,,,FRED HOWARD PARK,US,994008-99999,2019,11,1.0
084330,99999,2019-10-03,37.775,-0.812,3.0,320.0,2.1,22.0,,CLR,,,,,,MURCIA SAN JAVIER,SP,084330-99999,2019,11,1.0
026180,99999,2019-10-03,56.95,13.067,130.0,,,11.0,1013.5,,,,1.0,0.0,,TORUP,SW,026180-99999,2019,11,1.0
845150,99999,2019-10-03,-8.378,-74.574,156.0,10.0,1.5,27.0,,,,,,,,CAP FAP DAVID ABENZUR RENGIFO INTL,PE,845150-99999,2019,11,1.0
476490,99999,2019-10-03,34.767,136.15,161.0,110.0,3.6,22.1,1011.7,,,,12.0,30.0,,UENO,JA,476490-99999,2019,11,1.0
787240,99999,2019-10-03,13.3,-87.183,48.0,180.0,5.1,,,,,,,,,CHOLUTECA,HO,787240-99999,2019,11,1.0
417490,99999,2019-10-03,26.25,68.37,37.0,,,,,,,,,,,NAWABSHAH,PK,417490-99999,2019,11,1.0
994021,99999,2019-10-03,48.368,-124.617,5.0,0.0,0.0,,1017.1,,,,,,,NEAH BAY,US,994021-99999,2019,11,1.0
042030,99999,2019-10-03,76.633,-73.0,11.0,290.0,3.1,5.6,1014.4,,,,,,,KITSISSUT (CAREY OEER),GL,042030-99999,2019,11,1.0
956640,99999,2019-10-03,-33.059,137.514,12.0,300.0,5.7,14.0,,,,,,,,WHYALLA,AS,956640-99999,2019,11,1.0
061360,99999,2019-10-03,55.25,11.333,12.0,280.0,2.1,12.7,,,,,6.0,9999.0,,TYSTOFTE,DA,061360-99999,2019,11,1.0
129250,99999,2019-10-03,46.45,16.967,141.0,,,8.9,1016.5,,,,,,,NAGYKANIZSA,HU,129250-99999,2019,11,1.0
845150,99999,2019-10-03,-8.367,-74.567,148.0,10.0,1.5,26.8,1012.6,,0.0,0.0,,,,CAP FAP DAVID ABENZUR RENGIFO INTL,PE,845150-99999,2019,11,1.0
725500,14942,2019-10-03,41.3,-95.9,299.0,320.0,9.8,27.2,1016.6,SCT,,,,,,EPPLEY AIRFIELD AIRPORT,US,725500-14942,2019,11,1.0
710470,99999,2019-10-03,53.456,-111.255,656.0,,,21.0,,,,,24.0,26.0,,MANNWILLE AGCM,CA,710470-99999,2019,11,1.0
543110,99999,2019-10-03,41.933,117.75,844.0,20.0,1.0,16.7,1009.8,BKN,,,24.0,86.0,,WEICHANG,CH,543110-99999,2019,11,1.0
014420,99999,2019-10-03,58.667,7.8,211.0,360.0,2.0,12.5,1013.0,,,,6.0,0.0,,BYGLANDSFJORD,NO,014420-99999,2019,11,1.0
723870,03160,2019-10-03,36.617,-116.017,1006.0,230.0,7.7,38.3,1010.9,,,,,,,DESERT ROCK AIRPORT,US,723870-03160,2019,11,1.0
026150,99999,2019-10-03,55.384,12.817,2.0,319.0,5.9,16.0,1014.1,CLR,,,1.0,9999.0,,FALSTERBO A,SW,026150-99999,2019,11,1.0
029130,99999,2019-10-03,63.133,23.05,44.0,30.0,2.0,11.0,1010.3,BKN,,,,,,KAUHAVA,FI,029130-99999,2019,11,1.0
875820,99999,2019-10-03,-34.559,-58.416,5.0,150.0,1.5,14.0,,,,,,,,AEROPARQUE JORGE NEWBERY,AR,875820-99999,2019,11,1.0
714460,99999,2019-10-03,50.267,-107.733,825.0,170.0,7.2,23.6,1015.9,,,,24.0,0.0,,SWIFT CURRENT CDA  SASK,CA,714460-99999,2019,11,1.0
590720,99999,2019-10-03,24.8,112.367,98.0,320.0,1.0,23.9,1008.0,OVC,60.0,,24.0,0.0,,LIANZHOU,CH,590720-99999,2019,11,1.0
953070,99999,2019-10-03,-20.717,116.767,6.0,170.0,2.1,18.8,1021.8,,,,,,,KARRATHA AERO,AS,953070-99999,2019,11,1.0
961950,99999,2019-10-03,-1.633,103.65,25.0,160.0,2.1,23.2,1012.5,BKN,5.0,2.0,,,,SULTAN THAHA,ID,961950-99999,2019,11,1.0
722050,12815,2019-10-03,28.433,-81.317,32.0,280.0,2.6,28.3,1015.4,OVC,,,6.0,0.0,,ORLANDO INTERNATIONAL AIRPORT,US,722050-12815,2019,11,1.0
868500,99999,2019-10-03,-21.228,-43.768,1169.0,0.0,0.0,12.0,1026.4,,,,99.0,9999.0,,BARBACENA,BR,868500-99999,2019,11,1.0
689330,99999,2019-10-03,-34.033,23.9,5.0,50.0,3.1,11.1,1017.5,,,,,,,TSITSIKAMMA,SF,689330-99999,2019,11,1.0
714460,99999,2019-10-03,50.27,-107.73,825.0,170.0,7.2,23.6,1015.9,,,,,,,SWIFT CURRENT CDA  SASK,CA,714460-99999,2019,11,1.0
070270,99999,2019-10-03,49.173,-0.45,78.0,260.0,1.5,16.0,,,,,,,,CARPIQUET,FR,070270-99999,2019,11,1.0
575840,99999,2019-10-03,29.383,113.083,52.0,140.0,2.0,26.6,1007.8,OVC,,,,,,YUEYANG,CH,575840-99999,2019,11,1.0
723870,03160,2019-10-03,36.62,-116.02,1007.0,219.0,8.4,36.8,,,,,,,,DESERT ROCK AIRPORT,US,723870-03160,2019,11,1.0
714450,99999,2019-10-03,52.82,-97.62,223.0,320.0,5.1,18.6,1016.8,,,,,,,GEORGE ISLAND (AUT)  MAN,CA,714450-99999,2019,11,1.0
021490,99999,2019-10-03,65.6,19.267,384.0,,,8.8,1014.8,OVC,,,1.0,0.0,,ARVIDSJAUR,SW,021490-99999,2019,11,1.0
477390,99999,2019-10-03,34.796,138.189,132.0,70.0,3.6,22.0,,,,,,,,SHIZUOKA AIRPORT,JA,477390-99999,2019,11,1.0
084330,99999,2019-10-03,37.778,-0.806,4.0,330.0,2.6,23.0,1014.9,,,,6.0,9999.0,,MURCIA SAN JAVIER,SP,084330-99999,2019,11,1.0
407030,99999,2019-10-03,38.55,44.967,1103.0,,,21.2,998.6,,,,6.0,0.0,,KHOY,IR,407030-99999,2019,11,1.0
127720,99999,2019-10-03,48.1,20.733,163.0,,,13.0,1013.8,,,,,,,MISKOLC,HU,127720-99999,2019,11,1.0
504340,99999,2019-10-03,50.45,121.7,733.0,320.0,1.0,17.5,1009.2,FEW,,,24.0,9999.0,,TULIHE,CH,504340-99999,2019,11,1.0
478810,99999,2019-10-03,34.133,134.607,8.0,190.0,7.2,22.0,,,10.0,,,,,TOKUSHIMA,JA,478810-99999,2019,11,1.0
282140,99999,2019-10-03,58.133,52.583,169.0,200.0,4.0,12.9,997.8,FEW,2.0,8.0,,,,GLAZOV,RS,282140-99999,2019,11,1.0
124950,99999,2019-10-03,51.217,22.4,240.0,290.0,3.0,10.9,1011.1,BKN,,,6.0,0.0,,LUBLIN RADAWIEC,PL,124950-99999,2019,11,1.0
386180,99999,2019-10-03,40.367,71.75,577.0,110.0,1.0,21.7,1000.3,,,,,,,FERGANA AIRPORT,UZ,386180-99999,2019,11,1.0
579320,99999,2019-10-03,25.967,108.533,287.0,200.0,2.0,21.7,1007.1,OVC,10.0,,,,,RONGJIANG,CH,579320-99999,2019,11,1.0
787240,99999,2019-10-03,13.317,-87.15,48.0,180.0,5.1,31.6,1012.2,BKN,5.0,4.0,24.0,0.0,,CHOLUTECA,HO,787240-99999,2019,11,1.0
151620,99999,2019-10-03,46.367,23.05,611.0,,,6.9,,,,,6.0,0.0,,CAMPENI,RO,151620-99999,2019,11,1.0
113570,99999,2019-10-03,47.74,13.442,544.0,340.0,1.0,10.7,1018.6,,,,6.0,9999.0,,ST. WOLFGANG,AU,113570-99999,2019,11,1.0
636950,99999,2019-10-03,0.083,37.65,1554.0,0.0,0.0,15.7,,,,,,,,MERU,KE,636950-99999,2019,11,1.0
612930,99999,2019-10-03,12.383,-5.467,367.0,180.0,2.1,26.5,1011.4,SCT,,,,,,KOUTIALA,ML,612930-99999,2019,11,1.0
012120,99999,2019-10-03,62.867,6.533,15.0,60.0,9.0,10.5,1014.5,,,,99.0,9999.0,,ONA II,NO,012120-99999,2019,11,1.0
714180,99999,2019-10-03,47.226,-60.14,27.0,,,11.6,1014.2,,,,,,,ST PAUL ISLAND (AUT)  NS,CA,714180-99999,2019,11,1.0
076430,99999,2019-10-03,43.583,3.967,8.0,340.0,2.6,23.3,1013.5,,0.0,,6.0,0.0,,MEDITERRANEE,FR,076430-99999,2019,11,1.0
719000,99999,2019-10-03,55.45,-60.217,12.0,0.0,0.0,5.5,1021.8,,,,24.0,27.0,,HOPEDALE (AUT)  NFLD,CA,719000-99999,2019,11,1.0
076430,99999,2019-10-03,43.576,3.963,5.0,340.0,2.6,23.0,,,,,,,,MEDITERRANEE,FR,076430-99999,2019,11,1.0
070270,99999,2019-10-03,49.183,-0.45,67.0,250.0,1.5,15.9,1016.7,BKN,0.0,,6.0,0.0,,CARPIQUET,FR,070270-99999,2019,11,1.0
402500,99999,2019-10-03,32.5,38.2,683.0,50.0,2.1,25.4,,,,,,,,H4,JO,402500-99999,2019,11,1.0
710600,99999,2019-10-03,52.467,-116.067,1362.0,90.0,2.6,18.9,1011.9,,,,24.0,0.0,,NORDEGG CS  ALTA,CA,710600-99999,2019,11,1.0
154340,99999,2019-10-03,44.442,24.354,172.0,30.0,1.0,10.2,1012.3,CLR,,,6.0,9999.0,,SLATINA,RO,154340-99999,2019,11,1.0
764900,99999,2019-10-03,22.383,-89.683,2.0,60.0,5.0,37.2,1009.5,,,,6.0,0.0,,ISLA PEREZ,MX,764900-99999,2019,11,1.0
710600,99999,2019-10-03,52.47,-116.08,1362.0,90.0,2.6,18.9,1011.9,,,,,,,NORDEGG CS  ALTA,CA,710600-99999,2019,11,1.0
142360,99999,2019-10-03,45.814,15.972,157.0,350.0,1.0,15.7,1016.6,,,,,,,ZAGREB/GRIC,HR,142360-99999,2019,11,1.0
714180,99999,2019-10-03,47.23,-60.15,27.0,,,11.6,1014.2,,,,,,,ST PAUL ISLAND (AUT)  NS,CA,714180-99999,2019,11,1.0
623090,99999,2019-10-03,31.017,28.433,18.0,290.0,3.6,26.3,1006.2,,,,,,,DABAA,EG,623090-99999,2019,11,1.0
417150,99999,2019-10-03,28.3,68.467,56.0,0.0,0.0,32.0,990.1,,5.0,0.0,12.0,0.0,,SHAHBAZ AB,PK,417150-99999,2019,11,1.0
714450,99999,2019-10-03,52.819,-97.616,223.0,315.0,5.2,18.6,1016.8,,,,24.0,9999.0,,GEORGE ISLAND (AUT)  MAN,CA,714450-99999,2019,11,1.0
713320,99999,2019-10-03,67.82,-115.12,23.0,120.0,3.6,11.0,1006.2,,,,24.0,15.0,,KUGLUKTUK CLIMO,CA,713320-99999,2019,11,1.0
431971,99999,2019-10-03,15.85,74.617,747.0,270.0,3.1,21.0,,,51.0,,,,,BELGAUM AIRPORT,IN,431971-99999,2019,11,1.0
024320,99999,2019-10-03,59.233,15.05,53.0,270.0,2.0,15.1,1011.3,,,,,,,OREBRO,SW,024320-99999,2019,11,1.0
477690,99999,2019-10-03,34.833,134.667,40.0,60.0,2.6,21.7,1009.5,,,,12.0,80.0,,HIMEJI,JA,477690-99999,2019,11,1.0
489570,99999,2019-10-03,14.8,106.833,105.0,360.0,1.0,26.3,1008.7,OVC,10.0,,24.0,80.0,,ATTOPEU,LA,489570-99999,2019,11,1.0
011150,99999,2019-10-03,66.767,12.483,13.0,340.0,3.0,10.2,1014.9,OVC,2.0,2.0,6.0,0.0,,MYKEN,NO,011150-99999,2019,11,1.0
021020,99999,2019-10-03,65.1,14.517,1036.0,20.0,4.0,10.5,,,,,,,,STEKENJOKK,SW,021020-99999,2019,11,1.0
871620,99999,2019-10-03,-26.213,-58.228,59.0,50.0,3.1,21.0,,,,,,,,FORMOSA,AR,871620-99999,2019,11,1.0
480010,99999,2019-10-03,27.333,97.417,409.0,0.0,0.0,22.3,1002.9,OVC,60.0,6.0,12.0,150.0,,PUTAO,BM,480010-99999,2019,11,1.0
340560,99999,2019-10-03,52.25,43.783,213.0,200.0,1.0,8.8,1004.3,BKN,,,,,,RTISCEVO,RS,340560-99999,2019,11,1.0
983270,99999,2019-10-03,15.186,120.56,148.0,140.0,2.1,29.0,,,5.0,,,,,CLARK INTL,RP,983270-99999,2019,11,1.0
839670,99999,2019-10-03,-29.946,-51.144,8.0,,1.0,11.0,,,,,,,,CANOAS,BR,839670-99999,2019,11,1.0
084820,99999,2019-10-03,36.675,-4.499,16.0,280.0,1.5,21.0,,,,,,,,MALAGA,SP,084820-99999,2019,11,1.0
144470,99999,2019-10-03,43.171,16.437,20.0,50.0,4.0,20.7,1011.3,,,,,,,HVAR,HR,144470-99999,2019,11,1.0
579160,99999,2019-10-03,25.433,106.767,441.0,,,22.1,1005.5,OVC,60.0,,24.0,92.0,,LUODIAN,CH,579160-99999,2019,11,1.0
672610,99999,2019-10-03,-16.183,33.583,150.0,180.0,2.1,19.5,1023.6,FEW,,,,,,TETE,MZ,672610-99999,2019,11,1.0
719000,99999,2019-10-03,55.45,-60.22,12.0,,,5.5,1021.8,,,,,,,HOPEDALE (AUT)  NFLD,CA,719000-99999,2019,11,1.0
010840,99999,2019-10-03,69.455,30.041,27.0,65.0,0.5,5.1,,,,,6.0,9999.0,,PASVIK,NO,010840-99999,2019,11,1.0
713320,99999,2019-10-03,67.82,-115.15,23.0,120.0,3.6,11.0,1006.2,,,,1.0,2.0,,KUGLUKTUK CLIMO,CA,713320-99999,2019,11,1.0
084820,99999,2019-10-03,36.666,-4.482,5.0,290.0,2.1,23.2,1015.0,CLR,,,6.0,9999.0,,MALAGA,SP,084820-99999,2019,11,1.0
298380,99999,2019-10-03,53.364,83.539,255.0,360.0,2.0,14.0,,,,,,,,BARNAUL,RS,298380-99999,2019,11,1.0
416970,99999,2019-10-03,29.55,67.883,134.0,0.0,0.0,33.3,990.1,,,,12.0,0.0,,SIBI,PK,416970-99999,2019,11,1.0
871620,99999,2019-10-03,-26.2,-58.233,59.0,50.0,3.1,20.5,1013.2,,,,,,,FORMOSA,AR,871620-99999,2019,11,1.0
066930,99999,2019-10-03,47.273,9.108,623.0,286.0,0.2,9.2,,,,,6.0,9999.0,,EBNAT-KAPPEL,SZ,066930-99999,2019,11,1.0
517110,99999,2019-10-03,40.933,78.45,1986.0,270.0,2.0,13.8,,,,,24.0,1.0,,AKQI,CH,517110-99999,2019,11,1.0
357000,99999,2019-10-03,47.117,51.917,-22.0,350.0,1.0,22.6,1006.0,SCT,,,,,,ATYRAU,KZ,357000-99999,2019,11,1.0
560180,99999,2019-10-03,32.9,95.3,4068.0,90.0,1.0,6.4,,,,,24.0,43.0,,ZADOI,CH,560180-99999,2019,11,1.0
624580,99999,2019-10-03,28.9,33.183,8.0,320.0,3.1,29.0,1003.1,,,,,,,ABURDEES,EG,624580-99999,2019,11,1.0
471190,99999,2019-10-03,37.272,126.985,35.0,342.0,4.0,21.2,1004.7,OVC,60.0,6.0,12.0,67.0,,SUWON,KS,471190-99999,2019,11,1.0
383285,99999,2019-10-03,42.85,71.3,652.0,270.0,2.0,20.6,1003.2,,,,,,,TARAZ,KZ,383285-99999,2019,11,1.0
480570,99999,2019-10-03,20.783,97.05,1436.0,270.0,0.5,19.4,,BKN,,,12.0,100.0,,TAUNGGYI,BM,480570-99999,2019,11,1.0
173700,99999,2019-10-03,36.592,36.158,4.0,80.0,0.5,27.2,1002.9,SCT,,,6.0,9999.0,,ISKENDERUN,TU,173700-99999,2019,11,1.0
898790,99999,2019-10-03,-71.883,171.2,30.0,,,-10.3,,,,,,,,POSSESSION IS,AY,898790-99999,2019,11,1.0
983270,99999,2019-10-03,15.183,120.55,155.0,140.0,2.0,28.6,1013.7,SCT,5.0,4.0,24.0,232.0,,CLARK INTL,RP,983270-99999,2019,11,1.0
725720,24127,2019-10-03,40.783,-111.95,1289.0,150.0,4.1,36.7,1012.0,FEW,,,,,,SALT LAKE CITY INTERNATIONAL AIRPORT,US,725720-24127,2019,11,1.0
476160,99999,2019-10-03,36.05,136.217,17.0,130.0,4.6,22.1,1009.9,OVC,61.0,6.0,24.0,5.0,,FUKUI,JA,476160-99999,2019,11,1.0
378635,99999,2019-10-03,39.189,45.458,873.0,90.0,6.2,24.0,,CLR,,,,,,NAKHCHIVAN,AJ,378635-99999,2019,11,1.0
999999,53154,2019-10-03,32.835,-114.188,189.0,,3.4,41.5,,,,,1.0,0.0,,YUMA 27 ENE,US,999999-53154,2019,11,1.0
444290,99999,2019-10-03,28.05,82.5,634.0,0.0,0.0,24.2,995.7,OVC,,,,,,DANG,NP,444290-99999,2019,11,1.0
171200,99999,2019-10-03,40.15,29.967,539.0,290.0,1.5,18.2,1005.3,SCT,,,6.0,0.0,,BILECIK,TU,171200-99999,2019,11,1.0
153730,99999,2019-10-03,44.85,24.817,315.0,330.0,2.0,11.7,1011.5,,,,6.0,0.0,,PITESTI,RO,153730-99999,2019,11,1.0
383285,99999,2019-10-03,42.854,71.304,666.0,220.0,4.0,20.0,,CLR,,,,,,TARAZ,KZ,383285-99999,2019,11,1.0
298380,99999,2019-10-03,53.433,83.517,184.0,,,15.4,1017.0,SCT,,,12.0,0.0,,BARNAUL,RS,298380-99999,2019,11,1.0
768430,99999,2019-10-03,16.75,-93.133,576.0,230.0,1.0,26.7,1010.8,BKN,,,24.0,8.0,,TUXTLA GUTIERREZ   CHIS.,MX,768430-99999,2019,11,1.0
724190,03889,2019-10-03,37.591,-83.314,9999.0,,,,,,,,6.0,0.0,0.0,JULIAN CARROLL AIRPORT,US,724190-03889,2019,11,1.0
648100,99999,2019-10-03,3.755,8.709,23.0,0.0,0.0,22.0,,,,,,,,MALABO,EK,648100-99999,2019,11,1.0
869160,99999,2019-10-03,-24.533,-54.019,392.0,226.0,3.7,16.2,1017.3,,,,99.0,9999.0,,MARECHAL CANDIDO RONDON,BR,869160-99999,2019,11,1.0
999999,94995,2019-10-03,40.848,-96.565,362.0,,1.4,26.6,,,,,1.0,0.0,,LINCOLN 8 ENE,US,999999-94995,2019,11,1.0
994010,99999,2019-10-03,28.9,-89.43,0.0,340.0,8.8,28.0,1011.8,,,,,,,SOUTHWEST PASS  LA,US,994010-99999,2019,11,1.0
112700,99999,2019-10-03,46.742,13.083,628.0,0.0,0.0,11.0,1017.7,,,,6.0,9999.0,,DELLACH IM DRAUTAL,AU,112700-99999,2019,11,1.0
064840,99999,2019-10-03,49.62,5.587,324.0,9.0,1.7,14.1,1017.0,,,,6.0,1.0,,BUZENOL,BE,064840-99999,2019,11,1.0
261450,99999,2019-10-03,58.867,26.95,34.0,,,13.8,1006.5,BKN,,,3.0,0.0,,TILRIKOJA,EN,261450-99999,2019,11,1.0
868440,99999,2019-10-03,-21.781,-47.075,734.0,338.0,1.8,18.5,1021.4,,,,99.0,9999.0,,CASA BRANCA,BR,868440-99999,2019,11,1.0
998237,99999,2019-10-03,13.417,144.8,7.0,50.0,2.6,,1010.9,,,,,,,PAGO BAY,GQ,998237-99999,2019,11,1.0
607480,99999,2019-10-03,35.0,9.483,355.0,0.0,0.0,25.7,1013.3,,,,3.0,0.0,,SIDI BOUZID,TS,607480-99999,2019,11,1.0
122260,99999,2019-10-03,53.383,16.083,121.0,280.0,4.0,12.1,1013.5,BKN,,,,,,MIROSLAWIEC,PL,122260-99999,2019,11,1.0
060820,99999,2019-10-03,55.967,8.633,25.0,130.0,1.5,13.4,,,,,6.0,9999.0,,BORRIS,DA,060820-99999,2019,11,1.0
710170,99999,2019-10-03,73.77,-105.28,11.0,30.0,1.5,1.3,1006.0,,,,,,,STEFANSSON ISLAND  NU,CA,710170-99999,2019,11,1.0
710170,99999,2019-10-03,73.75,-105.283,11.0,30.0,1.5,1.3,1006.0,,,,24.0,0.0,,STEFANSSON ISLAND  NU,CA,710170-99999,2019,11,1.0
122260,99999,2019-10-03,53.395,16.083,151.0,280.0,4.1,12.0,,,,,,,,MIROSLAWIEC,PL,122260-99999,2019,11,1.0
837680,99999,2019-10-03,-23.334,-51.13,569.0,0.0,0.0,19.0,,,,,,,,LONDRINA,BR,837680-99999,2019,11,1.0
308230,99999,2019-10-03,51.833,107.6,515.0,250.0,1.0,20.8,1006.7,BKN,,,12.0,0.0,,MUKHINO,RS,308230-99999,2019,11,1.0
308230,99999,2019-10-03,51.808,107.438,515.0,270.0,2.0,20.0,,CLR,,,,,,MUKHINO,RS,308230-99999,2019,11,1.0
066740,99999,2019-10-03,47.188,8.465,443.0,100.0,0.6,14.0,1017.4,,,,6.0,9999.0,,CHAM,SZ,066740-99999,2019,11,1.0
116030,99999,2019-10-03,50.77,15.024,398.0,0.0,0.0,9.7,1016.2,,,,6.0,9999.0,,LIBEREC,EZ,116030-99999,2019,11,1.0
787030,99999,2019-10-03,16.317,-86.517,2.0,80.0,9.3,29.8,1013.6,BKN,5.0,4.0,24.0,0.0,,JUAN MANUEL GALVEZ INTL,HO,787030-99999,2019,11,1.0
787030,99999,2019-10-03,16.317,-86.523,5.0,80.0,9.3,30.0,,,,,,,,JUAN MANUEL GALVEZ INTL,HO,787030-99999,2019,11,1.0
712550,99999,2019-10-03,57.041,-111.559,310.0,358.0,1.9,15.4,,,,,24.0,33.0,,MILDRED LAKE  ALTA,CA,712550-99999,2019,11,1.0
043300,99999,2019-10-03,74.3,-20.217,44.0,160.0,2.1,-0.5,1013.2,,,,,,,DANEBORG (AUT),GL,043300-99999,2019,11,1.0
412420,99999,2019-10-03,25.617,56.25,10.0,340.0,1.0,31.9,996.3,,,,,,,DIBA,MU,412420-99999,2019,11,1.0
010230,99999,2019-10-03,69.067,18.533,79.0,280.0,1.0,9.8,1014.5,,,,6.0,0.0,,BARDUFOSS,NO,010230-99999,2019,11,1.0
946470,99999,2019-10-03,-31.68,128.879,102.0,290.0,3.6,12.5,1025.8,,,,,,,EUCLA,AS,946470-99999,2019,11,1.0
573990,99999,2019-10-03,31.133,114.95,75.0,90.0,1.0,26.0,1008.3,FEW,,,24.0,7.0,,MACHENG,CH,573990-99999,2019,11,1.0
713520,99999,2019-10-03,43.65,-80.417,376.0,230.0,3.6,26.4,1013.1,,,,24.0,38.0,,ELORA RCS  ONT,CA,713520-99999,2019,11,1.0
486250,99999,2019-10-03,4.567,101.1,40.0,30.0,1.5,25.7,1012.7,BKN,5.0,2.0,24.0,0.0,,IPOH,MY,486250-99999,2019,11,1.0
713520,99999,2019-10-03,43.65,-80.417,376.0,230.0,3.6,26.4,1013.1,,,,,,,ELORA RCS  ONT,CA,713520-99999,2019,11,1.0
999999,03759,2019-10-03,37.998,-78.466,359.0,,0.8,25.5,,,,,1.0,0.0,,CHARLOTTESVILLE 2 SSE,US,999999-03759,2019,11,1.0
027180,99999,2019-10-03,61.522,28.185,98.0,12.0,2.2,10.0,,BKN,,,,,0.0,PUUMALA KK URHEILUKENTTA,FI,027180-99999,2019,11,1.0
719120,99999,2019-10-03,56.35,-94.717,145.0,290.0,3.1,21.0,1014.5,SCT,,,,,,GILLAM AIRPORT,CA,719120-99999,2019,11,1.0
075540,99999,2019-10-03,44.533,3.45,716.0,120.0,1.5,14.5,,,0.0,,6.0,0.0,,MENDE,FR,075540-99999,2019,11,1.0
719120,99999,2019-10-03,56.35,-94.717,145.0,290.0,2.6,21.4,1014.5,SCT,,,24.0,0.0,,GILLAM AIRPORT,CA,719120-99999,2019,11,1.0
140230,99999,2019-10-03,46.237,15.231,242.0,230.0,0.6,10.2,1017.7,,,,,,,CELJE,SI,140230-99999,2019,11,1.0
716840,99999,2019-10-03,47.7,-79.85,243.0,160.0,5.1,25.0,1009.6,CLR,,,,,,TIMISKAMING RGNL / EARLTON,CA,716840-99999,2019,11,1.0
541350,99999,2019-10-03,43.6,122.27,180.0,160.0,1.0,21.6,1007.2,BKN,,,24.0,9999.0,,TONGLIAO,CH,541350-99999,2019,11,1.0
716840,99999,2019-10-03,47.7,-79.85,244.0,160.0,5.1,25.0,1009.7,,,,24.0,0.0,,TIMISKAMING RGNL / EARLTON,CA,716840-99999,2019,11,1.0
475900,99999,2019-10-03,38.267,140.9,44.0,160.0,4.1,20.6,1016.6,BKN,,,24.0,0.0,,SENDAI,JA,475900-99999,2019,11,1.0
949750,99999,2019-10-03,-42.836,147.51,4.0,350.0,3.6,10.0,,,,,,,,HOBART,AS,949750-99999,2019,11,1.0
949750,99999,2019-10-03,-42.833,147.5,27.0,350.0,3.6,10.4,989.8,,,,,,,HOBART,AS,949750-99999,2019,11,1.0
167264,99999,2019-10-03,37.421,24.948,70.0,,0.5,26.8,1003.5,,,,6.0,0.0,,SYROS,GR,167264-99999,2019,11,1.0
013830,99999,2019-10-03,61.4,11.08,255.0,270.0,1.0,12.3,1013.6,,,,,,,EVENSTAD-DIH,NO,013830-99999,2019,11,1.0
014620,99999,2019-10-03,59.083,9.667,90.0,,,13.8,,,,,6.0,0.0,,PORSGRUNN,NO,014620-99999,2019,11,1.0
024520,99999,2019-10-03,59.3,14.9,219.0,290.0,2.0,15.0,,BKN,,,1.0,0.0,,KILSBERGEN-SUTTARBODA,SW,024520-99999,2019,11,1.0
869290,99999,2019-10-03,-25.568,-51.078,1209.0,181.0,0.6,10.7,1023.0,,,,99.0,9999.0,,INACIO MARTINS,BR,869290-99999,2019,11,1.0
370310,99999,2019-10-03,44.983,41.117,159.0,330.0,1.0,18.0,1006.3,BKN,,,,,,ARMAVIR,RS,370310-99999,2019,11,1.0
683900,99999,2019-10-03,-25.884,31.501,480.0,340.0,0.5,13.0,,,,,,,,MAYIWANNE,WZ,683900-99999,2019,11,1.0
085940,99999,2019-10-03,16.75,-22.95,54.0,50.0,6.2,23.1,1016.0,SCT,,,,,,AMILCAR CABRAL INTL,CV,085940-99999,2019,11,1.0
085940,99999,2019-10-03,16.741,-22.949,54.0,50.0,6.2,23.0,,,,,,,,AMILCAR CABRAL INTL,CV,085940-99999,2019,11,1.0
718760,99999,2019-10-03,52.769,-108.244,548.0,130.0,4.6,23.0,1011.9,,,,,,,NORTH BATTLEFORD,CA,718760-99999,2019,11,1.0
916310,99999,2019-10-03,-5.667,176.133,3.0,20.0,4.1,32.1,1010.1,BKN,2.0,2.0,24.0,0.0,,NANUMEA ISLAND,TV,916310-99999,2019,11,1.0
718760,99999,2019-10-03,52.767,-108.25,548.0,120.0,4.6,23.4,1012.0,OVC,,,24.0,0.0,,NORTH BATTLEFORD,CA,718760-99999,2019,11,1.0
144540,99999,2019-10-03,43.288,17.02,49.0,20.0,6.0,21.7,1010.0,,,,,,,MAKARSKA,HR,144540-99999,2019,11,1.0
061090,99999,2019-10-03,55.467,9.117,62.0,180.0,0.5,13.0,,,,,6.0,9999.0,,ASKOV,DA,061090-99999,2019,11,1.0
762200,99999,2019-10-03,28.95,-107.817,1932.0,180.0,3.0,25.4,1009.1,OVC,,,24.0,0.0,,TEMOSACHIC  CHIH.,MX,762200-99999,2019,11,1.0
480370,99999,2019-10-03,22.1,95.133,82.0,90.0,0.5,28.8,1002.2,OVC,2.0,2.0,12.0,0.0,,MONYWA,BM,480370-99999,2019,11,1.0
681160,99999,2019-10-03,-22.467,18.967,1400.0,340.0,1.0,9.1,,,,,,,,GOBABIS,WA,681160-99999,2019,11,1.0
027730,99999,2019-10-03,60.454,22.179,8.0,312.0,1.2,12.5,1007.7,BKN,,0.0,,,0.0,TURKU ARTUKAINEN,FI,027730-99999,2019,11,1.0
681160,99999,2019-10-03,-22.5,18.967,1387.0,340.0,0.5,9.0,,,,,,,,GOBABIS,WA,681160-99999,2019,11,1.0
868090,99999,2019-10-03,-20.982,-54.972,471.0,141.0,0.7,19.5,1016.7,,,,99.0,9999.0,,SIDROLANDIA,BR,868090-99999,2019,11,1.0
712830,99999,2019-10-03,56.117,-117.883,748.0,0.0,0.0,16.7,,,,,24.0,9999.0,,BROWNVALE AGCM,CA,712830-99999,2019,11,1.0
478123,99999,2019-10-03,33.017,129.183,20.0,240.0,2.1,24.0,,,,,,,,KAMIGOTO,JA,478123-99999,2019,11,1.0
713520,99999,2019-10-03,43.65,-80.42,376.0,230.0,3.6,26.4,1013.1,,,,,,,ELORA RCS  ONT,CA,713520-99999,2019,11,1.0
014340,99999,2019-10-03,59.767,7.367,822.0,,,6.7,1015.1,,,,6.0,0.0,,VAAGSLI,NO,014340-99999,2019,11,1.0
997358,99999,2019-10-03,30.397,-81.43,2.0,130.0,3.1,26.6,1015.6,,,,,,,MAYPORT,US,997358-99999,2019,11,1.0
619880,99999,2019-10-03,-19.683,63.417,59.0,150.0,4.6,21.6,1015.1,FEW,,,6.0,0.0,,PLAINE CORAIL,MP,619880-99999,2019,11,1.0
867480,99999,2019-10-03,-17.175,-54.502,593.0,168.0,0.1,22.7,1002.2,,,,99.0,9999.0,,ITIQUIRA,BR,867480-99999,2019,11,1.0
917830,99999,2019-10-03,-18.585,-173.962,72.0,80.0,2.1,25.0,,,80.0,,,,,VAVAU INTL,TN,917830-99999,2019,11,1.0
124880,99999,2019-10-03,51.567,21.55,126.0,270.0,2.0,12.1,1011.2,FEW,,,6.0,0.0,,KOZIENICE,PL,124880-99999,2019,11,1.0
434130,99999,2019-10-03,8.983,79.917,3.0,230.0,1.5,26.8,1008.3,BKN,,,3.0,0.0,,MANNAR,CE,434130-99999,2019,11,1.0
867530,99999,2019-10-03,-17.785,-50.965,780.0,106.0,1.5,20.5,1019.4,,,,99.0,9999.0,,RIO VERDE,BR,867530-99999,2019,11,1.0
713680,99999,2019-10-03,43.461,-80.379,321.0,190.0,3.6,28.0,1012.8,,,,,,,WATERLOO,CA,713680-99999,2019,11,1.0
514630,99999,2019-10-03,43.8,87.65,947.0,160.0,1.0,19.2,1009.1,BKN,,,24.0,10.0,,WU LU MU QI,CH,514630-99999,2019,11,1.0
579570,99999,2019-10-03,25.333,110.3,166.0,340.0,1.0,23.2,1007.0,BKN,,,,,,LIANGJIANG,CH,579570-99999,2019,11,1.0
579570,99999,2019-10-03,25.218,110.039,174.0,0.0,0.0,22.0,,,,,,,,LIANGJIANG,CH,579570-99999,2019,11,1.0
528360,99999,2019-10-03,36.3,98.1,3190.0,140.0,1.0,7.7,,BKN,,,24.0,30.0,,DOULAN,CH,528360-99999,2019,11,1.0
713680,99999,2019-10-03,43.467,-80.383,321.0,200.0,4.1,27.6,1012.9,OVC,,,24.0,0.0,,WATERLOO,CA,713680-99999,2019,11,1.0
265440,99999,2019-10-03,55.867,26.617,122.0,,,12.4,1007.0,BKN,,,,,,DAUGAVPILS,LG,265440-99999,2019,11,1.0
151110,99999,2019-10-03,46.969,26.912,216.0,40.0,1.0,11.2,1011.0,,,,6.0,9999.0,,ROMAN,RO,151110-99999,2019,11,1.0
713870,99999,2019-10-03,48.883,-71.017,304.0,200.0,1.0,21.3,1015.8,,,,24.0,0.0,,ONATCHIWAY  QUE,CA,713870-99999,2019,11,1.0
374840,99999,2019-10-03,41.61,41.6,32.0,130.0,5.1,20.0,,,61.0,,,,,BATUMI,GG,374840-99999,2019,11,1.0
688390,99999,2019-10-03,-33.7,25.433,157.0,340.0,1.5,8.7,,,,,,,,UITENHAGE,SF,688390-99999,2019,11,1.0
549450,99999,2019-10-03,35.433,119.533,37.0,180.0,1.0,23.9,1008.8,FEW,,,,,,RIZHAO,CH,549450-99999,2019,11,1.0
143210,99999,2019-10-03,44.756,14.769,24.0,80.0,2.0,20.6,1014.2,,,,,,,RAB,HR,143210-99999,2019,11,1.0
381415,99999,2019-10-03,39.775,64.483,229.0,350.0,2.1,25.0,,,,,,,,BUKHARA,UZ,381415-99999,2019,11,1.0
111710,99999,2019-10-03,47.8,15.3,975.0,140.0,2.6,8.0,,,,,,,,ST SEBASTIAN/MARIAZELL,AU,111710-99999,2019,11,1.0
867940,99999,2019-10-03,-19.986,-48.152,573.0,32.0,1.4,15.5,1020.6,,,,99.0,9999.0,,CONCEICAO DAS ALAGOAS,BR,867940-99999,2019,11,1.0
716050,99999,2019-10-03,49.526,-123.496,125.0,360.0,0.2,19.5,1017.1,,,,,,,PORT MELLON,CA,716050-99999,2019,11,1.0
687540,99999,2019-10-03,-32.517,27.467,900.0,20.0,1.0,13.3,,,,,,,,DOHNE,SF,687540-99999,2019,11,1.0
474130,99999,2019-10-03,43.217,141.783,52.0,150.0,6.2,19.2,1016.5,,,,12.0,0.0,,IWAMIZAWA,JA,474130-99999,2019,11,1.0
535640,99999,2019-10-03,39.38,111.15,861.0,200.0,1.0,19.1,1007.5,OVC,,,24.0,1.0,,HEQU,CH,535640-99999,2019,11,1.0
153440,99999,2019-10-03,45.183,23.817,532.0,350.0,2.0,8.4,,,,,6.0,0.0,,POLOVRAGI,RO,153440-99999,2019,11,1.0
075300,99999,2019-10-03,44.825,0.519,52.0,120.0,0.5,15.0,,,,,,,,ROUMANIERE,FR,075300-99999,2019,11,1.0
113590,99999,2019-10-03,47.447,13.904,766.0,280.0,1.0,8.6,1019.6,,,,6.0,9999.0,,GROEBMING,AU,113590-99999,2019,11,1.0
768560,99999,2019-10-03,15.667,-96.5,9999.0,70.0,4.0,28.9,1011.7,,,,6.0,0.0,,PUERTO ANGEL  OAX.,MX,768560-99999,2019,11,1.0
561370,99999,2019-10-03,31.15,97.17,3307.0,270.0,1.0,12.0,,BKN,21.0,,24.0,91.0,,QAMDO,CH,561370-99999,2019,11,1.0
333770,99999,2019-10-03,50.0,33.017,158.0,220.0,1.0,11.6,1005.6,,,,,,,LUBNY,UP,333770-99999,2019,11,1.0
478820,99999,2019-10-03,33.827,132.7,8.0,10.0,3.6,24.0,,,80.0,,,,,MATSUYAMA,JA,478820-99999,2019,11,1.0
575030,99999,2019-10-03,29.617,105.117,349.0,360.0,1.0,23.4,1002.0,OVC,10.0,,24.0,50.0,,NEIJIANG,CH,575030-99999,2019,11,1.0
013650,99999,2019-10-03,61.251,8.917,965.0,40.0,3.0,11.6,,,,,6.0,0.0,,BEITOSTOLEN II,NO,013650-99999,2019,11,1.0
529960,99999,2019-10-03,35.383,105.0,2450.0,110.0,2.0,11.1,,BKN,,,,,,HUAJIALING,CH,529960-99999,2019,11,1.0
713100,99999,2019-10-03,46.45,-62.576,30.0,318.0,2.5,13.1,1017.7,,,,24.0,9999.0,,ST. PETERS  PEI,CA,713100-99999,2019,11,1.0
348610,99999,2019-10-03,46.3,44.183,197.0,80.0,3.0,19.5,1006.8,OVC,80.0,8.0,,,,ELISTA,RS,348610-99999,2019,11,1.0
348610,99999,2019-10-03,46.367,44.333,153.0,140.0,2.0,21.0,,,,,,,,ELISTA,RS,348610-99999,2019,11,1.0
713100,99999,2019-10-03,46.45,-62.58,30.0,320.0,2.6,13.1,1017.7,,,,,,,ST. PETERS  PEI,CA,713100-99999,2019,11,1.0
075300,99999,2019-10-03,44.817,0.517,51.0,120.0,0.5,15.2,1015.1,,0.0,,6.0,0.0,,ROUMANIERE,FR,075300-99999,2019,11,1.0
715971,99999,2019-10-03,46.55,-61.05,13.0,340.0,7.2,14.0,1016.0,,,,,,,GRAND ETANG,CA,715971-99999,2019,11,1.0
713890,99999,2019-10-03,46.691,-71.972,61.0,98.0,2.2,21.7,,,,,24.0,9999.0,,DESCHAMBAULT CS  QUE,CA,713890-99999,2019,11,1.0
713890,99999,2019-10-03,46.68,-71.97,61.0,100.0,2.1,21.6,,,,,,,,DESCHAMBAULT CS  QUE,CA,713890-99999,2019,11,1.0
222130,99999,2019-10-03,67.55,33.35,134.0,300.0,2.0,3.2,1012.5,BKN,,,,,,APATITY,RS,222130-99999,2019,11,1.0
028170,99999,2019-10-03,68.434,27.444,437.0,60.0,4.0,4.0,1015.3,,,,,,,SAARISELKA KAUNISPAA,FI,028170-99999,2019,11,1.0
540960,99999,2019-10-03,44.383,131.15,498.0,90.0,3.0,12.8,1011.6,BKN,,,,,,SUIFENHE,CH,540960-99999,2019,11,1.0
715500,99999,2019-10-03,51.1,-100.05,305.0,90.0,1.5,24.0,1017.2,,,,,,,DAUPHIN CS  MAN,CA,715500-99999,2019,11,1.0
804150,99999,2019-10-03,10.603,-66.991,72.0,70.0,3.1,25.0,,,,,,,,SIMON BOLIVAR INTL,VE,804150-99999,2019,11,1.0
715500,99999,2019-10-03,51.1,-100.05,305.0,90.0,1.5,24.0,1017.2,,,,24.0,12.0,,DAUPHIN CS  MAN,CA,715500-99999,2019,11,1.0
683923,99999,2019-10-03,-26.704,31.426,341.0,0.0,0.0,10.0,,,,,,,,MOTI,WZ,683923-99999,2019,11,1.0
969250,99999,2019-10-03,-5.85,112.633,3.0,100.0,5.1,27.3,1014.2,SCT,,,,,,SANGKAPURA (BAWEAN IS.),ID,969250-99999,2019,11,1.0
577990,99999,2019-10-03,27.12,114.97,78.0,110.0,1.0,23.0,1008.8,OVC,10.0,,24.0,1.0,,JI'AN,CH,577990-99999,2019,11,1.0
994951,99999,2019-10-03,27.862,-80.445,10.0,160.0,5.1,26.7,1016.0,,,,,,,SEBASTIAN INLET STATE PARK,US,994951-99999,2019,11,1.0
715971,99999,2019-10-03,46.55,-61.05,13.0,340.0,7.2,14.0,1016.0,,,,24.0,9999.0,,GRAND ETANG,CA,715971-99999,2019,11,1.0
026610,99999,2019-10-03,56.833,15.467,232.0,,,7.8,1013.4,,,,6.0,0.0,,KOSTA (ORREFORS),SW,026610-99999,2019,11,1.0
083830,99999,2019-10-03,37.278,-6.912,19.0,210.0,2.6,22.1,1013.1,,,,6.0,9999.0,,HUELVA,SP,083830-99999,2019,11,1.0
080230,99999,2019-10-03,43.491,-3.8,52.0,140.0,1.5,17.6,1016.8,FEW,,,6.0,9999.0,,SANTANDER,SP,080230-99999,2019,11,1.0
712790,99999,2019-10-03,50.22,-66.25,53.0,310.0,0.5,15.1,1018.6,,,,,,,SEPT-ILES  QUE,CA,712790-99999,2019,11,1.0
712790,99999,2019-10-03,50.218,-66.241,52.0,305.0,0.6,14.6,1018.6,,,,24.0,9999.0,,SEPT-ILES  QUE,CA,712790-99999,2019,11,1.0
711980,99999,2019-10-03,46.18,-72.92,16.0,70.0,5.7,23.9,,,,,,,,LAC SAINT- PIERRE  QUE,CA,711980-99999,2019,11,1.0
718960,99999,2019-10-03,53.889,-122.679,691.0,200.0,1.0,15.0,1012.8,,,,1.0,22.0,,PRINCE GEORGE,CA,718960-99999,2019,11,1.0
718960,99999,2019-10-03,53.883,-122.667,691.0,190.0,1.5,15.4,1012.8,BKN,,,24.0,164.0,,PRINCE GEORGE,CA,718960-99999,2019,11,1.0
998259,99999,2019-10-03,59.45,-135.318,3.0,0.0,0.0,22.4,1008.7,,,,,,,SKAGWAY,US,998259-99999,2019,11,1.0
723830,23187,2019-10-03,34.75,-118.733,1379.0,160.0,5.7,28.3,1017.1,,,,,,,SANDBERG,US,723830-23187,2019,11,1.0
408930,99999,2019-10-03,25.654,57.799,6.0,100.0,6.2,31.0,,CLR,10.0,,,,,JASK,IR,408930-99999,2019,11,1.0
408930,99999,2019-10-03,25.633,57.767,5.0,100.0,6.0,31.2,994.9,,10.0,0.0,6.0,0.0,,JASK,IR,408930-99999,2019,11,1.0
717460,99999,2019-10-03,43.0,-82.3,181.0,190.0,3.6,29.7,1010.2,,,,24.0,0.0,,SARNIA CLIMATE,CA,717460-99999,2019,11,1.0
479300,99999,2019-10-03,26.196,127.646,4.0,200.0,6.2,30.0,,,,,,,,NAHA,JA,479300-99999,2019,11,1.0
715480,99999,2019-10-03,54.282,-111.453,619.0,,,18.5,,,,,1.0,9999.0,,ST LINA AGCM,CA,715480-99999,2019,11,1.0
717460,99999,2019-10-03,43.0,-82.3,181.0,190.0,3.6,29.7,1010.2,,,,,,,SARNIA CLIMATE,CA,717460-99999,2019,11,1.0
471730,99999,2019-10-03,35.421,127.397,133.0,221.0,1.1,20.2,1004.6,BKN,,,12.0,17.0,,NAMWON,KS,471730-99999,2019,11,1.0
066060,99999,2019-10-03,47.048,7.059,430.0,284.0,0.6,12.2,1017.3,,,,6.0,9999.0,,CRESSIER,SZ,066060-99999,2019,11,1.0
726400,14839,2019-10-03,42.95,-87.9,211.0,270.0,6.7,32.2,1009.3,FEW,,,,,,GENERAL MITCHELL INTERNATIONAL AP,US,726400-14839,2019,11,1.0
814050,99999,2019-10-03,4.833,-52.367,8.0,0.0,0.0,24.0,1014.0,,0.0,,6.0,0.0,,ROCHAMBEAU,FG,814050-99999,2019,11,1.0
505640,99999,2019-10-03,49.433,127.35,235.0,20.0,2.0,23.5,1007.5,BKN,,,24.0,5.0,,SUNWU,CH,505640-99999,2019,11,1.0
867050,99999,2019-10-03,-15.559,-56.063,242.0,122.0,1.4,27.0,1014.7,,,,99.0,9999.0,,CUIABA,BR,867050-99999,2019,11,1.0
814050,99999,2019-10-03,4.82,-52.36,8.0,0.0,0.0,24.0,,,,,,,,ROCHAMBEAU,FG,814050-99999,2019,11,1.0
998483,99999,2019-10-03,26.077,-97.177,10.0,140.0,5.1,28.8,1013.4,,,,,,,S PADRE ISLAND CGS,US,998483-99999,2019,11,1.0
946040,99999,2019-10-03,-33.35,115.65,6.0,360.0,1.0,8.8,1029.4,,,,,,,BUNBURY,AS,946040-99999,2019,11,1.0
433600,99999,2019-10-03,9.833,78.083,131.0,0.0,0.0,26.8,1007.6,BKN,,,,,,MADURAI,IN,433600-99999,2019,11,1.0
113450,99999,2019-10-03,47.329,13.155,749.0,120.0,1.0,10.7,1019.3,,,,6.0,9999.0,,ST VEIT IM PONGAU,AU,113450-99999,2019,11,1.0
433600,99999,2019-10-03,9.835,78.093,140.0,0.0,0.0,27.0,,,,,,,,MADURAI,IN,433600-99999,2019,11,1.0
471120,99999,2019-10-03,37.48,126.63,70.0,20.0,5.0,20.5,1005.1,OVC,60.0,6.0,12.0,30.0,,INCHEON,KS,471120-99999,2019,11,1.0
254690,99999,2019-10-03,65.183,176.767,19.0,100.0,1.0,27.4,1011.7,SCT,,,,,,KANCHALAN,RS,254690-99999,2019,11,1.0
713590,99999,2019-10-03,53.667,-110.583,616.0,30.0,2.1,21.4,,,,,24.0,8.0,,DEWBERRY AGCM,CA,713590-99999,2019,11,1.0
715470,99999,2019-10-03,56.067,-119.333,703.0,210.0,2.1,15.0,,,,,24.0,0.0,,SAVANNA AGCM,CA,715470-99999,2019,11,1.0
037160,99999,2019-10-03,51.401,-3.445,49.0,250.0,3.1,16.6,1015.2,,,,6.0,9999.0,,ST ATHAN,UK,037160-99999,2019,11,1.0
244620,99999,2019-10-03,65.3,130.0,777.0,50.0,1.0,21.4,1008.1,FEW,,,12.0,0.0,,SEBYAN-KYUEL',RS,244620-99999,2019,11,1.0
027020,99999,2019-10-03,69.141,27.266,156.0,,,6.1,,OVC,,,,,0.0,INARI KAAMANEN,FI,027020-99999,2019,11,1.0
872570,99999,2019-10-03,-29.883,-61.95,87.0,180.0,1.0,16.8,1012.5,,,,,,,CERES,AR,872570-99999,2019,11,1.0
121150,99999,2019-10-03,54.583,16.867,11.0,330.0,6.0,15.9,1012.5,FEW,,,6.0,0.0,,USTKA,PL,121150-99999,2019,11,1.0
118260,99999,2019-10-03,48.62,17.83,163.0,360.0,2.0,8.2,1015.3,,,,6.0,9999.0,,PIESTANY,LO,118260-99999,2019,11,1.0
013460,99999,2019-10-03,60.65,7.267,1162.0,140.0,1.0,10.1,,,,,6.0,0.0,,MIDTSTOVA,NO,013460-99999,2019,11,1.0
070720,99999,2019-10-03,49.217,4.15,96.0,0.0,0.0,14.5,1015.8,OVC,0.0,,6.0,0.0,,REIMS-PRUNAY,FR,070720-99999,2019,11,1.0
070720,99999,2019-10-03,49.209,4.157,95.0,0.0,0.0,15.0,,,,,,,,REIMS-PRUNAY,FR,070720-99999,2019,11,1.0
142530,99999,2019-10-03,45.917,16.867,142.0,,,11.8,1016.7,,,,,,,BJELOVAR,HR,142530-99999,2019,11,1.0
407370,99999,2019-10-03,36.45,52.817,14.0,,,22.0,1005.0,FEW,,,6.0,0.0,,GHARAKHIL,IR,407370-99999,2019,11,1.0
121240,99999,2019-10-03,54.4,16.35,5.0,280.0,2.1,15.0,,,,,,,,DARLOWEK,PL,121240-99999,2019,11,1.0
710140,99999,2019-10-03,52.183,-113.183,889.0,360.0,3.1,21.3,,,,,24.0,0.0,,DELBURNE AGCM,CA,710140-99999,2019,11,1.0
121240,99999,2019-10-03,54.4,16.35,5.0,280.0,2.0,15.1,1012.7,,,,6.0,0.0,,DARLOWEK,PL,121240-99999,2019,11,1.0
868740,99999,2019-10-03,-22.451,-44.445,439.0,317.0,1.3,13.5,1021.8,,,,99.0,9999.0,,RESENDE,BR,868740-99999,2019,11,1.0
710570,99999,2019-10-03,50.667,-113.333,965.0,190.0,4.1,24.2,,,,,24.0,0.0,,MOSSLEIGH AGCM,CA,710570-99999,2019,11,1.0
727720,24144,2019-10-03,46.6,-112.0,1188.0,40.0,3.1,30.0,1015.4,,,,,,,HELENA REGIONAL AIRPORT,US,727720-24144,2019,11,1.0
377920,99999,2019-10-03,40.483,44.75,1761.0,50.0,2.0,14.7,,BKN,,,,,,HRAZDAN,AM,377920-99999,2019,11,1.0
711380,99999,2019-10-03,51.265,-102.462,498.0,240.0,3.1,24.0,1018.3,CLR,,,,,,YORKTON MUNI,CA,711380-99999,2019,11,1.0
997305,99999,2019-10-03,36.77,-76.3,10.0,120.0,2.6,27.7,1015.7,,,,,,,MONEY POINT  VA,US,997305-99999,2019,11,1.0
654530,99999,2019-10-03,6.6,0.467,158.0,230.0,1.0,23.9,1014.6,SCT,3.0,9.0,,,,HO,GH,654530-99999,2019,11,1.0
082270,99999,2019-10-03,40.497,-3.446,618.0,20.0,4.1,21.0,,,,,,,,TORREJON,SP,082270-99999,2019,11,1.0
711540,99999,2019-10-03,49.133,-113.817,1289.0,260.0,4.1,23.2,,,,,24.0,0.0,,WATERTON PARK GATE,CA,711540-99999,2019,11,1.0
475490,99999,2019-10-03,39.429,141.135,91.0,180.0,2.6,18.0,,,61.0,,,,,HANAMAKI,JA,475490-99999,2019,11,1.0
711540,99999,2019-10-03,49.133,-113.817,1289.0,260.0,4.1,23.2,,,,,,,,WATERTON PARK GATE,CA,711540-99999,2019,11,1.0
113560,99999,2019-10-03,47.611,13.758,743.0,0.0,0.0,8.0,1019.6,,,,6.0,9999.0,,BAD AUSSEE,AU,113560-99999,2019,11,1.0
624350,99999,2019-10-03,25.45,30.533,73.0,360.0,1.0,28.2,1002.5,,,,,,,KHARGA,EG,624350-99999,2019,11,1.0
444090,99999,2019-10-03,28.8,80.55,187.0,90.0,1.0,25.6,992.3,OVC,50.0,,,,,DHANGADHI (ATARIYA),NP,444090-99999,2019,11,1.0
220040,99999,2019-10-03,69.4,30.233,92.0,40.0,1.0,4.6,1016.0,OVC,,,,,,NIKEL,RS,220040-99999,2019,11,1.0
710180,99999,2019-10-03,74.72,-94.98,68.0,80.0,8.2,7.3,1005.8,,,,,,,RESOLUTE CS,CA,710180-99999,2019,11,1.0
222710,99999,2019-10-03,67.883,44.15,18.0,20.0,6.0,4.6,1004.3,,,,,,,SHOJNA,RS,222710-99999,2019,11,1.0
714410,99999,2019-10-03,49.017,-97.55,253.0,330.0,5.1,24.2,1017.1,,,,24.0,96.0,,GRETNA (AUT)  MAN,CA,714410-99999,2019,11,1.0
714960,99999,2019-10-03,52.167,-106.717,504.0,180.0,6.7,25.7,1012.8,,,,24.0,0.0,,SASKATOON RCS,CA,714960-99999,2019,11,1.0
948955,99999,2019-10-03,-38.039,144.469,11.0,300.0,9.8,12.0,,,,,,,,AVALON,AS,948955-99999,2019,11,1.0
013070,99999,2019-10-03,60.75,4.717,20.0,330.0,6.0,11.3,1014.2,,,,,,,FEDJE,NO,013070-99999,2019,11,1.0
239140,99999,2019-10-03,60.4,56.517,207.0,140.0,2.0,13.2,996.1,SCT,,,,,,CHERDYN',RS,239140-99999,2019,11,1.0
718980,99999,2019-10-03,54.283,-130.45,35.0,200.0,1.5,19.0,1012.8,,,,,,,PRINCE RUPERT,CA,718980-99999,2019,11,1.0
125600,99999,2019-10-03,50.474,19.08,303.0,250.0,2.6,10.0,,,,,,,,KATOWICE,PL,125600-99999,2019,11,1.0
744860,94789,2019-10-03,40.65,-73.783,7.0,190.0,5.1,25.6,1015.2,BKN,,,,,,JOHN F KENNEDY INTERNATIONAL AIRPORT,US,744860-94789,2019,11,1.0
125600,99999,2019-10-03,50.233,19.033,284.0,230.0,2.0,11.1,1014.4,BKN,,,6.0,0.0,,KATOWICE,PL,125600-99999,2019,11,1.0
401000,99999,2019-10-03,33.817,35.483,19.0,160.0,2.1,25.8,1005.0,,,,6.0,9999.0,,RAFIC HARIRI INTL,LE,401000-99999,2019,11,1.0
401000,99999,2019-10-03,33.821,35.488,27.0,200.0,3.1,26.0,,CLR,,,,,,RAFIC HARIRI INTL,LE,401000-99999,2019,11,1.0
840080,99999,2019-10-03,-0.9,-89.617,6.0,140.0,6.2,23.2,1012.2,FEW,,,,,,SAN CRISTOBAL,EC,840080-99999,2019,11,1.0
948955,99999,2019-10-03,-38.039,144.469,11.0,300.0,9.8,12.0,,,,,,,,AVALON,AS,948955-99999,2019,11,1.0
714400,99999,2019-10-03,51.233,-112.983,901.0,210.0,6.2,25.2,,,,,24.0,0.0,,STANDARD AGCM,CA,714400-99999,2019,11,1.0
747400,13973,2019-10-03,30.5,-99.767,522.0,210.0,8.8,26.1,1012.3,SCT,,,6.0,0.0,,KIMBLE COUNTY AIRPORT,US,747400-13973,2019,11,1.0
128050,99999,2019-10-03,47.683,16.6,239.0,,,12.3,1015.7,,,,,,,SOPRON,HU,128050-99999,2019,11,1.0
717950,99999,2019-10-03,49.983,-110.267,795.0,250.0,7.7,29.1,,,,,24.0,0.0,,IRVINE AGCM,CA,717950-99999,2019,11,1.0
480940,99999,2019-10-03,16.767,94.767,10.0,0.0,0.0,26.5,1009.2,OVC,,,,,,PATHEIN,BM,480940-99999,2019,11,1.0
767510,99999,2019-10-03,19.0,-86.317,13.0,130.0,4.0,30.7,1014.0,,,,24.0,0.0,,CHETUMAL Q ROO (FAM),MX,767510-99999,2019,11,1.0
478000,99999,2019-10-03,34.198,129.292,4.0,230.0,3.6,22.6,1004.2,,,,12.0,30.0,,IZUHARA,JA,478000-99999,2019,11,1.0
953170,99999,2019-10-03,-21.183,119.75,183.0,130.0,4.6,20.4,1023.5,,,,,,,MARBLE BAR,AS,953170-99999,2019,11,1.0
862550,99999,2019-10-03,-26.667,-58.3,59.0,0.0,0.0,19.7,1012.9,CLR,,,1.0,9999.0,,PILAR,PA,862550-99999,2019,11,1.0
985360,99999,2019-10-03,12.583,122.283,47.0,210.0,2.0,28.5,1013.4,FEW,5.0,4.0,,,,ROMBLON,RP,985360-99999,2019,11,1.0
997341,99999,2019-10-03,43.23,-86.33,185.0,190.0,6.7,23.0,1009.2,,,,,,,MUSKEGON,US,997341-99999,2019,11,1.0
960870,99999,2019-10-03,1.117,104.117,24.0,130.0,3.1,28.0,1014.2,SCT,,,,,,BATAM/HANG NADIM,ID,960870-99999,2019,11,1.0
528660,99999,2019-10-03,36.62,101.77,2296.0,290.0,4.0,11.6,,OVC,,,24.0,9999.0,,XINING,CH,528660-99999,2019,11,1.0
720576,00174,2019-10-03,38.533,-121.783,21.0,180.0,3.1,31.0,,CLR,,,,,,UNIVERSITY AIRPORT,US,720576-00174,2019,11,1.0
714410,99999,2019-10-03,49.03,-97.57,253.0,330.0,5.1,24.2,1017.1,,,,,,,GRETNA (AUT)  MAN,CA,714410-99999,2019,11,1.0
919380,99999,2019-10-03,-17.55,-149.617,3.0,50.0,8.8,28.2,1012.3,FEW,,,24.0,0.0,,TAHITI FAAA,FP,919380-99999,2019,11,1.0
509630,99999,2019-10-03,45.97,128.73,110.0,70.0,4.0,20.7,1007.8,BKN,,,24.0,9999.0,,TONGHE,CH,509630-99999,2019,11,1.0
488251,99999,2019-10-03,20.819,106.725,2.0,140.0,1.5,28.0,,,,,,,,CAT BI INTL ARPT/HAI PHONG,VM,488251-99999,2019,11,1.0
710180,99999,2019-10-03,74.717,-94.983,30.0,80.0,8.2,7.3,1005.8,,,,24.0,0.0,,RESOLUTE CS,CA,710180-99999,2019,11,1.0
039660,99999,2019-10-03,53.02,-8.0,75.0,200.0,5.0,16.5,1011.8,,,,6.0,9999.0,,GURTEEN,EI,039660-99999,2019,11,1.0
867160,99999,2019-10-03,-15.596,-47.626,1030.0,114.0,4.1,17.1,1021.0,,,,99.0,9999.0,,AGUAS EMENDADAS,BR,867160-99999,2019,11,1.0
717930,99999,2019-10-03,51.783,-111.217,780.0,270.0,7.2,26.4,,,,,24.0,0.0,,HEMARUKA AGCM,CA,717930-99999,2019,11,1.0
689180,99999,2019-10-03,-34.433,19.217,14.0,270.0,1.0,9.0,1015.8,,,,,,,HERMANUS,SF,689180-99999,2019,11,1.0
719660,99999,2019-10-03,64.05,-139.133,370.0,210.0,1.5,28.3,1007.1,,,,24.0,0.0,,DAWSON CITY,CA,719660-99999,2019,11,1.0
249230,99999,2019-10-03,60.717,114.883,234.0,,1.0,15.4,1012.9,OBS,45.0,5.0,12.0,1.0,,LENSK,RS,249230-99999,2019,11,1.0
360260,99999,2019-10-03,51.067,79.417,258.0,20.0,4.0,15.9,,,,,,,,NOVONIKALAEVKA,KZ,360260-99999,2019,11,1.0
714960,99999,2019-10-03,52.167,-106.717,504.0,180.0,6.7,25.6,1012.8,,,,,,,SASKATOON RCS,CA,714960-99999,2019,11,1.0
719660,99999,2019-10-03,64.043,-139.128,370.0,220.0,2.1,28.0,1007.1,,4.0,,,,,DAWSON CITY,CA,719660-99999,2019,11,1.0
840080,99999,2019-10-03,-0.917,-89.617,19.0,150.0,6.2,23.0,,,,,,,,SAN CRISTOBAL,EC,840080-99999,2019,11,1.0
061540,99999,2019-10-03,55.2,11.867,46.0,300.0,0.5,10.2,1015.1,,,,6.0,9999.0,,BRANDELEV,DA,061540-99999,2019,11,1.0
713270,99999,2019-10-03,44.65,-63.62,51.0,10.0,1.5,18.1,1017.2,,,,,,,HALIFAX WINDSOR PARK,CA,713270-99999,2019,11,1.0
014140,99999,2019-10-03,59.433,5.067,25.0,10.0,3.0,12.0,,,,,,,,ROVER,NO,014140-99999,2019,11,1.0
257450,99999,2019-10-03,62.483,166.217,40.0,100.0,3.0,24.9,1008.5,BKN,4.0,1.0,,,,KAMENSKOE,RS,257450-99999,2019,11,1.0
999999,53878,2019-10-03,35.419,-82.557,641.0,,1.4,26.6,,,,,1.0,0.0,,ASHEVILLE 13 S,US,999999-53878,2019,11,1.0
021990,99999,2019-10-03,66.617,23.467,132.0,330.0,1.0,6.5,,OVC,,,1.0,0.0,,YLINENJARVI,SW,021990-99999,2019,11,1.0
012700,99999,2019-10-03,63.488,10.88,27.0,,,10.0,,,,,6.0,9999.0,,KVITHAMAR,NO,012700-99999,2019,11,1.0
711220,99999,2019-10-03,51.2,-115.55,1397.0,260.0,3.6,18.2,1014.5,,,,,,,BANFF CS,CA,711220-99999,2019,11,1.0
711220,99999,2019-10-03,51.2,-115.55,1397.0,250.0,3.6,18.2,1014.5,,,,24.0,0.0,,BANFF CS,CA,711220-99999,2019,11,1.0
711090,99999,2019-10-03,50.683,-127.367,27.0,220.0,2.1,19.9,1014.7,BKN,25.0,6.0,24.0,258.0,,PORT HARDY,CA,711090-99999,2019,11,1.0
711090,99999,2019-10-03,50.681,-127.367,22.0,240.0,2.1,20.0,1014.6,,,,,,,PORT HARDY,CA,711090-99999,2019,11,1.0
028270,99999,2019-10-03,69.072,27.493,123.0,30.0,2.0,4.7,,,,,,,,INARI VAYLA,FI,028270-99999,2019,11,1.0
919380,99999,2019-10-03,-17.554,-149.607,2.0,50.0,9.3,28.0,,,,,,,,TAHITI FAAA,FP,919380-99999,2019,11,1.0
067340,99999,2019-10-03,46.672,7.87,577.0,26.0,0.6,14.7,1017.0,,,,6.0,9999.0,,INTERLAKEN,SZ,067340-99999,2019,11,1.0
998014,99999,2019-10-03,41.583,-70.517,10.0,300.0,1.0,24.2,1016.0,,,,,,,WAQUIOT BAY RESERVE,US,998014-99999,2019,11,1.0
716050,99999,2019-10-03,49.52,-123.48,126.0,0.0,0.0,19.4,1017.1,,,,,,,PORT MELLON,CA,716050-99999,2019,11,1.0
471690,99999,2019-10-03,34.687,125.451,77.0,329.0,2.8,22.0,1006.1,OVC,,,12.0,9999.0,,HEUKSANDO,KS,471690-99999,2019,11,1.0
378710,99999,2019-10-03,39.95,44.55,833.0,,,18.0,1003.1,,,,,,,ARTASHAT,AM,378710-99999,2019,11,1.0
272770,99999,2019-10-03,57.85,45.767,136.0,320.0,2.0,11.2,997.3,OVC,61.0,8.0,,,,VETLUGA,RS,272770-99999,2019,11,1.0
410550,99999,2019-10-03,20.3,41.65,1652.0,310.0,2.1,25.5,,FEW,,,,,,AL BAHA,SA,410550-99999,2019,11,1.0
765770,99999,2019-10-03,21.0,-101.283,1999.0,360.0,3.0,29.6,1003.9,FEW,,,24.0,0.0,,GUANAJUATO  GTO.,MX,765770-99999,2019,11,1.0
789580,00409,2019-10-03,12.0,-61.783,7.0,70.0,2.6,27.8,1014.9,FEW,6.0,1.0,6.0,0.0,,MAURICE BISHOP INTERNATIONAL AIRPORT,GJ,789580-00409,2019,11,1.0
418910,99999,2019-10-03,24.9,91.883,35.0,120.0,2.1,24.2,1001.5,OVC,63.0,9.0,24.0,566.0,,OSMANY INTL,BG,418910-99999,2019,11,1.0
031480,99999,2019-10-03,56.424,-4.319,564.0,150.0,1.5,12.5,,,,,,,,GLEN OGLE,UK,031480-99999,2019,11,1.0
714120,99999,2019-10-03,46.45,-61.983,8.0,320.0,6.7,,,,,,24.0,9999.0,,EAST POINT (AUT)  PEI,CA,714120-99999,2019,11,1.0
172190,99999,2019-10-03,38.295,27.148,120.0,10.0,4.1,23.5,1005.3,FEW,,,6.0,9999.0,,ADNAN MENDERES,TU,172190-99999,2019,11,1.0
726410,14837,2019-10-03,43.133,-89.333,264.0,290.0,4.1,26.7,1010.8,SCT,,,,,,DANE CO REGIONAL-TRUAX FIELD AIRPORT,US,726410-14837,2019,11,1.0
789580,00409,2019-10-03,12.004,-61.786,12.0,70.0,2.6,28.0,,,,,,,,MAURICE BISHOP INTERNATIONAL AIRPORT,GJ,789580-00409,2019,11,1.0
983360,99999,2019-10-03,16.267,122.133,4.0,,,28.8,1012.8,FEW,5.0,4.0,,,,CASIGURAN,RP,983360-99999,2019,11,1.0
164200,99999,2019-10-03,38.2,15.55,54.0,330.0,4.1,27.0,1008.3,SCT,2.0,6.0,6.0,2.0,,MESSINA,IT,164200-99999,2019,11,1.0
717100,99999,2019-10-03,47.43,-61.77,8.0,330.0,5.1,13.4,1016.0,,,,,,,ILES DE LA MADELEINE  QUE,CA,717100-99999,2019,11,1.0
013810,99999,2019-10-03,60.7,10.87,264.0,,,13.5,,,,,6.0,9999.0,,APELSVOLL,NO,013810-99999,2019,11,1.0
486990,99999,2019-10-03,1.417,103.868,11.0,130.0,2.1,28.0,,,,,,,,SELETAR,SN,486990-99999,2019,11,1.0
763900,99999,2019-10-03,25.367,-101.017,1790.0,60.0,6.0,29.5,1007.7,BKN,5.0,4.0,,,,PLAN DE GUADALUPE INTL,MX,763900-99999,2019,11,1.0
717100,99999,2019-10-03,47.417,-61.767,8.0,330.0,5.1,13.4,1016.0,,,,24.0,0.0,,ILES DE LA MADELEINE  QUE,CA,717100-99999,2019,11,1.0
152840,99999,2019-10-03,45.603,26.41,1632.0,320.0,7.0,4.5,,,47.0,4.0,6.0,9999.0,,PENTELEU,RO,152840-99999,2019,11,1.0
835380,99999,2019-10-03,-18.239,-43.617,1318.0,0.0,0.0,12.1,,CLR,,,1.0,9999.0,,DIAMANTINA,BR,835380-99999,2019,11,1.0
722587,93955,2019-10-03,33.633,-95.45,167.0,50.0,6.2,22.0,,,65.0,,1.0,23.0,,COX FIELD AIRPORT,US,722587-93955,2019,11,1.0
837670,99999,2019-10-03,-23.476,-52.016,545.0,50.0,4.1,20.0,,,,,,,,REGIONAL DE MARINGA SILVIO NAME JUNIOR,BR,837670-99999,2019,11,1.0
470970,99999,2019-10-03,37.27,127.48,91.0,20.0,1.0,23.1,1004.2,BKN,,,12.0,120.0,,ICHEON,KS,470970-99999,2019,11,1.0
598380,99999,2019-10-03,19.1,108.62,8.0,180.0,5.0,30.2,1007.3,BKN,,,24.0,9999.0,,DONGFANG,CH,598380-99999,2019,11,1.0
587150,99999,2019-10-03,27.583,116.65,82.0,40.0,1.0,22.6,1009.0,OVC,46.0,,,,,NANCHENG,CH,587150-99999,2019,11,1.0
410550,99999,2019-10-03,20.296,41.634,1672.0,310.0,2.1,26.0,,,,,,,,AL BAHA,SA,410550-99999,2019,11,1.0
860970,99999,2019-10-03,-22.233,-55.633,614.0,330.0,2.6,19.2,1017.7,CLR,,,1.0,9999.0,,PEDRO JUAN CABALLERO,PA,860970-99999,2019,11,1.0
486030,99999,2019-10-03,6.2,100.4,5.0,170.0,1.5,25.1,1012.4,BKN,17.0,9.0,24.0,32.0,,ALOR STAR,MY,486030-99999,2019,11,1.0
717010,99999,2019-10-03,45.833,-66.433,51.0,90.0,2.1,20.2,1016.8,SCT,,,24.0,9999.0,,GAGETOWN  (CAN-MIL),CA,717010-99999,2019,11,1.0
420710,99999,2019-10-03,31.633,74.867,229.0,0.0,0.0,29.8,991.6,SCT,10.0,0.0,,,,AMRITSAR,IN,420710-99999,2019,11,1.0
305540,99999,2019-10-03,54.438,113.575,902.0,140.0,1.0,16.7,1009.9,OVC,2.0,8.0,12.0,9999.0,,BAGDARIN,RS,305540-99999,2019,11,1.0
939940,99999,2019-10-03,-29.25,-177.933,50.0,10.0,1.5,20.0,1023.2,,,,24.0,0.0,,RAOUL ISLAND AWS,NZ,939940-99999,2019,11,1.0
223240,99999,2019-10-03,66.683,34.35,40.0,10.0,4.0,5.6,1011.0,OVC,,,,,,UMBA,RS,223240-99999,2019,11,1.0
512430,99999,2019-10-03,45.6,84.85,428.0,340.0,3.0,22.0,1009.0,CLR,,,24.0,3.0,,KARAMAY,CH,512430-99999,2019,11,1.0
878280,99999,2019-10-03,-43.2,-65.267,39.0,360.0,2.1,11.2,1013.0,BKN,,,,,,ALMIRANTE ZAR,AR,878280-99999,2019,11,1.0
484650,99999,2019-10-03,12.999,100.067,4.0,300.0,1.5,26.0,1010.9,BKN,,,,,,PHETCHABURI,TH,484650-99999,2019,11,1.0
542180,99999,2019-10-03,42.3,118.833,567.0,200.0,2.0,21.2,1008.7,BKN,,,24.0,171.0,,CHIFENG,CH,542180-99999,2019,11,1.0
994031,99999,2019-10-03,42.74,-124.497,8.0,150.0,4.6,14.4,1021.5,,,,,,,PORT ORFORD,US,994031-99999,2019,11,1.0
590580,99999,2019-10-03,24.2,110.517,145.0,270.0,1.0,24.4,1007.3,OVC,21.0,,24.0,0.0,,MENGSHAN,CH,590580-99999,2019,11,1.0
024310,99999,2019-10-03,59.87,15.252,283.0,0.0,0.0,14.0,1011.5,OVC,,,1.0,9999.0,,KLOTEN,SW,024310-99999,2019,11,1.0
723940,23273,2019-10-03,34.9,-120.45,73.0,300.0,6.2,21.1,1017.6,,,,,,,SANTA MARIA PUB/CAPT G A HANCOCK AP,US,723940-23273,2019,11,1.0
948650,99999,2019-10-03,-37.867,144.75,20.0,320.0,8.8,11.3,1005.8,,,,,,,LAVERTON RAAF,AS,948650-99999,2019,11,1.0
043510,99999,2019-10-03,67.783,-32.3,12.0,250.0,1.5,2.3,1014.1,,,,,,,APUTITEEQ,GL,043510-99999,2019,11,1.0
569590,99999,2019-10-03,22.0,100.783,579.0,250.0,1.0,23.9,1006.7,OVC,60.0,,24.0,62.0,,JINGHONG,CH,569590-99999,2019,11,1.0
170200,99999,2019-10-03,41.633,32.333,33.0,70.0,0.5,19.3,1006.0,BKN,2.0,8.0,6.0,20.0,,BARTIN,TU,170200-99999,2019,11,1.0
476200,99999,2019-10-03,36.05,138.117,763.0,150.0,3.6,20.1,1012.4,,,,12.0,0.0,,SUWA,JA,476200-99999,2019,11,1.0
450350,99999,2019-10-03,22.529,114.157,31.0,128.0,1.6,27.5,1007.2,,,,99.0,9999.0,,LAU FAU SHAN,CH,450350-99999,2019,11,1.0
949680,99999,2019-10-03,-41.545,147.214,171.0,350.0,8.8,9.0,,CLR,,,,,,LAUNCESTON,AS,949680-99999,2019,11,1.0
819120,99999,2019-10-03,-7.954,-38.295,499.0,198.0,2.4,22.1,1017.4,,,,99.0,9999.0,,SERRA TALHADA,BR,819120-99999,2019,11,1.0
411980,99999,2019-10-03,25.112,56.324,46.0,260.0,3.1,32.0,,CLR,,,,,,FUJAIRAH INTL,AE,411980-99999,2019,11,1.0
411980,99999,2019-10-03,25.1,56.333,28.0,260.0,3.1,32.1,994.8,,5.0,0.0,,,,FUJAIRAH INTL,AE,411980-99999,2019,11,1.0
416240,99999,2019-10-03,31.817,70.917,173.0,50.0,1.0,33.0,989.8,BKN,,,12.0,0.0,,D I KHAN,PK,416240-99999,2019,11,1.0
984400,99999,2019-10-03,14.133,122.983,4.0,350.0,1.0,29.9,1013.0,BKN,5.0,4.0,,,,DAET,RP,984400-99999,2019,11,1.0
412165,99999,2019-10-03,25.217,54.234,7.0,210.0,1.5,31.0,,,,,,,,SIR ABU NAIR,AE,412165-99999,2019,11,1.0
471420,99999,2019-10-03,35.894,128.659,35.0,260.0,2.6,23.0,,,,,,,,DAEGU AB,KS,471420-99999,2019,11,1.0
412550,99999,2019-10-03,22.867,57.55,462.0,230.0,1.5,32.5,993.3,,,,,,,NIZWA,MU,412550-99999,2019,11,1.0
718864,99999,2019-10-03,49.468,-120.511,700.0,70.0,1.0,20.0,1015.5,,,,,,,PRINCETON,CA,718864-99999,2019,11,1.0
868770,99999,2019-10-03,-22.59,-43.282,24.0,123.0,0.8,13.7,1021.2,,,,99.0,9999.0,,XEREM,BR,868770-99999,2019,11,1.0
151270,99999,2019-10-03,46.706,25.513,750.0,30.0,2.0,7.5,,SCT,,,6.0,9999.0,,JOSENI,RO,151270-99999,2019,11,1.0
998175,99999,2019-10-03,35.167,-120.733,16.0,110.0,3.1,14.6,1017.7,,,,,,,CAL POLY PIER,US,998175-99999,2019,11,1.0
010590,99999,2019-10-03,70.067,24.983,8.0,140.0,1.0,8.4,1015.2,,,,,,,BANAK,NO,010590-99999,2019,11,1.0
718630,99999,2019-10-03,50.433,-104.667,577.0,190.0,5.7,24.0,1018.5,,,,,,,REGINA INTL,CA,718630-99999,2019,11,1.0
895040,99999,2019-10-03,-72.012,2.541,1310.0,58.0,3.8,-25.9,997.5,,,,,,,TROLL IN ANTARKTIS,AY,895040-99999,2019,11,1.0
171800,99999,2019-10-03,39.074,26.888,3.0,120.0,1.5,24.1,1003.9,SCT,,,6.0,9999.0,,DIKILI,TU,171800-99999,2019,11,1.0
994084,99999,2019-10-03,59.74,-149.47,24.0,210.0,6.7,14.6,1012.6,,,,,,,PILOT ROCK  AK,US,994084-99999,2019,11,1.0
866890,99999,2019-10-03,-14.98,-49.54,551.0,0.0,0.0,17.1,1018.7,,,,99.0,9999.0,,ITAPACI,BR,866890-99999,2019,11,1.0
998016,99999,2019-10-03,30.417,-87.833,0.0,0.0,0.0,27.3,1012.0,,,,,,,WEEKS BAY RESERVE,US,998016-99999,2019,11,1.0
710310,99999,2019-10-03,48.42,-123.23,15.0,240.0,3.1,15.7,1015.2,,,,,,,DISCOVERY ISLAND,CA,710310-99999,2019,11,1.0
477270,99999,2019-10-03,35.799,140.011,30.0,80.0,3.1,22.0,,,,,,,,SHIMOFUSA,JA,477270-99999,2019,11,1.0
077680,99999,2019-10-03,41.6,9.367,68.0,260.0,5.7,,,,,,6.0,9999.0,,LA CHIAPPA,FR,077680-99999,2019,11,1.0
999999,54794,2019-10-03,43.172,-70.928,36.0,,0.5,21.0,,,,,1.0,0.0,,DURHAM 2 N,US,999999-54794,2019,11,1.0
062290,99999,2019-10-03,53.0,4.717,0.0,160.0,3.0,,,,,,,,,TEXELHORS WP,NL,062290-99999,2019,11,1.0
710310,99999,2019-10-03,48.417,-123.233,28.0,240.0,3.1,15.7,1015.2,,,,24.0,9999.0,,DISCOVERY ISLAND,CA,710310-99999,2019,11,1.0
715430,99999,2019-10-03,55.422,-119.255,760.0,153.0,1.5,13.5,,,,,24.0,13.0,,LA GLACE AGCM,CA,715430-99999,2019,11,1.0
222120,99999,2019-10-03,67.933,32.917,132.0,10.0,5.0,5.7,1014.1,OVC,,,,,,MONCHEGORSK,RS,222120-99999,2019,11,1.0
714140,99999,2019-10-03,54.367,-110.868,556.0,,,20.0,,,,,24.0,9999.0,,DUPRE AGCM,CA,714140-99999,2019,11,1.0
915410,99999,2019-10-03,-10.7,165.8,24.0,90.0,4.1,29.0,1011.9,OVC,,,24.0,70.0,,SANTA CRUZ ISLAND,BP,915410-99999,2019,11,1.0
560040,99999,2019-10-03,34.22,92.43,4535.0,0.0,0.0,1.7,,BKN,,,24.0,15.0,,TUOTUOHE,CH,560040-99999,2019,11,1.0
407470,99999,2019-10-03,35.247,47.009,1378.0,350.0,3.1,24.0,,,,,,,,SANANDAJ,IR,407470-99999,2019,11,1.0
407470,99999,2019-10-03,35.333,47.0,1373.0,350.0,3.0,24.2,995.5,,,,6.0,0.0,,SANANDAJ,IR,407470-99999,2019,11,1.0
826100,99999,2019-10-03,-6.65,-69.869,122.0,0.0,0.0,26.5,1012.7,,,,99.0,9999.0,,EIRUNEPE,BR,826100-99999,2019,11,1.0
826100,99999,2019-10-03,-6.662,-69.868,123.0,0.0,0.0,28.0,,CLR,,,1.0,9999.0,,EIRUNEPE,BR,826100-99999,2019,11,1.0
471650,99999,2019-10-03,34.817,126.381,38.0,331.0,4.0,21.6,1005.9,OVC,,,12.0,9999.0,,MOKPO,KS,471650-99999,2019,11,1.0
125500,99999,2019-10-03,50.817,19.1,295.0,220.0,1.0,10.7,1014.0,,,,6.0,0.0,,CZESTOCHOWA,PL,125500-99999,2019,11,1.0
508880,99999,2019-10-03,46.317,132.183,83.0,180.0,4.0,20.7,1010.9,BKN,,,,,,BAOQING,CH,508880-99999,2019,11,1.0
998015,99999,2019-10-03,43.333,-70.55,19.0,70.0,0.5,19.6,,,,,,,,WELLS RESERVE,US,998015-99999,2019,11,1.0
377352,99999,2019-10-03,42.817,47.652,4.0,250.0,2.0,19.0,,CLR,,,,,,UYTASH,RS,377352-99999,2019,11,1.0
999999,92826,2019-10-03,25.9,-81.318,1.0,,1.7,29.8,,,,,1.0,0.0,,EVERGLADES CITY 5 NE,US,999999-92826,2019,11,1.0
713740,99999,2019-10-03,50.17,-60.07,7.0,360.0,9.8,11.5,,,,,,,,CAPE WHITTLE  QUE,CA,713740-99999,2019,11,1.0
587310,99999,2019-10-03,27.917,118.533,275.0,180.0,1.0,23.5,1009.3,OVC,10.0,,24.0,5.0,,PUCHENG,CH,587310-99999,2019,11,1.0
152620,99999,2019-10-03,45.824,26.375,1776.0,290.0,5.0,3.0,,OVC,,,6.0,9999.0,,LACAUTI,RO,152620-99999,2019,11,1.0
471400,99999,2019-10-03,36.005,126.761,23.0,0.0,0.0,21.0,1004.7,BKN,,,12.0,17.0,,GUNSAN,KS,471400-99999,2019,11,1.0
030050,99999,2019-10-03,60.139,-1.183,82.0,140.0,5.1,11.5,1012.8,,47.0,5.0,6.0,2.0,,LERWICK,UK,030050-99999,2019,11,1.0
020290,99999,2019-10-03,67.917,18.6,1146.0,200.0,1.0,6.4,,,,,,,,TARFALA,SW,020290-99999,2019,11,1.0
717010,99999,2019-10-03,45.833,-66.433,51.0,90.0,2.6,20.0,1016.8,SCT,,,,,,GAGETOWN  (CAN-MIL),CA,717010-99999,2019,11,1.0
997280,99999,2019-10-03,40.8,-73.77,10.0,200.0,4.1,26.3,1015.3,,,,,,,KINGS POINT,US,997280-99999,2019,11,1.0
561160,99999,2019-10-03,31.42,95.6,3874.0,110.0,2.0,9.0,,OVC,,,24.0,94.0,,DENGQEN,CH,561160-99999,2019,11,1.0
590460,99999,2019-10-03,24.35,109.4,97.0,140.0,2.0,22.8,1006.7,OVC,,,,,,LIUZHOU,CH,590460-99999,2019,11,1.0
121600,99999,2019-10-03,54.223,19.543,43.0,330.0,3.0,12.0,1011.4,BKN,25.0,2.0,6.0,3.0,,ELBLAG-MILEJEWO,PL,121600-99999,2019,11,1.0
043730,99999,2019-10-03,64.783,-40.3,80.0,190.0,1.5,5.0,1015.6,,,,,,,IKERMIIT,GL,043730-99999,2019,11,1.0
063210,99999,2019-10-03,52.0,3.283,18.0,200.0,8.0,18.4,1014.5,,,,,,,EURO PLATFORM,NL,063210-99999,2019,11,1.0
475830,99999,2019-10-03,40.192,140.371,89.0,60.0,2.1,22.0,,,,,,,,ODATE NOSHIRO,JA,475830-99999,2019,11,1.0
060310,99999,2019-10-03,57.183,9.95,13.0,270.0,1.0,9.9,,,,,6.0,9999.0,,TYLSTRUP,DA,060310-99999,2019,11,1.0
765850,99999,2019-10-03,21.317,-98.817,132.0,90.0,1.0,34.0,1010.7,FEW,5.0,4.0,,,,MATLAPA  S.L.P.,MX,765850-99999,2019,11,1.0
960110,99999,2019-10-03,5.517,95.417,21.0,150.0,2.1,23.6,1011.3,BKN,2.0,6.0,24.0,60.0,,SULTAN ISKANDARMUDA,ID,960110-99999,2019,11,1.0
999999,54808,2019-10-03,40.053,-88.373,213.0,,2.0,30.9,,,,,1.0,0.0,,CHAMPAIGN 9 SW,US,999999-54808,2019,11,1.0
480330,99999,2019-10-03,22.583,95.717,110.0,180.0,0.5,27.0,1002.2,BKN,2.0,2.0,12.0,0.0,,SHWEBO,BM,480330-99999,2019,11,1.0
714050,99999,2019-10-03,53.333,-112.533,679.0,0.0,0.0,18.5,,,,,24.0,0.0,,SHONTS AGCM,CA,714050-99999,2019,11,1.0
261148,99999,2019-10-03,53.882,28.031,204.0,310.0,2.0,11.0,,,,,,,,MINSK 2,BO,261148-99999,2019,11,1.0
133630,99999,2019-10-03,43.35,19.35,784.0,340.0,1.0,7.6,,CLR,2.0,1.0,6.0,9999.0,,PLEVLJA,MJ,133630-99999,2019,11,1.0
201070,99999,2019-10-03,78.067,14.25,75.0,360.0,3.0,5.6,1013.8,OVC,51.0,5.0,,,,BARENTSBURG,SV,201070-99999,2019,11,1.0
823170,99999,2019-10-03,-3.367,-64.7,47.0,230.0,1.0,24.2,,SCT,2.0,9.0,6.0,9999.0,,TEFE,BR,823170-99999,2019,11,1.0
282250,99999,2019-10-03,57.915,56.021,123.0,210.0,3.0,12.0,,,,,,,,BOLSHOYE SAVINO,RS,282250-99999,2019,11,1.0
330003,99999,2019-10-03,48.043,33.21,124.0,300.0,4.0,13.0,,,,,,,,LOZUVATKA INTL,UP,330003-99999,2019,11,1.0
713740,99999,2019-10-03,50.163,-60.062,7.0,4.0,9.8,11.6,,,,,,,,CAPE WHITTLE  QUE,CA,713740-99999,2019,11,1.0
838420,99999,2019-10-03,-25.405,-49.232,932.0,290.0,1.0,13.0,,,,,,,,BACACHERI,BR,838420-99999,2019,11,1.0
654590,99999,2019-10-03,6.083,-0.25,167.0,230.0,0.5,23.8,1015.8,BKN,,,,,,KOFORIDUA,GH,654590-99999,2019,11,1.0
642100,99999,2019-10-03,-4.386,15.445,313.0,0.0,0.0,23.0,,CLR,,,,,,NDJILI INTL,CG,642100-99999,2019,11,1.0
112920,99999,2019-10-03,47.074,15.592,530.0,240.0,2.0,13.0,1016.4,,,,6.0,9999.0,,LASSNITZHOEHE,AU,112920-99999,2019,11,1.0
274590,99999,2019-10-03,56.267,44.0,157.0,230.0,1.0,13.0,997.6,BKN,,,,,,STRIGINO,RS,274590-99999,2019,11,1.0
961090,99999,2019-10-03,0.467,101.45,31.0,0.0,0.0,25.0,1011.9,BKN,,,,,,SULTAN SYARIF KASIM II,ID,961090-99999,2019,11,1.0
412650,99999,2019-10-03,22.809,58.461,469.0,290.0,1.5,30.7,993.0,,,,24.0,2.0,,IBRA,MU,412650-99999,2019,11,1.0
501360,99999,2019-10-03,52.97,122.53,433.0,0.0,0.0,19.5,1009.4,FEW,,,24.0,9999.0,,MOHE,CH,501360-99999,2019,11,1.0
712650,99999,2019-10-03,43.617,-79.383,77.0,60.0,4.6,23.0,1012.2,CLR,,,,,,TORONTO CITY CENTRE,CA,712650-99999,2019,11,1.0
275950,99999,2019-10-03,55.606,49.279,126.0,220.0,3.0,14.0,,,,,,,,KAZAN,RS,275950-99999,2019,11,1.0
353940,99999,2019-10-03,49.8,73.15,553.0,110.0,2.0,14.8,1014.5,,,,,,,KARAGANDA,KZ,353940-99999,2019,11,1.0
712650,99999,2019-10-03,43.617,-79.383,77.0,70.0,4.6,23.4,1012.3,,,,24.0,0.0,,TORONTO CITY CENTRE,CA,712650-99999,2019,11,1.0
353940,99999,2019-10-03,49.671,73.334,538.0,90.0,3.0,7.0,,,,,,,,KARAGANDA,KZ,353940-99999,2019,11,1.0
570460,99999,2019-10-03,34.483,110.083,2063.0,270.0,1.0,15.2,,BKN,,,,,,HUA SHAN,CH,570460-99999,2019,11,1.0
428740,99999,2019-10-03,21.233,81.65,298.0,230.0,2.1,27.0,1000.4,BKN,,,,,,PBO RAIPUR,IN,428740-99999,2019,11,1.0
569640,99999,2019-10-03,22.77,100.98,1303.0,220.0,1.0,21.0,1006.4,OVC,,,24.0,8.0,,SIMAO,CH,569640-99999,2019,11,1.0
274590,99999,2019-10-03,56.23,43.784,78.0,210.0,3.0,12.0,,,,,,,,STRIGINO,RS,274590-99999,2019,11,1.0
483840,99999,2019-10-03,16.334,102.823,166.0,200.0,1.5,28.0,1008.2,BKN,,,24.0,18.0,,THA PHRA AGROMET,TH,483840-99999,2019,11,1.0
536140,99999,2019-10-03,38.47,106.2,1111.0,360.0,1.0,20.5,1004.1,CLR,,,24.0,9999.0,,YINCHUAN,CH,536140-99999,2019,11,1.0
029910,99999,2019-10-03,60.204,25.625,19.0,37.0,4.5,13.2,1007.8,,,,,,,PORVOO EMASALO,FI,029910-99999,2019,11,1.0
575540,99999,2019-10-03,29.4,110.167,322.0,,,23.0,1007.6,BKN,,,,,,SANGZHI,CH,575540-99999,2019,11,1.0
561460,99999,2019-10-03,31.62,100.0,3394.0,140.0,1.0,10.5,,OVC,21.0,,24.0,29.0,,GARZE,CH,561460-99999,2019,11,1.0
719200,99999,2019-10-03,43.45,-65.467,6.0,50.0,4.1,14.6,1016.5,,,,,,,BACCARO PT,CA,719200-99999,2019,11,1.0
477470,99999,2019-10-03,35.533,134.817,6.0,170.0,2.6,22.5,1007.8,,,,12.0,180.0,,TOYOOKA,JA,477470-99999,2019,11,1.0
999999,63831,2019-10-03,32.338,-89.07,114.0,,3.3,30.4,,,,,1.0,0.0,,NEWTON 5 ENE,US,999999-63831,2019,11,1.0
714400,99999,2019-10-03,51.233,-112.983,901.0,210.0,6.2,25.1,,,,,,,,STANDARD AGCM,CA,714400-99999,2019,11,1.0
422200,99999,2019-10-03,28.1,95.383,157.0,0.0,0.0,24.0,1000.9,OVC,63.0,6.0,21.0,950.0,,PASIGHAT,IN,422200-99999,2019,11,1.0
298020,99999,2019-10-03,53.817,76.533,114.0,150.0,1.0,14.8,1017.9,SCT,,,,,,MIKHAILOVKA,KZ,298020-99999,2019,11,1.0
719200,99999,2019-10-03,43.45,-65.467,5.0,50.0,4.1,14.6,1016.5,,,,24.0,0.0,,BACCARO PT,CA,719200-99999,2019,11,1.0
166480,99999,2019-10-03,39.65,22.467,71.0,300.0,7.7,19.8,1008.3,OVC,95.0,9.0,6.0,40.0,,LARISA,GR,166480-99999,2019,11,1.0
162530,99999,2019-10-03,41.05,14.067,10.0,20.0,2.1,21.2,1011.3,,,,6.0,0.0,,GRAZZANISE,IT,162530-99999,2019,11,1.0
076300,99999,2019-10-03,43.629,1.364,152.0,310.0,3.1,21.0,,,,,,,,BLAGNAC,FR,076300-99999,2019,11,1.0
124540,99999,2019-10-03,51.552,19.179,193.0,330.0,3.6,11.0,,,,,,,,LASK,PL,124540-99999,2019,11,1.0
407100,99999,2019-10-03,37.933,47.533,1682.0,310.0,2.0,10.2,1003.8,,,,6.0,0.0,,SARAB,IR,407100-99999,2019,11,1.0
918430,99999,2019-10-03,-21.203,-159.806,6.0,40.0,4.6,26.0,,,,,,,,RAROTONGA INTL,CW,918430-99999,2019,11,1.0
918430,99999,2019-10-03,-21.2,-159.817,7.0,40.0,3.1,26.7,1015.5,FEW,2.0,0.0,6.0,0.0,,RAROTONGA INTL,CW,918430-99999,2019,11,1.0
649500,99999,2019-10-03,3.723,11.553,694.0,210.0,1.5,20.0,,,,,,,,YAOUNDE NSIMALEN,CM,649500-99999,2019,11,1.0
070200,99999,2019-10-03,49.717,-1.933,12.0,210.0,3.6,17.0,1015.9,BKN,,,6.0,0.0,,LA HAGUE,FR,070200-99999,2019,11,1.0
998477,99999,2019-10-03,37.906,-122.365,10.0,210.0,4.1,19.2,1018.2,,,,,,,RICHMOND (POINT POTRERO),US,998477-99999,2019,11,1.0
113800,99999,2019-10-03,47.7,15.837,488.0,0.0,0.0,10.7,1017.2,,,,6.0,9999.0,,REICHENAU/RAX,AU,113800-99999,2019,11,1.0
167490,99999,2019-10-03,36.4,28.083,6.0,240.0,4.1,27.2,1004.3,,,,6.0,0.0,,DIAGORAS,GR,167490-99999,2019,11,1.0
039560,99999,2019-10-03,52.29,-6.49,62.0,210.0,4.0,15.2,1013.8,,,,6.0,2.0,,JOHNSTOWN CASTLE,EI,039560-99999,2019,11,1.0
916910,99999,2019-10-03,-18.23,-178.8,2.0,120.0,4.1,25.9,1015.1,BKN,2.0,2.0,24.0,9999.0,,LAKEMBA ISLAND,FJ,916910-99999,2019,11,1.0
722660,13962,2019-10-03,32.417,-99.683,546.0,100.0,4.6,37.2,1011.5,,,,,,,ABILENE REGIONAL AIRPORT,US,722660-13962,2019,11,1.0
719560,99999,2019-10-03,45.885,-82.571,189.0,157.0,5.3,22.5,1008.4,,,,24.0,9999.0,,GORE BAY CLIMATE,CA,719560-99999,2019,11,1.0
719560,99999,2019-10-03,45.883,-82.567,189.0,160.0,5.7,22.7,1008.4,,,,,,,GORE BAY CLIMATE,CA,719560-99999,2019,11,1.0
124540,99999,2019-10-03,51.55,19.183,190.0,330.0,4.0,11.4,1013.3,BKN,,,6.0,120.0,,LASK,PL,124540-99999,2019,11,1.0
153500,99999,2019-10-03,45.15,26.817,97.0,360.0,2.0,13.7,1011.7,BKN,,,6.0,0.0,,BUZAU,RO,153500-99999,2019,11,1.0
385980,99999,2019-10-03,40.267,69.817,347.0,90.0,2.0,26.1,1000.3,,,,,,,KAJRAKKUMSKOE,TI,385980-99999,2019,11,1.0
818230,99999,2019-10-03,-5.816,-46.162,232.0,,,24.7,1014.6,,,,99.0,9999.0,,GRAJAU,BR,818230-99999,2019,11,1.0
154210,99999,2019-10-03,44.5,26.213,90.0,80.0,2.0,14.7,1012.4,,,,6.0,4.0,,HENRI COANDA,RO,154210-99999,2019,11,1.0
154210,99999,2019-10-03,44.571,26.085,96.0,90.0,2.1,15.0,,,,,,,,HENRI COANDA,RO,154210-99999,2019,11,1.0
407000,99999,2019-10-03,39.604,47.882,77.0,120.0,2.1,22.0,,,,,,,,PARS ABAD MOGHAN,IR,407000-99999,2019,11,1.0
702320,26516,2019-10-03,61.583,-159.533,26.0,,1.5,27.2,1009.5,,,,,,,ANIAK AIRPORT,US,702320-26516,2019,11,1.0
577660,99999,2019-10-03,27.183,111.45,310.0,20.0,1.0,22.4,1007.8,OVC,10.0,,,,,SHAOYANG,CH,577660-99999,2019,11,1.0
118120,99999,2019-10-03,48.26,17.15,583.0,290.0,5.0,14.2,,,,,6.0,9999.0,,MALY JAVORNIK,LO,118120-99999,2019,11,1.0
029580,99999,2019-10-03,61.05,28.15,106.0,60.0,2.0,9.9,1008.8,BKN,,,,,,LAPPEENRANTA,FI,029580-99999,2019,11,1.0
567510,99999,2019-10-03,25.7,100.183,1992.0,180.0,1.0,17.3,,OVC,60.0,,24.0,339.0,,DALI,CH,567510-99999,2019,11,1.0
712840,99999,2019-10-03,53.917,-113.917,714.0,0.0,0.0,16.5,,,,,24.0,5.0,,BUSBY AGCM,CA,712840-99999,2019,11,1.0
564620,99999,2019-10-03,29.0,101.5,2994.0,0.0,0.0,11.5,,BKN,,,24.0,145.0,,JIULONG,CH,564620-99999,2019,11,1.0
999999,63850,2019-10-03,33.784,-83.39,226.0,,2.2,29.6,,,,,1.0,0.0,,WATKINSVILLE 5 SSE,US,999999-63850,2019,11,1.0
150330,99999,2019-10-03,47.603,24.649,1785.0,110.0,3.0,4.1,,BKN,2.0,8.0,6.0,60.0,,IEZER,RO,150330-99999,2019,11,1.0
076300,99999,2019-10-03,43.633,1.367,154.0,310.0,3.1,21.1,1015.3,,0.0,,6.0,0.0,,BLAGNAC,FR,076300-99999,2019,11,1.0
716750,99999,2019-10-03,53.817,-89.883,222.0,70.0,3.1,20.5,1013.6,,,,24.0,0.0,,BIG TROUT LAKE,CA,716750-99999,2019,11,1.0
170860,99999,2019-10-03,40.331,36.558,611.0,90.0,2.1,19.7,1001.9,BKN,,,6.0,9999.0,,TOKAT,TU,170860-99999,2019,11,1.0
450390,99999,2019-10-03,22.403,114.21,6.0,50.0,0.9,27.2,1007.6,,,,99.0,9999.0,,SHA TIN,CH,450390-99999,2019,11,1.0
715330,99999,2019-10-03,52.383,-126.75,36.0,260.0,2.6,20.3,1012.0,,,,,,,BELLA COOLA AIRPORT,CA,715330-99999,2019,11,1.0
486980,99999,2019-10-03,1.35,103.994,7.0,150.0,4.1,29.0,,,,,,,,SINGAPORE CHANGI INTL,SN,486980-99999,2019,11,1.0
486980,99999,2019-10-03,1.367,103.983,16.0,150.0,4.1,28.6,1012.9,BKN,5.0,2.0,24.0,0.0,,SINGAPORE CHANGI INTL,SN,486980-99999,2019,11,1.0
083060,99999,2019-10-03,39.561,2.737,8.0,340.0,1.0,22.5,1015.0,,,,6.0,9999.0,,PALMA DE MALLORCA,SP,083060-99999,2019,11,1.0
715330,99999,2019-10-03,52.383,-126.75,36.0,260.0,2.6,20.3,1012.0,,,,24.0,129.0,,BELLA COOLA AIRPORT,CA,715330-99999,2019,11,1.0
083060,99999,2019-10-03,39.55,2.733,8.0,0.0,0.0,23.0,,,,,,,,PALMA DE MALLORCA,SP,083060-99999,2019,11,1.0
997297,99999,2019-10-03,38.57,-76.07,6.0,0.0,0.0,27.5,1015.8,,,,,,,CAMBRIDGE  MD,US,997297-99999,2019,11,1.0
406900,99999,2019-10-03,30.517,47.783,3.0,260.0,4.0,30.7,993.4,,,,,,,BASRAH AIRPORT,IZ,406900-99999,2019,11,1.0
419920,99999,2019-10-03,21.433,91.933,2.0,180.0,2.6,27.0,1003.1,OVC,63.0,6.0,24.0,610.0,,COXS BAZAR,BG,419920-99999,2019,11,1.0
151990,99999,2019-10-03,46.071,20.601,85.0,300.0,2.0,10.5,1012.0,,,,6.0,9999.0,,SANNICOLAU MARE,RO,151990-99999,2019,11,1.0
076750,99999,2019-10-03,43.385,6.387,81.0,0.0,0.0,21.0,,,,,,,,LE CANNET,FR,076750-99999,2019,11,1.0
067920,99999,2019-10-03,46.526,9.879,1709.0,194.0,1.1,3.5,,,,,6.0,9999.0,,SAMEDAM,SZ,067920-99999,2019,11,1.0
238040,99999,2019-10-03,61.647,50.845,99.0,190.0,1.0,13.0,,,,,,,,SYKTYVKAR,RS,238040-99999,2019,11,1.0
415350,99999,2019-10-03,34.183,73.25,1309.0,0.0,0.0,22.0,,OVC,,,12.0,0.0,,KAKUL,PK,415350-99999,2019,11,1.0
970080,99999,2019-10-03,3.583,125.467,38.0,320.0,1.5,27.6,1013.9,BKN,,,24.0,530.0,,NAHA,ID,970080-99999,2019,11,1.0
012050,99999,2019-10-03,62.333,5.267,37.0,50.0,5.0,10.7,1014.2,,,,,,,SVINOY LH,NO,012050-99999,2019,11,1.0
714880,99999,2019-10-03,57.25,-105.6,514.0,320.0,3.1,17.0,1016.0,,,,,,,KEY LAKE A,CA,714880-99999,2019,11,1.0
967510,99999,2019-10-03,-6.7,106.933,9999.0,0.0,0.0,16.8,1012.3,BKN,,,,,,BOGOR/CITEKO,ID,967510-99999,2019,11,1.0
714880,99999,2019-10-03,49.0,-113.383,1354.0,210.0,3.6,24.4,1013.4,,,,24.0,0.0,,KEY LAKE A,CA,714880-99999,2019,11,1.0
121850,99999,2019-10-03,54.067,21.367,110.0,320.0,3.0,12.0,1009.7,,,,6.0,2.0,,KETRZYN,PL,121850-99999,2019,11,1.0
475910,99999,2019-10-03,38.405,141.22,2.0,130.0,2.6,20.0,,,,,,,,MATSUSHIMA,JA,475910-99999,2019,11,1.0
172460,99999,2019-10-03,37.2,33.217,1023.0,250.0,1.0,21.4,,,,,6.0,0.0,,KARAMAN,TU,172460-99999,2019,11,1.0
427055,99999,2019-10-03,11.137,75.955,104.0,50.0,2.1,23.0,,,61.0,,,,,CALICUT,IN,427055-99999,2019,11,1.0
819240,99999,2019-10-03,-8.143,-70.344,157.0,326.0,0.3,23.6,1012.6,,,,99.0,9999.0,,FEIJO,BR,819240-99999,2019,11,1.0
480250,99999,2019-10-03,23.2,94.3,109.0,0.0,0.0,27.0,1002.4,OVC,50.0,5.0,12.0,20.0,,KALEWA,BM,480250-99999,2019,11,1.0
471100,99999,2019-10-03,37.558,126.791,18.0,360.0,6.7,21.0,,,,,,,,GIMPO,KS,471100-99999,2019,11,1.0
866520,99999,2019-10-03,-12.125,-45.027,474.0,324.0,0.3,19.5,1018.2,,,,99.0,9999.0,,BARREIRAS,BR,866520-99999,2019,11,1.0
024880,99999,2019-10-03,60.533,18.383,9.0,350.0,6.0,12.7,1011.4,SCT,,,1.0,0.0,,ORSKAR,SW,024880-99999,2019,11,1.0
716750,99999,2019-10-03,53.833,-89.867,224.0,80.0,2.6,21.0,1013.6,CLR,,,,,,BIG TROUT LAKE,CA,716750-99999,2019,11,1.0
470311,99999,2019-10-03,19.935,110.459,23.0,190.0,2.0,29.0,,,,,,,,MEILAN,CH,470311-99999,2019,11,1.0
444040,99999,2019-10-03,29.3,80.583,1848.0,0.0,0.0,18.5,,OBS,45.0,,,,,DADELDHURA,NP,444040-99999,2019,11,1.0
998304,99999,2019-10-03,18.09,-67.939,3.0,0.0,0.0,28.6,1018.9,,,,,,,MONA ISLAND,RQ,998304-99999,2019,11,1.0
477610,99999,2019-10-03,35.283,136.25,93.0,120.0,2.6,21.6,1011.7,OVC,61.0,6.0,24.0,65.0,,HIKONE,JA,477610-99999,2019,11,1.0
165460,99999,2019-10-03,39.35,8.967,24.0,360.0,3.6,21.8,1012.4,,,,6.0,0.0,,DECIMOMANNU,IT,165460-99999,2019,11,1.0
067980,99999,2019-10-03,46.793,10.283,1304.0,306.0,0.7,7.0,,,,,6.0,9999.0,,SCUOL,SZ,067980-99999,2019,11,1.0
341720,99999,2019-10-03,51.565,46.047,152.0,210.0,3.0,15.0,,,,,,,,TSENTRALNY,RS,341720-99999,2019,11,1.0
869660,99999,2019-10-03,-28.514,-50.883,970.0,355.0,2.1,10.6,1021.7,,,,99.0,9999.0,,VACARIA,BR,869660-99999,2019,11,1.0
835870,99999,2019-10-03,-19.634,-43.969,828.0,110.0,1.5,15.0,,,,,,,,TANCREDO NEVES INTL,BR,835870-99999,2019,11,1.0
868140,99999,2019-10-03,-20.165,-50.595,460.0,263.0,2.5,21.0,1019.0,,,,99.0,9999.0,,JALES,BR,868140-99999,2019,11,1.0
032100,99999,2019-10-03,54.518,-3.613,124.0,200.0,4.6,14.2,1012.4,,,,6.0,2.0,,ST BEES HEAD NO.2,UK,032100-99999,2019,11,1.0
076750,99999,2019-10-03,43.383,6.383,82.0,0.0,0.0,20.7,1012.6,,0.0,,6.0,0.0,,LE CANNET,FR,076750-99999,2019,11,1.0
033180,99999,2019-10-03,53.774,-3.038,10.0,250.0,6.2,16.5,,,,,6.0,4.0,,BLACKPOOL,UK,033180-99999,2019,11,1.0
509780,99999,2019-10-03,45.3,130.93,281.0,250.0,1.0,18.6,1010.3,BKN,,,24.0,9999.0,,JIXI,CH,509780-99999,2019,11,1.0
819920,99999,2019-10-03,-9.834,-39.496,451.0,151.0,2.1,20.0,1018.9,,,,99.0,6.0,,UAUA,BR,819920-99999,2019,11,1.0
161790,99999,2019-10-03,43.517,12.733,574.0,160.0,2.6,16.2,,,,,6.0,0.0,,FRONTONE,IT,161790-99999,2019,11,1.0
379590,99999,2019-10-03,39.2,46.433,706.0,,,17.4,1008.5,,,,,,,KAPAN,AM,379590-99999,2019,11,1.0
869860,99999,2019-10-03,-30.545,-53.467,421.0,59.0,2.5,16.6,1018.2,,,,99.0,9999.0,,CACAPAVA DO SUL,BR,869860-99999,2019,11,1.0
152080,99999,2019-10-03,46.067,23.567,247.0,300.0,1.0,10.6,1014.3,SCT,,,6.0,0.0,,ALBA IULIA,RO,152080-99999,2019,11,1.0
687520,99999,2019-10-03,-32.9,27.283,596.0,0.0,0.0,9.4,,,,,,,,BHISHO,SF,687520-99999,2019,11,1.0
116240,99999,2019-10-03,49.94,15.382,242.0,160.0,1.5,10.0,,,,,,,,CASLAV,EZ,116240-99999,2019,11,1.0
489350,99999,2019-10-03,19.467,103.133,1050.0,270.0,1.0,21.2,,OVC,,,24.0,100.0,,PLAINE DES JARRES (XIENGKHOUANG),LA,489350-99999,2019,11,1.0
478030,99999,2019-10-03,33.883,130.653,30.0,180.0,3.1,26.0,,,,,,,,ASHIYA,JA,478030-99999,2019,11,1.0
116240,99999,2019-10-03,49.941,15.386,238.0,160.0,1.0,11.7,1016.2,CLR,,,6.0,9999.0,,CASLAV,EZ,116240-99999,2019,11,1.0
868200,99999,2019-10-03,-20.455,-45.454,878.0,99.0,0.5,12.5,1023.2,,,,99.0,9999.0,,FORMIGA,BR,868200-99999,2019,11,1.0
378010,99999,2019-10-03,40.35,45.133,1962.0,180.0,1.0,9.3,,BKN,,,,,,GAVAR,AM,378010-99999,2019,11,1.0
081600,99999,2019-10-03,41.666,-1.042,263.0,310.0,4.1,23.0,,,,,,,,ZARAGOZA AB,SP,081600-99999,2019,11,1.0
999999,04138,2019-10-03,41.616,-112.544,1509.0,,2.9,32.4,,,,,1.0,0.0,,BRIGHAM CITY 28 WNW,US,999999-04138,2019,11,1.0
872220,99999,2019-10-03,-28.6,-65.767,454.0,20.0,1.5,12.8,1012.7,BKN,,,,,,CATAMARCA,AR,872220-99999,2019,11,1.0
825790,99999,2019-10-03,-5.06,-42.823,67.0,290.0,1.0,26.0,,,,,,,,SENADOR PETRONIO PORTELLA,BR,825790-99999,2019,11,1.0
825790,99999,2019-10-03,-5.05,-42.817,69.0,290.0,1.0,26.0,1013.6,BKN,,,6.0,0.0,,SENADOR PETRONIO PORTELLA,BR,825790-99999,2019,11,1.0
039700,99999,2019-10-03,53.72,-8.98,68.0,200.0,5.0,15.1,1010.3,,,,6.0,5.0,,CLAREMORRIS,EI,039700-99999,2019,11,1.0
819180,99999,2019-10-03,-7.165,-34.816,34.0,145.0,1.2,23.5,1016.2,,,,99.0,2.0,,JOAO PESSOA,BR,819180-99999,2019,11,1.0
028510,99999,2019-10-03,64.937,25.373,10.0,16.0,1.1,7.7,1012.5,BKN,,,,,0.0,OULU OULUNSALO PELLONPAA,FI,028510-99999,2019,11,1.0
484090,99999,2019-10-03,15.085,104.331,129.0,270.0,3.1,27.0,1010.4,SCT,,,,,,SI SAKET AGROMET,TH,484090-99999,2019,11,1.0
024690,99999,2019-10-03,59.183,17.917,45.0,,,10.2,,,,,1.0,0.0,,TULLINGE,SW,024690-99999,2019,11,1.0
869040,99999,2019-10-03,-23.102,-48.941,776.0,210.0,0.3,15.0,1021.8,,,,99.0,9999.0,,AVARE,BR,869040-99999,2019,11,1.0
875480,99999,2019-10-03,-34.433,-60.9,82.0,160.0,2.6,11.7,1014.3,SCT,,,1.0,9999.0,,JUNIN,AR,875480-99999,2019,11,1.0
483520,99999,2019-10-03,17.867,102.75,176.0,0.0,0.0,27.8,1008.3,OVC,,,24.0,18.0,,NONG KHAI,TH,483520-99999,2019,11,1.0
818290,99999,2019-10-03,-5.349,-41.512,269.0,115.0,0.7,23.2,1014.7,,,,99.0,9999.0,,CASTELO DO PIAUI,BR,818290-99999,2019,11,1.0
135860,99999,2019-10-03,41.962,21.621,238.0,110.0,1.5,15.0,,,,,,,,SKOPJE,MK,135860-99999,2019,11,1.0
135860,99999,2019-10-03,41.967,21.65,239.0,110.0,2.0,15.2,1013.4,SCT,,,6.0,20.0,,SKOPJE,MK,135860-99999,2019,11,1.0
476430,99999,2019-10-03,35.842,139.411,90.0,,0.5,20.0,,,,,,,,IRUMA,JA,476430-99999,2019,11,1.0
479710,42402,2019-10-03,27.083,142.183,8.0,240.0,5.7,27.0,,,,,,,,CHICHIJIMA,JA,479710-42402,2019,11,1.0
479710,42402,2019-10-03,27.1,142.183,8.0,150.0,2.6,27.4,1012.1,,,,12.0,460.0,,CHICHIJIMA,JA,479710-42402,2019,11,1.0
685790,99999,2019-10-03,-30.75,30.267,515.0,340.0,1.0,13.3,,,,,,,,PADDOCK,SF,685790-99999,2019,11,1.0
683870,99999,2019-10-03,-27.783,30.8,1163.0,0.0,0.0,8.3,,,,,,,,VRYHEID,SF,683870-99999,2019,11,1.0
685800,99999,2019-10-03,-29.533,30.283,1071.0,0.0,0.0,6.0,,,,,,,,CEDARA,SF,685800-99999,2019,11,1.0
784600,99999,2019-10-03,19.406,-70.605,172.0,110.0,5.7,30.0,,,,,,,,CIBAO INTL,DR,784600-99999,2019,11,1.0
716720,99999,2019-10-03,44.35,-78.3,216.0,150.0,0.5,26.1,1012.6,,,,,,,PETERBOROUGH TRENT U,CA,716720-99999,2019,11,1.0
083300,99999,2019-10-03,38.883,-6.814,185.0,190.0,1.5,26.0,1011.7,,,,6.0,9999.0,,TALAVERA LA REAL,SP,083300-99999,2019,11,1.0
717830,99999,2019-10-03,48.45,-123.3,60.0,220.0,1.5,18.5,1016.8,,,,24.0,59.0,,VICTORIA UNIVERSITY CS,CA,717830-99999,2019,11,1.0
717830,99999,2019-10-03,48.45,-123.3,60.0,220.0,1.5,17.5,1016.8,,,,,,,VICTORIA UNIVERSITY CS,CA,717830-99999,2019,11,1.0
599970,99999,2019-10-03,10.383,114.367,5.0,200.0,6.0,28.5,1012.7,BKN,,,12.0,0.0,,NANSHA DAO,CH,599970-99999,2019,11,1.0
719460,99999,2019-10-03,61.75,-121.233,169.0,200.0,1.5,24.8,1008.1,FEW,1.0,0.0,24.0,0.0,,FORT SIMPSON,CA,719460-99999,2019,11,1.0
719460,99999,2019-10-03,61.76,-121.237,169.0,0.0,0.0,25.0,1008.1,FEW,,,,,,FORT SIMPSON,CA,719460-99999,2019,11,1.0
208910,99999,2019-10-03,71.983,102.467,33.0,130.0,3.0,10.4,1011.0,BKN,,,12.0,0.0,,HATANGA,RS,208910-99999,2019,11,1.0
382320,99999,2019-10-03,42.967,54.117,78.0,340.0,3.0,22.8,1007.0,,,,,,,AKKUDUK,KZ,382320-99999,2019,11,1.0
406570,99999,2019-10-03,32.45,44.45,27.0,,,28.0,994.5,,,,,,,HELLA,IZ,406570-99999,2019,11,1.0
432840,99999,2019-10-03,12.961,74.89,103.0,90.0,2.1,22.0,,,10.0,,,,,MANGALORE,IN,432840-99999,2019,11,1.0
432840,99999,2019-10-03,12.917,74.883,102.0,90.0,3.1,22.2,1008.7,BKN,10.0,6.0,21.0,520.0,,MANGALORE,IN,432840-99999,2019,11,1.0
719665,99999,2019-10-03,67.571,-139.839,251.0,60.0,4.1,15.0,1011.6,,,,,,,OLD CROW,CA,719665-99999,2019,11,1.0
407809,99999,2019-10-03,36.533,61.167,235.0,300.0,3.0,21.8,1001.1,,,,6.0,0.0,,SARAKHS,IR,407809-99999,2019,11,1.0
710267,99999,2019-10-03,46.3,-63.583,46.0,360.0,1.0,12.8,,,,,,,,MAPLE PLAINS,CA,710267-99999,2019,11,1.0
176090,99999,2019-10-03,34.875,33.625,2.0,110.0,1.5,26.0,,,,,,,,LARNACA,CY,176090-99999,2019,11,1.0
999999,53155,2019-10-03,35.755,-112.337,1826.0,,3.6,24.7,,,,,1.0,0.0,,WILLIAMS 35 NNW,US,999999-53155,2019,11,1.0
716720,99999,2019-10-03,44.351,-78.295,216.0,152.0,0.4,26.2,1012.6,,,,24.0,9999.0,,PETERBOROUGH TRENT U,CA,716720-99999,2019,11,1.0
784600,99999,2019-10-03,19.45,-70.7,183.0,110.0,5.0,29.8,1017.3,SCT,6.0,4.0,,,,CIBAO INTL,DR,784600-99999,2019,11,1.0
997261,99999,2019-10-03,43.95,-86.44,179.0,220.0,4.1,25.4,,,,,,,,9087023 - LUDINGTON  MI,US,997261-99999,2019,11,1.0
222920,99999,2019-10-03,67.687,48.684,4.0,40.0,16.0,5.7,998.3,OVC,81.0,8.0,,,,INDIGA,RS,222920-99999,2019,11,1.0
012170,99999,2019-10-03,62.733,7.25,3.0,20.0,3.0,10.8,1014.5,,,,,,,ARO,NO,012170-99999,2019,11,1.0
999999,73802,2019-10-03,31.916,-86.312,187.0,,,30.4,,,,,1.0,0.0,,HIGHLAND HOME 2 S,US,999999-73802,2019,11,1.0
543424,99999,2019-10-03,41.64,123.483,60.0,,1.0,22.0,,,,,,,,TAOXIAN,CH,543424-99999,2019,11,1.0
121360,99999,2019-10-03,54.417,17.767,151.0,,1.0,6.1,1013.0,,,,6.0,0.0,,LEBUNIA,PL,121360-99999,2019,11,1.0
121360,99999,2019-10-03,54.416,17.763,151.0,,1.0,6.0,,,,,,,,LEBUNIA,PL,121360-99999,2019,11,1.0
715460,99999,2019-10-03,55.777,-119.345,575.0,191.0,0.4,16.0,,,,,24.0,9999.0,,RYCROFT AGCM,CA,715460-99999,2019,11,1.0
071300,99999,2019-10-03,48.07,-1.735,38.0,280.0,2.6,18.0,,,,,,,,ST JACQUES,FR,071300-99999,2019,11,1.0
071300,99999,2019-10-03,48.067,-1.733,43.0,280.0,2.6,17.6,1016.5,OVC,0.0,,6.0,0.0,,ST JACQUES,FR,071300-99999,2019,11,1.0
066180,99999,2019-10-03,46.737,6.568,437.0,220.0,1.0,12.1,1017.6,,,,6.0,9999.0,,MATHOD,SZ,066180-99999,2019,11,1.0
264050,99999,2019-10-03,57.4,21.533,3.0,,,14.7,1009.2,,,,,,,VENTSPILS,LG,264050-99999,2019,11,1.0
999999,94084,2019-10-03,48.968,-102.17,561.0,,1.5,22.5,,,,,1.0,0.0,,NORTHGATE 5 ESE,US,999999-94084,2019,11,1.0
719060,99999,2019-10-03,58.1,-68.417,39.0,170.0,4.1,19.7,1016.8,BKN,,,24.0,0.0,,KUUJJUAQ A,CA,719060-99999,2019,11,1.0
719060,99999,2019-10-03,58.1,-68.417,39.0,180.0,4.1,20.0,1016.7,,,,,,,KUUJJUAQ A,CA,719060-99999,2019,11,1.0
985460,99999,2019-10-03,12.5,124.633,7.0,200.0,1.0,28.4,1013.4,FEW,,,24.0,59.0,,CATARMAN,RP,985460-99999,2019,11,1.0
013260,99999,2019-10-03,60.85,5.983,125.0,,,10.1,,,,,6.0,0.0,,MODALEN III,NO,013260-99999,2019,11,1.0
994270,99999,2019-10-03,42.97,-70.62,13.0,170.0,2.6,21.0,1015.2,,,,,,,ISLE OF SHOALS  NH,US,994270-99999,2019,11,1.0
066040,99999,2019-10-03,47.0,6.953,485.0,48.0,0.5,16.5,1016.3,,,,6.0,9999.0,,NEUCHATEL (AUT),SZ,066040-99999,2019,11,1.0
724750,23176,2019-10-03,38.417,-113.017,1536.0,210.0,6.7,35.6,1013.6,,,,,,,MILFORD MUNICIPAL AIRPORT,US,724750-23176,2019,11,1.0
075795,99999,2019-10-03,44.915,4.972,163.0,50.0,1.5,18.0,1014.0,,0.0,,6.0,0.0,,CHABEUIL,FR,075795-99999,2019,11,1.0
477460,99999,2019-10-03,35.483,134.233,16.0,110.0,1.5,23.6,1006.0,OVC,80.0,6.0,24.0,215.0,,TOTTORI,JA,477460-99999,2019,11,1.0
718370,99999,2019-10-03,49.367,-113.117,1128.0,0.0,0.0,24.0,,,,,24.0,9999.0,,ST MARY RESEVOIR,CA,718370-99999,2019,11,1.0
719530,99999,2019-10-03,60.116,-128.822,687.0,140.0,2.1,23.0,1010.5,,,,,,,WATSON LAKE,CA,719530-99999,2019,11,1.0
154650,99999,2019-10-03,44.029,23.331,57.0,270.0,2.0,12.6,1012.3,,,,6.0,9999.0,,BAILESTI,RO,154650-99999,2019,11,1.0
718940,99999,2019-10-03,49.383,-126.55,7.0,130.0,4.6,15.9,1016.8,,,,24.0,238.0,,ESTEVAN POINT CS  BC,CA,718940-99999,2019,11,1.0
718940,99999,2019-10-03,49.38,-126.55,7.0,130.0,4.6,15.8,1016.8,,,,,,,ESTEVAN POINT CS  BC,CA,718940-99999,2019,11,1.0
064590,99999,2019-10-03,50.583,4.683,157.0,140.0,2.0,14.7,1016.4,,,,,,,ERNAGE,BE,064590-99999,2019,11,1.0
711060,94234,2019-10-03,49.082,-125.772,24.0,160.0,3.1,16.0,1017.0,,,,,,,TOFINO AIRPORT,CA,711060-94234,2019,11,1.0
711060,94234,2019-10-03,49.082,-125.772,25.0,280.0,1.0,,,,,,24.0,0.0,,TOFINO AIRPORT,CA,711060-94234,2019,11,1.0
783841,99999,2019-10-03,19.687,-79.883,2.0,70.0,2.6,27.0,,,16.0,,,,,GERRARD SMITH INTL,CJ,783841-99999,2019,11,1.0
783841,99999,2019-10-03,19.683,-79.883,6.0,70.0,2.6,27.0,1016.1,OVC,17.0,2.0,24.0,284.0,,GERRARD SMITH INTL,CJ,783841-99999,2019,11,1.0
514310,99999,2019-10-03,43.95,81.333,664.0,90.0,2.0,19.6,1008.3,,,,24.0,17.0,,YINING,CH,514310-99999,2019,11,1.0
999999,73801,2019-10-03,33.213,-87.591,46.0,,,29.0,,,,,1.0,0.0,,NORTHPORT 2 S,US,999999-73801,2019,11,1.0
712200,99999,2019-10-03,54.296,-130.609,23.0,0.0,0.0,17.2,,,,,24.0,9999.0,,LUCY ISLAND LIGHTSTATION,CA,712200-99999,2019,11,1.0
712200,99999,2019-10-03,54.3,-130.6,26.0,180.0,,17.2,,,,,,,,LUCY ISLAND LIGHTSTATION,CA,712200-99999,2019,11,1.0
142410,99999,2019-10-03,45.743,16.069,108.0,250.0,2.1,11.0,,,,,,,,ZAGREB,HR,142410-99999,2019,11,1.0
142410,99999,2019-10-03,45.733,16.05,108.0,250.0,2.0,11.1,1016.6,,,,6.0,0.0,,ZAGREB,HR,142410-99999,2019,11,1.0
999999,03728,2019-10-03,33.153,-79.364,3.0,,0.9,27.8,,,,,1.0,0.0,,MCCLELLANVILLE 7 NE,US,999999-03728,2019,11,1.0
075000,99999,2019-10-03,44.633,-1.25,10.0,310.0,3.6,18.4,1015.9,FEW,,,6.0,0.0,,CAP FERRET,FR,075000-99999,2019,11,1.0
232215,99999,2019-10-03,53.393,58.756,436.0,200.0,3.0,15.0,,,10.0,,,,,MAGNITOGORSK,RS,232215-99999,2019,11,1.0
263390,99999,2019-10-03,57.133,25.917,180.0,,,11.7,1007.1,,,,,,,ZOSENI,LG,263390-99999,2019,11,1.0
084530,99999,2019-10-03,36.466,-6.206,28.0,97.0,3.3,23.7,1012.6,,,,6.0,9999.0,,SAN FERNANDO,SP,084530-99999,2019,11,1.0
376090,99999,2019-10-03,41.029,43.876,2015.0,,,8.3,,,,,,,,ASHOTSK,AM,376090-99999,2019,11,1.0
685130,99999,2019-10-03,-30.2,17.283,99.0,330.0,1.5,15.6,1016.7,,,,,,,KOINGNAAS,SF,685130-99999,2019,11,1.0
654730,99999,2019-10-03,5.617,0.0,18.0,230.0,3.1,24.8,1014.2,BKN,,,,,,TEMA,GH,654730-99999,2019,11,1.0
489270,99999,2019-10-03,20.417,104.233,913.0,0.0,0.0,22.2,,OVC,10.0,,24.0,3.0,,VIENGSAY,LA,489270-99999,2019,11,1.0
987510,99999,2019-10-03,8.15,125.133,627.0,,,24.0,1014.5,SCT,5.0,4.0,24.0,138.0,,MALAYBALAY,RP,987510-99999,2019,11,1.0
476720,99999,2019-10-03,34.983,139.867,7.0,80.0,4.6,23.7,1015.7,,,,12.0,0.0,,TATEYAMA,JA,476720-99999,2019,11,1.0
998340,99999,2019-10-03,34.408,-119.658,6.0,210.0,6.2,15.8,1016.9,,,,,,,SANTA BARBARA,US,998340-99999,2019,11,1.0
580270,99999,2019-10-03,34.283,117.15,42.0,,,24.3,1008.5,OVC,10.0,,24.0,18.0,,XUZHOU,CH,580270-99999,2019,11,1.0
027660,99999,2019-10-03,63.15,31.05,237.0,360.0,1.0,4.4,1010.0,,,,,,,ILOMANTSI POTSONVAARA,FI,027660-99999,2019,11,1.0
818480,99999,2019-10-03,-8.365,-42.25,237.0,110.0,2.4,27.5,1016.1,,,,99.0,9999.0,,SAO JOAO DO PIAUI,BR,818480-99999,2019,11,1.0
026280,99999,2019-10-03,56.017,14.85,60.0,310.0,4.0,13.5,,,,,1.0,0.0,,HANO,SW,026280-99999,2019,11,1.0
170640,99999,2019-10-03,40.911,29.156,18.0,60.0,0.5,22.0,1007.7,BKN,,,6.0,9999.0,,ISTANBUL BOLGE (KARTAL),TU,170640-99999,2019,11,1.0
418830,99999,2019-10-03,24.85,89.367,20.0,130.0,1.0,26.1,998.9,OVC,61.0,9.0,24.0,690.0,,BOGRA,BG,418830-99999,2019,11,1.0
618560,99999,2019-10-03,8.616,-13.195,26.0,280.0,2.1,27.0,,,,,,,,FREETOWN LUNGI,SL,618560-99999,2019,11,1.0
998306,99999,2019-10-03,25.619,-81.044,3.0,0.0,0.0,,,,,,,,,WILLY WILLY,US,998306-99999,2019,11,1.0
427370,99999,2019-10-03,22.3,70.783,134.0,230.0,4.1,28.4,1000.1,FEW,,,,,,RAJKOT,IN,427370-99999,2019,11,1.0
817170,99999,2019-10-03,-2.592,-42.708,5.0,0.0,0.0,26.5,1014.4,,,,99.0,9999.0,,PREGUICAS,BR,817170-99999,2019,11,1.0
028760,99999,2019-10-03,65.006,25.393,3.0,50.0,2.4,10.0,1012.5,,,0.0,,,,OULU VIHREASAARI HARBOUR,FI,028760-99999,2019,11,1.0
817170,99999,2019-10-03,-2.592,-42.707,2.0,0.0,0.0,26.4,1014.4,,,,6.0,0.0,,PREGUICAS,BR,817170-99999,2019,11,1.0
999999,96409,2019-10-03,68.648,-149.399,750.0,,3.9,16.0,,,,,1.0,9999.0,,TOOLIK LAKE 5 ENE,US,999999-96409,2019,11,1.0
488390,99999,2019-10-03,20.133,107.717,56.0,140.0,2.0,28.0,1005.7,BKN,,,12.0,60.0,,BACH LONG VI,VM,488390-99999,2019,11,1.0
998289,99999,2019-10-03,25.55,-81.183,3.0,0.0,0.0,,,,,,,,,LOSTMANS RIVER,US,998289-99999,2019,11,1.0
172375,99999,2019-10-03,37.785,29.701,848.0,290.0,2.1,19.2,1003.9,CLR,,,6.0,9999.0,,CARDAK,TU,172375-99999,2019,11,1.0
724400,13995,2019-10-03,37.233,-93.4,390.0,190.0,3.1,25.6,1015.5,,,,,,,SPRINGFIELD-BRANSON REGIONAL AIRPORT,US,724400-13995,2019,11,1.0
727970,94240,2019-10-03,47.933,-124.55,57.0,200.0,4.1,17.2,1017.6,OVC,,,6.0,5.0,,QUILLAYUTE AIRPORT,US,727970-94240,2019,11,1.0
407450,99999,2019-10-03,36.267,59.633,999.0,270.0,2.0,23.0,999.8,,,,6.0,0.0,,MASHHAD INTL,IR,407450-99999,2019,11,1.0
027680,99999,2019-10-03,61.2,26.05,92.0,,,10.6,,BKN,,,,,0.0,HEINOLA ASEMANTAUS,FI,027680-99999,2019,11,1.0
645000,99999,2019-10-03,0.459,9.412,12.0,160.0,3.6,23.0,,,,,,,,LEON M BA,GB,645000-99999,2019,11,1.0
998009,99999,2019-10-03,43.25,-77.583,83.0,100.0,2.6,23.7,,,,,,,,ROCHESTER,US,998009-99999,2019,11,1.0
010260,99999,2019-10-03,69.65,18.933,115.0,10.0,1.0,9.6,1014.6,BKN,3.0,2.0,6.0,1.0,,TROMSO,NO,010260-99999,2019,11,1.0
407450,99999,2019-10-03,36.235,59.641,995.0,270.0,2.1,23.0,,,,,,,,MASHHAD INTL,IR,407450-99999,2019,11,1.0
151240,99999,2019-10-03,46.886,24.645,449.0,0.0,0.0,10.0,1014.2,,,,6.0,9999.0,,BATOS,RO,151240-99999,2019,11,1.0
351880,99999,2019-10-03,51.022,71.467,355.0,90.0,3.0,12.0,,,,,,,,ASTANA INTL,KZ,351880-99999,2019,11,1.0
250510,99999,2019-10-03,69.7,170.25,5.0,190.0,1.0,23.9,1012.2,,,,,,,PEVEK,RS,250510-99999,2019,11,1.0
300740,99999,2019-10-03,59.933,117.6,164.0,220.0,1.0,17.3,1012.1,OVC,,,12.0,170.0,,MACHA,RS,300740-99999,2019,11,1.0
076530,99999,2019-10-03,43.333,5.05,27.0,340.0,3.6,,,,,,6.0,9999.0,,CAP COURONNE,FR,076530-99999,2019,11,1.0
651125,99999,2019-10-03,9.007,7.263,342.0,130.0,1.5,22.0,,,17.0,,,,,NNAMDI AZIKIWE INTL,NI,651125-99999,2019,11,1.0
720282,03736,2019-10-03,36.018,-75.671,4.0,90.0,1.5,26.4,,SCT,,,,,,FIRST FLIGHT AIRPORT,US,720282-03736,2019,11,1.0
084515,99999,2019-10-03,41.728,0.536,350.0,50.0,2.1,21.0,,,,,,,,LLEIDA-ALGUAIRE AIRPORT,SP,084515-99999,2019,11,1.0
890130,99999,2019-10-03,-82.45,-13.067,1968.0,100.0,8.2,-51.4,1013.0,,,,,,,BALDRICK AWS,AY,890130-99999,2019,11,1.0
920470,99999,2019-10-03,-6.567,146.717,71.0,90.0,7.2,26.6,1011.6,BKN,2.0,2.0,99.0,9999.0,,NADZAB,PP,920470-99999,2019,11,1.0
937090,99999,2019-10-03,-43.867,169.0,5.0,140.0,3.1,8.9,1012.9,,,,24.0,632.0,,HAAST AWS,NZ,937090-99999,2019,11,1.0
042140,99999,2019-10-03,70.683,-54.617,27.0,120.0,3.1,4.1,1012.5,,,,,,,NUUSSUAATAA (NUUSSUAQ),GL,042140-99999,2019,11,1.0
999999,94079,2019-10-03,42.068,-101.445,1140.0,,3.0,24.3,,,,,1.0,0.0,,WHITMAN 5 ENE,US,999999-94079,2019,11,1.0
715000,99999,2019-10-03,53.817,-114.533,670.0,360.0,2.1,16.2,,,,,24.0,9999.0,,GLENEVIS AGCM,CA,715000-99999,2019,11,1.0
071470,99999,2019-10-03,48.774,2.202,178.0,,0.5,20.0,,,,,,,,VELIZY,FR,071470-99999,2019,11,1.0
013640,99999,2019-10-03,61.183,8.117,955.0,,,3.6,1016.6,,,,6.0,0.0,,FILEFJELL,NO,013640-99999,2019,11,1.0
710020,99999,2019-10-03,53.567,-64.1,440.0,50.0,2.6,11.1,1022.7,OVC,,,24.0,0.0,,CHURCHILL FALLS,CA,710020-99999,2019,11,1.0
710020,99999,2019-10-03,53.567,-64.1,440.0,40.0,3.1,11.0,1022.7,,,,,,,CHURCHILL FALLS,CA,710020-99999,2019,11,1.0
027410,99999,2019-10-03,60.183,19.983,11.0,320.0,2.0,11.0,1009.6,,,,,,,JOMALA JOMLABY,FI,027410-99999,2019,11,1.0
062790,99999,2019-10-03,52.749,6.573,16.0,177.0,2.0,12.2,1015.8,OVC,,,6.0,9999.0,,HOOGEVEEN AWS,NL,062790-99999,2019,11,1.0
998199,99999,2019-10-03,30.15,-85.667,5.0,50.0,0.5,,,,,,,,,PANAMA CITY,US,998199-99999,2019,11,1.0
867320,99999,2019-10-03,-16.963,-50.425,679.0,271.0,1.0,17.5,1019.8,,,,99.0,9999.0,,PARAUNA,BR,867320-99999,2019,11,1.0
123450,99999,2019-10-03,52.2,18.667,117.0,250.0,1.0,12.4,1012.2,,,,6.0,7.0,,KOLO,PL,123450-99999,2019,11,1.0
713250,99999,2019-10-03,44.75,-63.67,10.0,360.0,2.6,17.8,1017.7,,,,,,,BEDFORD RANGE,CA,713250-99999,2019,11,1.0
412161,99999,2019-10-03,24.074,52.464,15.0,180.0,4.1,31.0,,,,,,,,AL HAMRA AUX,AE,412161-99999,2019,11,1.0
484390,99999,2019-10-03,13.983,101.7,12.0,0.0,0.0,25.2,1010.0,SCT,10.0,0.0,,,,KABINBURI,TH,484390-99999,2019,11,1.0
725170,14737,2019-10-03,40.65,-75.433,117.0,210.0,4.6,29.4,1014.5,FEW,,,,,,LEHIGH VALLEY INTERNATIONAL AIRPORT,US,725170-14737,2019,11,1.0
380490,99999,2019-10-03,44.067,62.9,88.0,,,24.6,1003.0,,,,,,,CIRIK-RABAT,KZ,380490-99999,2019,11,1.0
477760,99999,2019-10-03,34.333,134.9,112.0,40.0,3.1,22.2,1009.4,,,,12.0,30.0,,SUMOTO,JA,477760-99999,2019,11,1.0
961470,99999,2019-10-03,3.95,108.383,2.0,250.0,1.0,27.2,1011.6,SCT,,,,,,RANAI,ID,961470-99999,2019,11,1.0
043120,99999,2019-10-03,81.6,-16.65,36.0,350.0,4.6,1.2,1012.0,,,,,,,STATION NORD AWS,GL,043120-99999,2019,11,1.0
083300,99999,2019-10-03,38.891,-6.821,186.0,,1.0,25.0,,,,,,,,TALAVERA LA REAL,SP,083300-99999,2019,11,1.0
952140,99999,2019-10-03,-15.5,128.15,4.0,130.0,4.6,26.4,1020.1,,,,,,,WYNDHAM AERO,AS,952140-99999,2019,11,1.0
313289,99999,2019-10-03,50.425,127.412,194.0,50.0,1.0,22.0,,,,,,,,IGNATYEVO,RS,313289-99999,2019,11,1.0
407826,99999,2019-10-03,36.636,53.194,11.0,200.0,2.1,22.0,,,,,,,,SARI DASHT E NAZ,IR,407826-99999,2019,11,1.0
029270,99999,2019-10-03,62.517,24.8,227.0,60.0,3.0,9.9,1010.2,,,,,,,MULTIA KARHILA,FI,029270-99999,2019,11,1.0
071470,99999,2019-10-03,48.767,2.2,176.0,240.0,0.5,20.2,1015.7,OVC,0.0,,6.0,0.0,,VELIZY,FR,071470-99999,2019,11,1.0
873490,99999,2019-10-03,-31.15,-63.867,338.0,90.0,0.5,13.6,1015.5,BKN,5.0,2.0,1.0,9999.0,,PILAR OBSERVATORIO,AR,873490-99999,2019,11,1.0
471750,99999,2019-10-03,34.472,126.324,479.0,312.0,6.7,18.0,1006.0,,,,12.0,19.0,,JINDO RADAR,KS,471750-99999,2019,11,1.0
029570,99999,2019-10-03,63.1,21.639,9.0,10.0,4.0,11.8,1010.8,BKN,,,,,,VAASA KLEMETTILA,FI,029570-99999,2019,11,1.0
476050,99999,2019-10-03,36.583,136.633,34.0,120.0,1.0,25.9,1008.8,OVC,21.0,6.0,24.0,0.0,,KANAZAWA,JA,476050-99999,2019,11,1.0
012720,99999,2019-10-03,63.567,10.7,70.0,,,10.2,,,,,6.0,0.0,,FROSTA,NO,012720-99999,2019,11,1.0
476320,99999,2019-10-03,35.4,136.767,17.0,200.0,1.0,21.6,1013.5,OVC,61.0,6.0,24.0,20.0,,GIFU,JA,476320-99999,2019,11,1.0
683920,99999,2019-10-03,-27.05,31.1,1102.0,350.0,1.5,,,,,,,,,NHLANGANO,WZ,683920-99999,2019,11,1.0
264470,99999,2019-10-03,56.85,26.233,133.0,,,12.9,1006.8,,,,,,,MADONA,LG,264470-99999,2019,11,1.0
154450,99999,2019-10-03,44.35,28.05,88.0,30.0,4.0,14.7,1011.0,,,,6.0,5.0,,CERNAVODA,RO,154450-99999,2019,11,1.0
406740,99999,2019-10-03,31.267,45.267,6.0,320.0,6.0,31.2,995.5,,,,,,,SAMAWA,IZ,406740-99999,2019,11,1.0
821110,99999,2019-10-03,-3.039,-60.05,80.0,300.0,1.5,24.0,,,17.0,,,,,EDUARDO GOMES INTL,BR,821110-99999,2019,11,1.0
598550,99999,2019-10-03,19.233,110.467,25.0,220.0,1.0,28.6,1007.5,BKN,,,24.0,0.0,,QIONGHAI,CH,598550-99999,2019,11,1.0
684970,99999,2019-10-03,-28.95,31.7,38.0,240.0,1.5,11.5,1022.4,,,,,,,MTUNZINI,SF,684970-99999,2019,11,1.0
725080,14740,2019-10-03,41.933,-72.683,55.0,260.0,2.6,29.4,1014.7,BKN,,,,,,BRADLEY INTERNATIONAL AIRPORT,US,725080-14740,2019,11,1.0
946380,99999,2019-10-03,-33.833,121.893,27.0,300.0,5.7,11.3,1026.3,,,,,,,ESPERANCE,AS,946380-99999,2019,11,1.0
999999,03733,2019-10-03,39.013,-79.474,1033.0,,0.7,21.7,,,,,1.0,0.0,,ELKINS 21 ENE,US,999999-03733,2019,11,1.0
039040,99999,2019-10-03,54.707,-7.577,49.0,220.0,5.7,16.0,1009.7,,,,6.0,9999.0,,CASTLEDERG,UK,039040-99999,2019,11,1.0
701740,26533,2019-10-03,66.917,-151.533,196.0,280.0,3.6,30.6,1005.7,SCT,,,,,,BETTLES AIRPORT,US,701740-26533,2019,11,1.0
023290,99999,2019-10-03,61.667,15.0,455.0,100.0,1.0,13.1,1012.2,,,,1.0,0.0,,HAMRA,SW,023290-99999,2019,11,1.0
999999,26655,2019-10-03,68.028,-162.921,287.0,,1.6,27.1,,,,,1.0,0.0,,RED DOG MINE 3 SSW,US,999999-26655,2019,11,1.0
070190,99999,2019-10-03,49.7,-1.267,7.0,210.0,3.1,,,,,,6.0,9999.0,,BARFLEUR (POINT),FR,070190-99999,2019,11,1.0
084190,99999,2019-10-03,37.189,-3.777,567.0,0.0,0.0,22.0,,CLR,,,,,,GRANADA,SP,084190-99999,2019,11,1.0
084190,99999,2019-10-03,37.19,-3.789,567.0,280.0,0.5,20.7,1014.0,,,,6.0,9999.0,,GRANADA,SP,084190-99999,2019,11,1.0
999999,94078,2019-10-03,42.675,-108.669,1760.0,,1.4,28.8,,,,,1.0,0.0,,LANDER 11 SSE,US,999999-94078,2019,11,1.0
725660,24028,2019-10-03,41.867,-103.6,1206.0,110.0,3.6,27.2,1020.6,,,,,,,WESTERN NE REGIONAL/HEILIG FIELD AP,US,725660-24028,2019,11,1.0
036490,99999,2019-10-03,51.758,-1.576,82.0,260.0,2.6,17.5,1014.8,OVC,,,6.0,9999.0,,BRIZE NORTON,UK,036490-99999,2019,11,1.0
480800,99999,2019-10-03,18.467,94.35,11.0,0.0,0.0,24.5,1008.1,OVC,2.0,6.0,12.0,670.0,,SANDOWAY,BM,480800-99999,2019,11,1.0
336580,99999,2019-10-03,48.367,25.9,246.0,300.0,5.0,15.0,1010.7,SCT,,,,,,CHERNIVTSI,UP,336580-99999,2019,11,1.0
336580,99999,2019-10-03,48.259,25.981,252.0,290.0,4.0,15.0,,,,,,,,CHERNIVTSI,UP,336580-99999,2019,11,1.0
719850,99999,2019-10-03,69.43,-133.02,5.0,,,6.1,1010.4,,,,,,,TUKTOYAKTUK  NWT,CA,719850-99999,2019,11,1.0
719850,99999,2019-10-03,69.433,-133.017,5.0,0.0,0.0,6.1,1010.4,,,,24.0,9999.0,,TUKTOYAKTUK  NWT,CA,719850-99999,2019,11,1.0
723170,13723,2019-10-03,36.083,-79.95,277.0,190.0,3.6,29.4,1014.9,SCT,,,,,,PIEDMONT TRIAD INTERNATIONAL AIRPORT,US,723170-13723,2019,11,1.0
474120,99999,2019-10-03,43.067,141.333,26.0,130.0,1.5,22.3,1015.1,SCT,,,24.0,0.0,,SAPPORO,JA,474120-99999,2019,11,1.0
682870,99999,2019-10-03,-24.933,30.85,1436.0,240.0,1.0,9.9,,,,,,,,GRASKOP,SF,682870-99999,2019,11,1.0
024640,99999,2019-10-03,59.367,17.9,14.0,280.0,1.0,13.4,1010.8,,,,,,,BROMMA,SW,024640-99999,2019,11,1.0
084950,99999,2019-10-03,36.15,-5.333,5.0,110.0,7.2,22.0,1014.3,,,,6.0,9999.0,,GIBRALTAR,GI,084950-99999,2019,11,1.0
064560,99999,2019-10-03,50.234,4.653,279.0,360.0,1.0,16.5,1016.2,,,,6.0,4.0,,FLORENNES,BE,064560-99999,2019,11,1.0
020380,99999,2019-10-03,67.25,20.267,453.0,50.0,1.0,6.4,,,,,1.0,0.0,,LATNIVAARA,SW,020380-99999,2019,11,1.0
126000,99999,2019-10-03,49.8,19.0,399.0,210.0,3.0,11.3,1015.2,BKN,3.0,8.0,6.0,7.0,,BIELSKO-BIALA,PL,126000-99999,2019,11,1.0
264460,99999,2019-10-03,56.533,27.267,157.0,,,11.4,1006.1,,,,,,,REZEKNE,LG,264460-99999,2019,11,1.0
116530,99999,2019-10-03,50.736,15.74,1602.0,320.0,6.0,5.1,,,,,,,,SNEZKA,EZ,116530-99999,2019,11,1.0
637410,99999,2019-10-03,-1.3,36.75,1798.0,0.0,0.0,16.2,,BKN,,,1.0,9999.0,,NAIROBI/DAGORETTI,KE,637410-99999,2019,11,1.0
768550,99999,2019-10-03,15.683,-96.483,46.0,50.0,3.0,29.0,1013.7,BKN,,,24.0,169.0,,PUERTO ANGEL  OAX.,MX,768550-99999,2019,11,1.0
064470,99999,2019-10-03,50.8,4.35,101.0,140.0,3.0,16.7,1015.2,,,,,,,UCCLE,BE,064470-99999,2019,11,1.0
027340,99999,2019-10-03,61.45,29.467,75.0,50.0,3.0,8.8,1009.3,,,,,,,PARIKKALA KOITSANLAHTI,FI,027340-99999,2019,11,1.0
612700,99999,2019-10-03,13.067,-9.467,334.0,260.0,1.0,28.0,1012.5,SCT,29.0,9.0,,,,KITA,ML,612700-99999,2019,11,1.0
542730,99999,2019-10-03,42.983,126.75,264.0,360.0,1.0,19.7,1008.6,OVC,,,,,,HUADIAN,CH,542730-99999,2019,11,1.0
876400,99999,2019-10-03,-36.2,-61.067,94.0,0.0,0.0,9.5,1013.5,SCT,,,,,,BOLIVAR AERO,AR,876400-99999,2019,11,1.0
478350,99999,2019-10-03,31.583,131.4,15.0,260.0,5.1,28.5,1007.5,,,,12.0,10.0,,ABURATSU,JA,478350-99999,2019,11,1.0
971420,99999,2019-10-03,-4.3,121.533,3.0,110.0,0.5,25.5,1015.7,BKN,,,,,,KOLAKA/POMALA,ID,971420-99999,2019,11,1.0
080940,99999,2019-10-03,42.081,-0.323,539.0,0.0,0.0,19.0,,CLR,,,,,,HUESCA-PIRINEOS,SP,080940-99999,2019,11,1.0
389740,99999,2019-10-03,36.533,61.217,275.0,340.0,4.0,27.4,1001.7,,,,,,,SARAGT,TX,389740-99999,2019,11,1.0
480620,99999,2019-10-03,20.133,92.883,5.0,180.0,2.6,27.5,1005.5,OVC,2.0,6.0,12.0,260.0,,SITTWE,BM,480620-99999,2019,11,1.0
875630,99999,2019-10-03,-36.067,-59.1,38.0,90.0,2.1,9.2,1014.3,,,,,,,LAS FLORES,AR,875630-99999,2019,11,1.0
444060,99999,2019-10-03,29.25,80.95,617.0,0.0,0.0,25.4,992.0,OVC,10.0,6.0,,,,DIPAYAL,NP,444060-99999,2019,11,1.0
719440,99999,2019-10-03,55.283,-123.133,690.0,210.0,5.1,18.3,1013.3,BKN,,,24.0,0.0,,MACKENZIE A,CA,719440-99999,2019,11,1.0
543770,99999,2019-10-03,41.15,126.217,225.0,,,19.9,1009.1,OVC,21.0,,24.0,1.0,,JI'AN,CH,543770-99999,2019,11,1.0
368830,99999,2019-10-03,43.483,76.983,614.0,200.0,1.0,17.6,1007.1,,,,,,,ILIYSKY,KZ,368830-99999,2019,11,1.0
028440,99999,2019-10-03,66.773,23.963,85.0,29.0,1.4,10.0,1014.1,BKN,,0.0,,,0.0,PELLO CENTRE,FI,028440-99999,2019,11,1.0
719440,99999,2019-10-03,55.3,-123.133,690.0,200.0,5.7,18.0,1013.2,,,,,,,MACKENZIE A,CA,719440-99999,2019,11,1.0
819080,99999,2019-10-03,-7.071,-41.404,233.0,196.0,0.7,24.0,1016.3,,,,99.0,9999.0,,PICOS,BR,819080-99999,2019,11,1.0
867420,99999,2019-10-03,-16.576,-41.486,272.0,117.0,1.9,20.1,1022.3,,,,99.0,9999.0,,ITAOBIM,BR,867420-99999,2019,11,1.0
080940,99999,2019-10-03,42.084,-0.326,541.0,310.0,1.0,21.6,1014.0,,,,6.0,9999.0,,HUESCA-PIRINEOS,SP,080940-99999,2019,11,1.0
976900,99999,2019-10-03,-2.567,140.483,99.0,0.0,0.0,27.2,1012.6,BKN,,,,,,SENTANI,ID,976900-99999,2019,11,1.0
167570,99999,2019-10-03,35.216,26.103,114.0,200.0,2.1,30.2,1005.3,,,,6.0,9999.0,,SITIA,GR,167570-99999,2019,11,1.0
818600,99999,2019-10-03,-6.077,-50.142,707.0,123.0,2.2,24.1,1014.2,,,,99.0,9999.0,,SERRA DE CARAJAS,BR,818600-99999,2019,11,1.0
998490,99999,2019-10-03,29.689,-93.842,11.0,210.0,3.6,30.2,1012.3,,,,,,,TEXAS POINT,US,998490-99999,2019,11,1.0
080440,99999,2019-10-03,42.438,-8.616,108.0,80.0,1.0,20.5,1014.8,,,,6.0,9999.0,,PONTEVEDRA,SP,080440-99999,2019,11,1.0
788590,99999,2019-10-03,17.217,-62.6,17.0,90.0,5.7,,1017.7,FEW,5.0,0.0,6.0,0.0,,VANCE WINKWORTH AMORY INTL,SC,788590-99999,2019,11,1.0
788590,99999,2019-10-03,17.206,-62.59,4.0,90.0,5.7,,,,,,,,,VANCE WINKWORTH AMORY INTL,SC,788590-99999,2019,11,1.0
476860,99999,2019-10-03,35.765,140.386,43.0,30.0,3.6,21.0,,,,,,,,NARITA INTL,JA,476860-99999,2019,11,1.0
264250,99999,2019-10-03,56.65,23.733,9.0,,,9.2,1008.0,,,,,,,JELGAVA,LG,264250-99999,2019,11,1.0
723020,13748,2019-10-03,34.267,-77.9,10.0,210.0,3.1,28.9,1016.1,,,,,,,WILMINGTON INTERNATIONAL AIRPORT,US,723020-13748,2019,11,1.0
711250,99999,2019-10-03,54.125,-108.523,480.0,90.0,4.6,18.0,1012.4,,,,,,,MEADOW LAKE  A,CA,711250-99999,2019,11,1.0
711250,99999,2019-10-03,54.133,-108.517,480.0,100.0,4.1,17.7,1012.5,BKN,1.0,9.0,24.0,9999.0,,MEADOW LAKE  A,CA,711250-99999,2019,11,1.0
062670,99999,2019-10-03,52.9,5.383,3.0,170.0,4.0,15.8,,OVC,,,6.0,0.0,,STAVOREN AWS,NL,062670-99999,2019,11,1.0
510530,99999,2019-10-03,48.05,86.35,534.0,340.0,1.0,16.5,1009.9,BKN,,,24.0,12.0,,KABA HE,CH,510530-99999,2019,11,1.0
868720,99999,2019-10-03,-22.75,-45.604,1663.0,,,6.5,1028.3,,,,99.0,9999.0,,CAMPOS DO JORDAO,BR,868720-99999,2019,11,1.0
485660,99999,2019-10-03,7.533,99.05,3.0,70.0,1.5,26.2,1011.5,BKN,,,,,,KO LANTA,TH,485660-99999,2019,11,1.0
701940,26413,2019-10-03,66.567,-145.267,135.0,0.0,0.0,24.4,1007.8,BKN,4.0,,6.0,0.0,,FORT YUKON AIRPORT,US,701940-26413,2019,11,1.0
434760,99999,2019-10-03,6.817,80.967,1250.0,230.0,1.0,20.4,,BKN,,,9.0,0.0,,DIYATALAWA,CE,434760-99999,2019,11,1.0
725030,14732,2019-10-03,40.783,-73.867,9.0,180.0,3.6,30.0,1014.4,SCT,,,,,,LA GUARDIA AIRPORT,US,725030-14732,2019,11,1.0
044160,99999,2019-10-03,72.583,-38.45,3207.0,20.0,2.1,-8.1,,,,,,,,SUMMIT,GL,044160-99999,2019,11,1.0
529550,99999,2019-10-03,35.583,100.75,3123.0,290.0,1.0,8.2,,OVC,60.0,,24.0,82.0,,GUINAN,CH,529550-99999,2019,11,1.0
943950,99999,2019-10-03,-22.783,147.617,272.0,190.0,2.6,17.0,1023.8,,,,,,,CLERMONT AIRPORT,AS,943950-99999,2019,11,1.0
604250,99999,2019-10-03,36.213,1.332,141.0,40.0,2.6,27.0,,,,,,,,ECH CHELIFF,AG,604250-99999,2019,11,1.0
604250,99999,2019-10-03,36.217,1.333,143.0,40.0,2.6,26.8,1010.3,,,,6.0,0.0,,ECH CHELIFF,AG,604250-99999,2019,11,1.0
164590,99999,2019-10-03,37.4,14.917,29.0,260.0,9.3,25.2,1008.6,,,,6.0,0.0,,CATANIA/SIGONELLA,IT,164590-99999,2019,11,1.0
637080,99999,2019-10-03,-0.086,34.729,1209.0,70.0,2.1,19.0,,,,,,,,KISUMU,KE,637080-99999,2019,11,1.0
868240,99999,2019-10-03,-20.763,-42.864,698.0,0.0,0.0,10.0,1024.5,,,,99.0,9999.0,,VICOSA,BR,868240-99999,2019,11,1.0
070750,99999,2019-10-03,49.783,4.633,148.0,0.0,0.0,14.4,1016.4,OVC,0.0,,6.0,0.0,,CHARLEVILLE MEZIERES,FR,070750-99999,2019,11,1.0
719310,99999,2019-10-03,49.1,-53.567,19.0,360.0,5.1,,1008.4,,,,24.0,9999.0,,POOLS ISLAND,CA,719310-99999,2019,11,1.0
719310,99999,2019-10-03,54.77,-112.02,567.0,110.0,1.0,18.7,1011.6,,,,,,,POOLS ISLAND,CA,719310-99999,2019,11,1.0
381980,99999,2019-10-03,43.267,68.217,207.0,30.0,4.0,28.2,1000.3,FEW,,,,,,TURKESTAN,KZ,381980-99999,2019,11,1.0
251510,99999,2019-10-03,68.883,170.783,5.0,150.0,2.0,27.9,1011.3,SCT,,,,,,CHAUN,RS,251510-99999,2019,11,1.0
685490,99999,2019-10-03,-29.9,26.867,1420.0,0.0,0.0,0.4,,,,,,,,WEPENER,SF,685490-99999,2019,11,1.0
999999,54933,2019-10-03,45.711,-99.13,596.0,,4.7,24.0,,,,,1.0,0.0,,ABERDEEN 35 WNW,US,999999-54933,2019,11,1.0
711750,99999,2019-10-03,50.13,-122.95,658.0,180.0,2.6,16.0,1016.5,,61.0,,,,,WHISTLER,CA,711750-99999,2019,11,1.0
804720,99999,2019-10-03,10.15,-67.928,430.0,,,24.0,,,,,,,,ARTURO MICHELENA INTL,VE,804720-99999,2019,11,1.0
570710,99999,2019-10-03,34.817,112.433,333.0,40.0,4.0,21.8,1009.0,,10.0,,24.0,31.0,,MENGJIN,CH,570710-99999,2019,11,1.0
