usaf,wban,datetime,latitude,longitude,elevation,windAngle,windSpeed,temperature,seaLvlPressure,cloudCoverage,presentWeatherIndicator,pastWeatherIndicator,precipTime,precipDepth,snowDepth,stationName,countryOrRegion,p_k,year,day,version
842030,99999,2019-10-05,-2.15,-79.883,5.0,200.0,4.1,26.6,1008.4,BKN,5.0,4.0,,,,SIMON BOLIVAR INTL,EC,842030-99999,2019,13,1.0
712730,99999,2019-10-05,54.017,-109.133,546.0,260.0,4.1,24.3,1009.4,,,,,,,LOON LAKE,CA,712730-99999,2019,13,1.0
716700,99999,2019-10-05,46.77,-65.0,34.0,150.0,3.1,15.7,1008.8,,,,24.0,9999.0,,KOUCHIBOUGUAC CS,CA,716700-99999,2019,13,1.0
934360,00488,2019-10-05,-41.327,174.805,12.0,340.0,8.2,15.0,,CLR,,,,,,WELLINGTON INTL,NZ,934360-00488,2019,13,1.0
713780,99999,2019-10-05,47.42,-72.78,169.0,310.0,1.5,20.8,1007.2,,,,,,,LA TUQUE  QUE,CA,713780-99999,2019,13,1.0
237410,99999,2019-10-05,62.167,71.1,86.0,350.0,2.0,17.7,1016.9,OVC,,,,,,NIZHNESORTYMSK,RS,237410-99999,2019,13,1.0
653765,99999,2019-10-05,10.867,0.25,330.0,320.0,1.0,24.5,,BKN,,,,,,DAPANGO,TO,653765-99999,2019,13,1.0
998252,99999,2019-10-05,44.4,-68.2,3.0,0.0,0.0,14.5,1006.6,,,,,,,BAR HARBOR,US,998252-99999,2019,13,1.0
916830,99999,2019-10-05,-18.043,178.559,5.0,130.0,5.7,27.0,,,,,,,,NAUSORI INTL,FJ,916830-99999,2019,13,1.0
916830,99999,2019-10-05,-18.05,178.567,7.0,130.0,5.7,26.5,1016.0,BKN,2.0,2.0,24.0,25.0,,NAUSORI INTL,FJ,916830-99999,2019,13,1.0
036580,99999,2019-10-05,51.62,-1.097,57.0,350.0,1.5,14.0,1020.7,,,,6.0,9999.0,,BENSON,UK,036580-99999,2019,13,1.0
713780,99999,2019-10-05,47.4,-72.783,169.0,310.0,1.5,20.8,1007.2,,,,24.0,60.0,,LA TUQUE  QUE,CA,713780-99999,2019,13,1.0
716700,99999,2019-10-05,46.77,-65.0,34.0,150.0,3.1,15.7,1008.8,,,,,,,KOUCHIBOUGUAC CS,CA,716700-99999,2019,13,1.0
063150,99999,2019-10-05,51.446,3.998,0.0,313.0,5.0,,,,,,,,,HANSWEERT,NL,063150-99999,2019,13,1.0
367770,99999,2019-10-05,45.333,78.017,443.0,40.0,2.0,18.8,1002.4,FEW,,,,,,KARATAL E,KZ,367770-99999,2019,13,1.0
421030,99999,2019-10-05,30.383,76.767,272.0,0.0,0.0,24.2,998.6,OVC,29.0,9.0,21.0,110.0,,AMBALA,IN,421030-99999,2019,13,1.0
627210,99999,2019-10-05,15.589,32.553,386.0,200.0,5.1,28.0,,,,,,,,KHARTOUM,SU,627210-99999,2019,13,1.0
718690,99999,2019-10-05,53.217,-105.667,428.0,230.0,5.7,24.9,1011.1,BKN,,,24.0,0.0,,PRINCE ALBERT GLASS FIELD,CA,718690-99999,2019,13,1.0
119780,99999,2019-10-05,48.667,21.733,106.0,,1.0,12.5,1011.5,,,,6.0,0.0,,MILHOSTOV,LO,119780-99999,2019,13,1.0
411760,99999,2019-10-05,24.95,51.567,5.0,300.0,2.1,28.2,996.2,,,,,,,UMM SAID,QA,411760-99999,2019,13,1.0
336580,99999,2019-10-05,48.367,25.9,246.0,,,13.2,1011.4,FEW,,,,,,CHERNIVTSI,UP,336580-99999,2019,13,1.0
723710,03162,2019-10-05,36.933,-111.45,1304.0,,2.1,37.8,1006.6,,,,,,,PAGE MUNICIPAL AIRPORT,US,723710-03162,2019,13,1.0
082270,99999,2019-10-05,40.497,-3.446,618.0,20.0,2.1,26.0,,,,,,,,TORREJON,SP,082270-99999,2019,13,1.0
543460,99999,2019-10-05,41.317,123.783,185.0,70.0,1.0,21.9,1002.7,BKN,,,24.0,0.0,,BENXI,CH,543460-99999,2019,13,1.0
479810,99999,2019-10-05,24.784,141.323,115.0,100.0,3.1,29.0,,,,,,,,IWOTO,JA,479810-99999,2019,13,1.0
027890,99999,2019-10-05,63.383,28.667,166.0,30.0,2.0,7.4,1008.0,BKN,,,,,,RAUTAVAARA YLA-LUOSTA,FI,027890-99999,2019,13,1.0
036040,99999,2019-10-05,51.708,-5.052,44.0,330.0,2.6,15.5,1023.4,,,,6.0,9999.0,,MILFORD HAVEN CONSERVANCY BOARD,UK,036040-99999,2019,13,1.0
966070,99999,2019-10-05,-0.617,117.15,230.0,220.0,3.1,25.6,1014.0,BKN,,,24.0,10.0,,TEMINDUNG,ID,966070-99999,2019,13,1.0
685770,99999,2019-10-05,-30.5,29.4,1443.0,340.0,2.1,4.4,,,,,,,,KOKSTAD,SF,685770-99999,2019,13,1.0
994680,99999,2019-10-05,60.84,-146.88,0.0,300.0,1.5,13.8,1015.4,,,,,,,BLIGH REEF LIGHT,US,994680-99999,2019,13,1.0
024930,99999,2019-10-05,59.75,19.417,15.0,320.0,2.0,11.4,,OVC,,,,,,SODERARM,SW,024930-99999,2019,13,1.0
999999,53974,2019-10-05,39.103,-96.61,347.0,,2.3,29.3,,,,,1.0,0.0,,MANHATTAN 6 SSW,US,999999-53974,2019,13,1.0
714190,99999,2019-10-05,45.35,-60.98,8.0,140.0,6.7,14.3,1014.4,,,,,,,HART ISLAND (AUT)  NS,CA,714190-99999,2019,13,1.0
037700,99999,2019-10-05,51.504,-0.129,5.0,,,18.5,,,,,6.0,9999.0,,ST JAMES PARK,UK,037700-99999,2019,13,1.0
353570,99999,2019-10-05,49.683,69.517,349.0,50.0,1.0,16.0,1010.3,,,,,,,BARSHINO,KZ,353570-99999,2019,13,1.0
424830,99999,2019-10-05,25.3,83.017,90.0,50.0,1.0,28.0,1001.4,OVC,5.0,2.0,,,,VARANASI,IN,424830-99999,2019,13,1.0
118580,99999,2019-10-05,47.873,18.194,115.0,0.0,0.0,14.5,1011.7,,,,6.0,50.0,,HURBANOVO,LO,118580-99999,2019,13,1.0
712400,99999,2019-10-05,51.667,-110.2,707.0,0.0,0.0,25.5,1012.5,,,,24.0,13.0,,ESTHER 1  ALTA,CA,712400-99999,2019,13,1.0
895920,99999,2019-10-05,-66.55,93.017,35.0,170.0,5.1,-17.8,992.0,OVC,36.0,3.0,,,24.0,MIRNYJ,AY,895920-99999,2019,13,1.0
431210,99999,2019-10-05,17.35,76.85,458.0,250.0,1.5,24.0,1007.6,SCT,5.0,2.0,21.0,60.0,,GULBARGA,IN,431210-99999,2019,13,1.0
418590,99999,2019-10-05,25.733,89.233,34.0,0.0,0.0,26.8,1001.5,OVC,,,24.0,90.0,,RANGPUR,BG,418590-99999,2019,13,1.0
715860,99999,2019-10-05,55.15,-105.27,379.0,180.0,3.1,17.0,1008.4,,,,,,,LA RONGE RCS  SASK,CA,715860-99999,2019,13,1.0
875340,99999,2019-10-05,-34.133,-63.367,136.0,0.0,0.0,9.7,1018.6,FEW,,,,,,LABOULAYE,AR,875340-99999,2019,13,1.0
712400,99999,2019-10-05,51.67,-110.2,707.0,,,25.5,1012.5,,,,,,,ESTHER 1  ALTA,CA,712400-99999,2019,13,1.0
765770,99999,2019-10-05,21.0,-101.283,1999.0,,,27.0,1001.9,SCT,,,24.0,0.0,,GUANAJUATO  GTO.,MX,765770-99999,2019,13,1.0
014080,99999,2019-10-05,59.333,5.183,24.0,350.0,4.0,12.7,1013.7,,,,,,,KARMOY,NO,014080-99999,2019,13,1.0
344380,99999,2019-10-05,48.0,40.1,154.0,0.0,0.0,12.2,1007.2,CLR,,,,,,MILLEROVO,RS,344380-99999,2019,13,1.0
786700,99999,2019-10-05,13.433,-88.15,117.0,190.0,1.0,31.4,,,,,24.0,87.0,,SAN MIGUEL/PAPALON,ES,786700-99999,2019,13,1.0
623930,99999,2019-10-05,27.047,31.012,235.0,330.0,3.1,29.0,,,,,,,,ASYUT INTL,EG,623930-99999,2019,13,1.0
719800,99999,2019-10-05,61.95,-127.2,618.0,30.0,4.6,,,,,,24.0,9999.0,,RABBIT KETTLE  NWT,CA,719800-99999,2019,13,1.0
481080,99999,2019-10-05,14.1,98.22,16.0,130.0,0.5,25.0,1012.5,OVC,50.0,5.0,,,,DAWEI,BM,481080-99999,2019,13,1.0
623930,99999,2019-10-05,27.033,31.017,235.0,330.0,3.1,29.4,1011.0,,,,,,,ASYUT INTL,EG,623930-99999,2019,13,1.0
934390,99999,2019-10-05,-41.333,174.8,12.0,340.0,8.2,14.9,1010.9,,,,24.0,14.0,,WELLINGTON AERO AWS,NZ,934390-99999,2019,13,1.0
225500,99999,2019-10-05,64.6,40.717,19.0,90.0,3.0,6.0,,,,,,,,TALAGI,RS,225500-99999,2019,13,1.0
480250,99999,2019-10-05,23.2,94.3,109.0,0.0,0.0,26.8,1003.9,BKN,,,12.0,0.0,,KALEWA,BM,480250-99999,2019,13,1.0
489350,99999,2019-10-05,19.467,103.133,1050.0,0.0,0.0,21.0,,BKN,10.0,2.0,24.0,8.0,,PLAINE DES JARRES (XIENGKHOUANG),LA,489350-99999,2019,13,1.0
415350,99999,2019-10-05,34.183,73.25,1309.0,0.0,0.0,19.0,,OVC,21.0,6.0,12.0,50.0,,KAKUL,PK,415350-99999,2019,13,1.0
063080,99999,2019-10-05,51.383,3.383,7.0,320.0,7.0,,,,,,,,,CADZAND WP,NL,063080-99999,2019,13,1.0
406760,99999,2019-10-05,31.017,46.233,3.0,330.0,3.0,33.2,999.5,,,,,,,NASIRIYA,IZ,406760-99999,2019,13,1.0
024880,99999,2019-10-05,60.533,18.383,9.0,230.0,2.0,10.7,1011.5,,,,1.0,0.0,,ORSKAR,SW,024880-99999,2019,13,1.0
819050,99999,2019-10-05,-7.441,-44.345,399.0,121.0,0.8,24.0,1014.7,,,,99.0,9999.0,,URUCUI,BR,819050-99999,2019,13,1.0
066710,99999,2019-10-05,47.669,8.981,397.0,245.0,3.3,,,,,,,,,STECKBORN,SZ,066710-99999,2019,13,1.0
933730,99999,2019-10-05,-39.467,176.867,3.0,260.0,7.2,18.1,1012.2,,,,24.0,2.0,,NAPIER AERODROME AWS,NZ,933730-99999,2019,13,1.0
841600,99999,2019-10-05,-1.35,-78.6,2940.0,180.0,2.1,12.0,,SCT,41.0,4.0,6.0,4.0,,QUEROCHACA,EC,841600-99999,2019,13,1.0
379590,99999,2019-10-05,39.2,46.433,706.0,350.0,1.0,22.6,1006.3,OVC,,,,,,KAPAN,AM,379590-99999,2019,13,1.0
768330,99999,2019-10-05,16.167,-95.183,11.0,180.0,5.0,31.0,,BKN,2.0,2.0,,,,SALINA CRUZ  OAX.,MX,768330-99999,2019,13,1.0
931860,99999,2019-10-05,-37.667,176.2,5.0,280.0,3.1,16.1,1016.9,,,,24.0,78.0,,TAURANGA,NZ,931860-99999,2019,13,1.0
042080,99999,2019-10-05,74.033,-57.817,40.0,90.0,6.7,8.0,1013.0,,,,,,,KITSISSORSUIT (EDDERFUGLE OEER),GL,042080-99999,2019,13,1.0
161100,99999,2019-10-05,45.65,13.75,4.0,40.0,2.6,21.4,1010.4,SCT,,,6.0,0.0,,TRIESTE,IT,161100-99999,2019,13,1.0
998216,99999,2019-10-05,45.2,-87.35,181.0,160.0,3.1,24.9,1010.8,,,,,,,CHAMBERS ISLAND,US,998216-99999,2019,13,1.0
915900,99999,2019-10-05,-22.015,166.213,16.0,30.0,3.1,25.0,,,,,,,,LA TONTOUTA,NC,915900-99999,2019,13,1.0
817430,99999,2019-10-05,-3.823,-49.675,138.0,0.0,0.0,28.1,1011.6,,,,99.0,9999.0,,TUCURUI,BR,817430-99999,2019,13,1.0
518180,99999,2019-10-05,37.617,78.283,1376.0,200.0,1.0,19.7,997.4,OBS,,,,,,PISHAN,CH,518180-99999,2019,13,1.0
150560,99999,2019-10-05,47.367,26.933,289.0,270.0,6.0,17.1,1011.2,OVC,,,6.0,0.0,,COTNARI,RO,150560-99999,2019,13,1.0
982330,99999,2019-10-05,17.633,121.75,62.0,180.0,1.0,28.8,1010.4,FEW,5.0,4.0,,,,TUGUEGARAO,RP,982330-99999,2019,13,1.0
237740,99999,2019-10-05,62.483,86.283,60.0,,,,,,,,12.0,0.0,,KELLOG,RS,237740-99999,2019,13,1.0
592650,99999,2019-10-05,23.483,111.3,120.0,20.0,1.0,27.4,1004.1,OVC,,,24.0,31.0,,WUZHOU,CH,592650-99999,2019,13,1.0
818750,99999,2019-10-05,-6.467,-37.085,171.0,103.0,4.5,27.6,1014.7,,,,99.0,9999.0,,CAICO,BR,818750-99999,2019,13,1.0
110340,99999,2019-10-05,48.2,16.367,171.0,180.0,2.0,19.0,1010.7,,,,6.0,0.0,,WIEN/INNERE STADT,AU,110340-99999,2019,13,1.0
433250,99999,2019-10-05,11.65,78.167,278.0,0.0,0.0,27.4,1008.7,OVC,,,,,,SALEM,IN,433250-99999,2019,13,1.0
489300,99999,2019-10-05,19.883,102.133,305.0,,,26.0,1006.6,OVC,,,,,,LUANG PHABANG INTL,LA,489300-99999,2019,13,1.0
878960,99999,2019-10-05,-47.733,-65.917,81.0,340.0,4.1,3.7,1012.8,SCT,,,,,,PUERTO DESEADO,AR,878960-99999,2019,13,1.0
301270,99999,2019-10-05,58.233,105.733,439.0,320.0,1.0,17.3,1016.0,,,,12.0,0.0,,TOKMA,RS,301270-99999,2019,13,1.0
035290,99999,2019-10-05,52.15,-2.033,31.0,320.0,1.5,16.0,1021.7,,,,6.0,0.0,,PERSHORE,UK,035290-99999,2019,13,1.0
113310,99999,2019-10-05,46.633,14.317,450.0,300.0,2.0,14.3,1013.9,,,,6.0,6.0,,KLAGENFURT-FLUGHAFEFN,AU,113310-99999,2019,13,1.0
072880,99999,2019-10-05,47.25,5.983,310.0,0.0,0.0,17.8,1016.8,,,,6.0,0.0,,BESANCON/THISE(AUT),FR,072880-99999,2019,13,1.0
780620,99999,2019-10-05,26.55,-78.7,11.0,140.0,3.6,28.6,1017.0,BKN,,,6.0,0.0,,GRAND BAHAMA INTL,BF,780620-99999,2019,13,1.0
011240,99999,2019-10-05,64.167,12.467,195.0,,,10.6,,,,,6.0,0.0,,SNASA,NO,011240-99999,2019,13,1.0
071300,99999,2019-10-05,48.07,-1.735,38.0,230.0,1.5,14.0,,,,,,,,ST JACQUES,FR,071300-99999,2019,13,1.0
780620,99999,2019-10-05,26.559,-78.696,2.0,140.0,3.6,29.0,,,,,,,,GRAND BAHAMA INTL,BF,780620-99999,2019,13,1.0
111760,99999,2019-10-05,47.467,15.333,527.0,310.0,1.0,13.0,1012.6,,,,6.0,0.0,,KAPFENBERG-FLUGFELD,AU,111760-99999,2019,13,1.0
653520,99999,2019-10-05,10.367,0.467,146.0,0.0,0.0,27.0,,BKN,,,,,,MANGO/SANSANNE,TO,653520-99999,2019,13,1.0
167340,99999,2019-10-05,36.833,21.7,53.0,310.0,3.1,22.4,1011.8,,,,,,,METHONI,GR,167340-99999,2019,13,1.0
702510,26528,2019-10-05,62.317,-150.1,109.0,260.0,1.5,16.7,1013.8,OVC,,,,,,TALKEETNA AIRPORT,US,702510-26528,2019,13,1.0
377880,99999,2019-10-05,40.15,44.383,854.0,280.0,1.0,18.1,1002.9,FEW,,,,,,YEREVAN ZVARTNOTS,AM,377880-99999,2019,13,1.0
286660,99999,2019-10-05,55.25,67.3,140.0,110.0,2.0,18.6,1014.5,FEW,,,,,,MAKUSINO,RS,286660-99999,2019,13,1.0
071300,99999,2019-10-05,48.067,-1.733,43.0,230.0,1.5,14.4,1020.8,,0.0,,6.0,0.0,,ST JACQUES,FR,071300-99999,2019,13,1.0
150940,99999,2019-10-05,47.017,27.583,400.0,230.0,1.0,13.5,1013.2,,,,6.0,0.0,,BARNOVA,RO,150940-99999,2019,13,1.0
934200,99999,2019-10-05,-40.9,174.983,7.0,310.0,6.2,15.1,1012.8,,,,24.0,24.0,,PARAPARAUMU AWS,NZ,934200-99999,2019,13,1.0
915900,99999,2019-10-05,-22.017,166.217,14.0,30.0,3.1,24.6,1017.8,,0.0,,6.0,0.0,,LA TONTOUTA,NC,915900-99999,2019,13,1.0
287660,99999,2019-10-05,54.367,66.967,151.0,100.0,1.0,17.6,1015.1,,,,,,,BLAGOVESHCHENKA,KZ,287660-99999,2019,13,1.0
703810,25309,2019-10-05,58.35,-134.583,7.0,90.0,3.6,16.1,1016.4,OVC,,,,,,JUNEAU INTERNATIONAL,US,703810-25309,2019,13,1.0
263240,99999,2019-10-05,57.35,23.117,6.0,,,6.7,1010.8,,,,,,,MERSRAGS,LG,263240-99999,2019,13,1.0
538630,99999,2019-10-05,37.033,111.917,745.0,290.0,1.0,23.1,1002.8,,,,,,,JIEXIU,CH,538630-99999,2019,13,1.0
978760,99999,2019-10-05,-6.1,140.3,16.0,130.0,4.1,25.2,1016.2,BKN,,,,,,TANAH MERAH,ID,978760-99999,2019,13,1.0
070720,99999,2019-10-05,49.217,4.15,96.0,320.0,1.0,13.4,1017.3,,0.0,,6.0,0.0,,REIMS-PRUNAY,FR,070720-99999,2019,13,1.0
376750,99999,2019-10-05,41.367,48.517,552.0,,,17.1,1008.3,OVC,2.0,9.0,,,,GUBA,AJ,376750-99999,2019,13,1.0
714190,99999,2019-10-05,45.35,-60.983,8.0,140.0,6.7,14.3,1014.4,,,,24.0,9999.0,,HART ISLAND (AUT)  NS,CA,714190-99999,2019,13,1.0
024560,99999,2019-10-05,60.236,17.904,33.0,0.0,0.0,6.0,1011.7,CLR,,,1.0,9999.0,,FILM,SW,024560-99999,2019,13,1.0
985380,99999,2019-10-05,11.6,122.75,4.0,,,25.8,1010.8,OVC,61.0,9.0,24.0,145.0,,ROXAS,RP,985380-99999,2019,13,1.0
357000,99999,2019-10-05,47.117,51.917,-22.0,290.0,5.0,22.2,1002.4,BKN,,,,,,ATYRAU,KZ,357000-99999,2019,13,1.0
948040,99999,2019-10-05,-35.333,136.117,32.0,220.0,14.4,11.6,1026.6,,,,,,,NEPTUNE ISLAND,AS,948040-99999,2019,13,1.0
262380,99999,2019-10-05,57.9,25.383,12.0,,,7.0,1010.7,,,,,,,RUJIENA,LG,262380-99999,2019,13,1.0
444290,99999,2019-10-05,28.05,82.5,634.0,0.0,0.0,23.4,998.5,OVC,91.0,9.0,,,,DANG,NP,444290-99999,2019,13,1.0
715860,99999,2019-10-05,55.146,-105.27,379.0,181.0,3.2,17.1,1008.4,,,,24.0,7.0,,LA RONGE RCS  SASK,CA,715860-99999,2019,13,1.0
480570,99999,2019-10-05,20.783,97.05,1436.0,140.0,0.5,19.0,,BKN,,,12.0,60.0,,TAUNGGYI,BM,480570-99999,2019,13,1.0
070720,99999,2019-10-05,49.209,4.157,95.0,,1.0,13.0,,,,,,,,REIMS-PRUNAY,FR,070720-99999,2019,13,1.0
154790,99999,2019-10-05,44.088,27.966,158.0,130.0,1.0,14.2,1012.5,,,,6.0,9999.0,,ADAMCLISI,RO,154790-99999,2019,13,1.0
685750,99999,2019-10-05,-30.15,30.067,937.0,310.0,1.0,10.4,,,,,,,,IXOPO,SF,685750-99999,2019,13,1.0
710130,99999,2019-10-05,51.783,-112.25,845.0,240.0,1.5,25.7,,,,,,,,CRAIGMYLE AGCM,CA,710130-99999,2019,13,1.0
576330,99999,2019-10-05,28.833,108.767,665.0,140.0,1.0,19.5,1004.7,OVC,60.0,,24.0,154.0,,YOUYANG,CH,576330-99999,2019,13,1.0
998219,99999,2019-10-05,30.317,-89.317,5.0,130.0,8.8,27.1,1007.9,,,,,,,BAY WAVELAND YACHT CLUB,US,998219-99999,2019,13,1.0
913560,00493,2019-10-05,5.333,163.033,4.0,320.0,2.1,30.0,1010.8,OVC,2.0,8.0,24.0,328.0,,KOSRAE,FM,913560-00493,2019,13,1.0
082610,99999,2019-10-05,39.471,-6.339,394.0,220.0,8.2,25.2,1012.7,,,,6.0,9999.0,,CACERES,SP,082610-99999,2019,13,1.0
484090,99999,2019-10-05,15.085,104.331,129.0,220.0,1.5,27.3,1010.2,BKN,10.0,2.0,,,,SI SAKET AGROMET,TH,484090-99999,2019,13,1.0
942680,99999,2019-10-05,-15.483,141.75,11.0,90.0,4.1,25.8,1018.7,,,,,,,KOWANYAMA AIRPORT,AS,942680-99999,2019,13,1.0
766950,99999,2019-10-05,19.85,-90.55,5.0,350.0,1.0,30.4,1009.2,BKN,1.0,1.0,24.0,70.0,,INGENIERO ALBERTO ACUNA ONGAY INTL,MX,766950-99999,2019,13,1.0
517470,99999,2019-10-05,39.0,83.67,1099.0,160.0,3.0,20.7,999.2,CLR,,,24.0,9999.0,,TAZHONG,CH,517470-99999,2019,13,1.0
517160,99999,2019-10-05,39.8,78.57,1117.0,0.0,0.0,19.1,998.0,,,,24.0,9999.0,,BACHU,CH,517160-99999,2019,13,1.0
113750,99999,2019-10-05,47.546,15.241,783.0,10.0,1.0,12.0,1012.9,,,,6.0,9999.0,,AFLENZ,AU,113750-99999,2019,13,1.0
671970,99999,2019-10-05,-25.033,46.95,8.0,0.0,0.0,15.1,1021.5,,,,,,,TOLAGNARO,MA,671970-99999,2019,13,1.0
478540,99999,2019-10-05,32.084,131.451,79.0,340.0,1.5,21.0,,,80.0,,,,,NYUTABARU,JA,478540-99999,2019,13,1.0
039690,99999,2019-10-05,53.433,-6.25,85.0,290.0,4.0,13.9,1024.2,BKN,,,6.0,0.0,,DUBLIN,EI,039690-99999,2019,13,1.0
010650,99999,2019-10-05,69.467,25.517,133.0,210.0,1.0,3.4,1016.0,,,,6.0,0.0,,KARASJOK,NO,010650-99999,2019,13,1.0
875480,99999,2019-10-05,-34.433,-60.9,82.0,200.0,2.1,11.0,1016.7,CLR,,,1.0,9999.0,,JUNIN,AR,875480-99999,2019,13,1.0
032570,99999,2019-10-05,54.3,-1.533,32.0,10.0,2.1,14.7,1019.9,,,,6.0,6.0,,LEEMING,UK,032570-99999,2019,13,1.0
163120,99999,2019-10-05,40.767,16.933,352.0,170.0,1.5,17.0,1011.7,,,,6.0,9999.0,,GIOIA DEL COLLE,IT,163120-99999,2019,13,1.0
012910,99999,2019-10-05,64.533,12.383,95.0,280.0,1.0,10.8,,,,,6.0,0.0,,GARTLAND,NO,012910-99999,2019,13,1.0
170960,99999,2019-10-05,39.953,41.19,1758.0,330.0,1.0,12.0,,BKN,2.0,8.0,6.0,9999.0,,ERZURUM,TU,170960-99999,2019,13,1.0
071470,99999,2019-10-05,48.774,2.202,178.0,330.0,3.1,17.0,,,,,,,,VELIZY,FR,071470-99999,2019,13,1.0
765560,99999,2019-10-05,21.517,-104.883,915.0,300.0,4.0,27.9,1006.5,BKN,15.0,2.0,,,,TEPIC,MX,765560-99999,2019,13,1.0
343000,99999,2019-10-05,49.925,36.29,155.0,330.0,2.0,14.0,,,,,,,,OSNOVA INTL,UP,343000-99999,2019,13,1.0
866700,99999,2019-10-05,-13.254,-46.89,551.0,27.0,1.9,22.5,1016.0,,,,99.0,9999.0,,MONTE ALEGRE DE GOIAS,BR,866700-99999,2019,13,1.0
110360,99999,2019-10-05,48.117,16.567,183.0,360.0,2.0,15.3,1010.9,BKN,,,6.0,30.0,,SCHWECHAT,AU,110360-99999,2019,13,1.0
062290,99999,2019-10-05,53.0,4.717,0.0,360.0,3.0,,,,,,,,,TEXELHORS WP,NL,062290-99999,2019,13,1.0
343000,99999,2019-10-05,49.967,36.133,155.0,300.0,1.0,13.9,1007.2,,,,,,,OSNOVA INTL,UP,343000-99999,2019,13,1.0
824450,99999,2019-10-05,-4.267,-55.983,45.0,50.0,0.5,28.4,1013.5,BKN,,,,,,ITAITUBA,BR,824450-99999,2019,13,1.0
367960,99999,2019-10-05,45.883,80.917,1189.0,,,6.4,,,,,,,,LEPSINSK,KZ,367960-99999,2019,13,1.0
027590,99999,2019-10-05,60.4,25.6,24.0,,,12.3,1008.1,OVC,,,,,,PORVOO HARABACKA,FI,027590-99999,2019,13,1.0
124880,99999,2019-10-05,51.567,21.55,126.0,,,11.3,1009.2,BKN,,,6.0,0.0,,KOZIENICE,PL,124880-99999,2019,13,1.0
129500,99999,2019-10-05,46.583,18.85,98.0,,,13.8,1011.8,,,,,,,PAKS,HU,129500-99999,2019,13,1.0
010350,99999,2019-10-05,69.567,20.1,710.0,,,6.7,,,,,,,,LYNGEN GJERDVASSBU,NO,010350-99999,2019,13,1.0
937810,99999,2019-10-05,-43.483,172.517,37.0,60.0,2.1,13.9,1005.8,,,,24.0,2.0,,CHRISTCHURCH AERO AWS,NZ,937810-99999,2019,13,1.0
974600,99999,2019-10-05,-0.633,127.5,3.0,60.0,1.0,26.2,1013.5,BKN,2.0,6.0,24.0,0.0,,LABUHA/TALIABU,ID,974600-99999,2019,13,1.0
071470,99999,2019-10-05,48.767,2.2,176.0,330.0,3.1,17.0,1018.5,,0.0,,6.0,0.0,,VELIZY,FR,071470-99999,2019,13,1.0
163340,99999,2019-10-05,40.1,18.483,80.0,310.0,2.1,20.2,1011.7,,,,24.0,4.0,,OTRANTO,IT,163340-99999,2019,13,1.0
150730,99999,2019-10-05,47.217,26.383,388.0,,,13.6,1012.7,,,,6.0,0.0,,TARGU NEAMT,RO,150730-99999,2019,13,1.0
985460,99999,2019-10-05,12.5,124.633,7.0,180.0,1.0,27.2,1009.9,OVC,15.0,2.0,,,,CATARMAN,RP,985460-99999,2019,13,1.0
039690,99999,2019-10-05,53.421,-6.27,74.0,290.0,3.6,14.0,,,,,,,,DUBLIN,EI,039690-99999,2019,13,1.0
999999,63831,2019-10-05,32.338,-89.07,114.0,,3.0,28.0,,,,,1.0,0.0,,NEWTON 5 ENE,US,999999-63831,2019,13,1.0
579931,99999,2019-10-05,36.857,117.216,23.0,230.0,2.0,27.0,,CLR,,,,,,YAOQIANG,CH,579931-99999,2019,13,1.0
703330,25508,2019-10-05,56.95,-158.617,29.0,120.0,5.1,14.4,1011.1,OVC,,,,,,PORT HEIDEN AIRPORT,US,703330-25508,2019,13,1.0
335060,99999,2019-10-05,49.6,34.55,160.0,,,13.3,1008.0,,,,,,,POLTAVA,UP,335060-99999,2019,13,1.0
226860,99999,2019-10-05,63.45,47.917,80.0,150.0,1.0,7.5,1010.2,OBS,45.0,4.0,,,,VENDINGA,RS,226860-99999,2019,13,1.0
025390,99999,2019-10-05,57.117,12.783,122.0,,,10.5,,,,,1.0,0.0,,ULLARED,SW,025390-99999,2019,13,1.0
344760,99999,2019-10-05,49.0,46.1,5.0,300.0,5.0,14.2,1006.8,BKN,,,,,,EL'TON,RS,344760-99999,2019,13,1.0
254280,99999,2019-10-05,65.233,160.533,264.0,300.0,3.0,28.3,1005.4,SCT,4.0,0.0,,,,OMOLON,RS,254280-99999,2019,13,1.0
110300,99999,2019-10-05,48.317,16.117,176.0,200.0,1.0,14.9,1010.9,BKN,2.0,9.0,1.0,0.0,,TULLN,AU,110300-99999,2019,13,1.0
083730,99999,2019-10-05,38.883,1.383,17.0,40.0,1.0,23.5,1013.7,FEW,,,6.0,0.0,,IBIZA,SP,083730-99999,2019,13,1.0
172180,99999,2019-10-05,38.517,27.017,5.0,320.0,2.6,18.9,1010.7,,,,6.0,0.0,,CIGLI,TU,172180-99999,2019,13,1.0
998296,99999,2019-10-05,25.417,-80.967,3.0,0.0,0.0,,,,,,,,,TARPON BAY EAST,US,998296-99999,2019,13,1.0
154250,99999,2019-10-05,44.553,27.383,51.0,210.0,2.0,15.5,1012.0,CLR,0.0,0.0,,,0.0,SLOBOZIA,RO,154250-99999,2019,13,1.0
789470,00405,2019-10-05,14.02,-60.993,7.0,110.0,4.1,26.0,,,80.0,,,,,GEORGE F L CHARLES AIRPORT,ST,789470-00405,2019,13,1.0
789470,00405,2019-10-05,14.02,-60.993,7.0,110.0,4.1,25.7,1014.8,BKN,80.0,8.0,24.0,19.0,,GEORGE F L CHARLES AIRPORT,ST,789470-00405,2019,13,1.0
020440,99999,2019-10-05,67.817,20.333,447.0,320.0,1.0,6.7,1014.6,,,,,,,KIRUNA,SW,020440-99999,2019,13,1.0
314180,99999,2019-10-05,52.283,135.8,201.0,10.0,1.0,15.7,1010.6,OVC,,,,,,VESELAJA GORKA,RS,314180-99999,2019,13,1.0
172020,99999,2019-10-05,38.606,39.297,881.0,250.0,2.1,15.1,1003.5,CLR,1.0,9.0,6.0,9999.0,,ELAZIG,TU,172020-99999,2019,13,1.0
911650,22536,2019-10-05,21.983,-159.333,32.0,40.0,5.7,28.9,1015.0,BKN,,,,,,LIHUE AIRPORT,US,911650-22536,2019,13,1.0
083730,99999,2019-10-05,38.873,1.373,6.0,20.0,1.5,24.0,,,,,,,,IBIZA,SP,083730-99999,2019,13,1.0
012570,99999,2019-10-05,63.417,10.45,132.0,190.0,2.0,9.5,1014.7,,,,6.0,0.0,,TRONDHEIM/VOLL,NO,012570-99999,2019,13,1.0
012820,99999,2019-10-05,64.833,11.133,4.0,340.0,3.0,9.9,1014.7,,,,,,,RORVIK/RYUM,NO,012820-99999,2019,13,1.0
029660,99999,2019-10-05,60.898,26.949,102.0,276.0,1.8,12.7,1007.8,OVC,,,,,,UTTI,FI,029660-99999,2019,13,1.0
840880,99999,2019-10-05,-0.35,-78.55,3058.0,0.0,0.0,11.2,,BKN,29.0,9.0,6.0,40.0,,IZOBAMBA,EC,840880-99999,2019,13,1.0
013000,99999,2019-10-05,61.2,2.3,10.0,10.0,6.2,11.5,1016.5,OVC,2.0,2.0,,,,GULLFAKS C,NO,013000-99999,2019,13,1.0
013000,99999,2019-10-05,61.2,2.267,78.0,10.0,6.0,11.4,1016.5,OVC,2.0,2.0,,,,GULLFAKS C,NO,013000-99999,2019,13,1.0
997301,99999,2019-10-05,32.03,-80.9,6.0,230.0,2.1,25.4,1015.8,,,,,,,FT PALASKI,US,997301-99999,2019,13,1.0
176090,99999,2019-10-05,34.875,33.625,2.0,130.0,2.1,25.0,,,,,,,,LARNACA,CY,176090-99999,2019,13,1.0
176090,99999,2019-10-05,34.883,33.633,2.0,130.0,2.1,24.5,1005.5,,,,6.0,0.0,,LARNACA,CY,176090-99999,2019,13,1.0
066330,99999,2019-10-05,47.384,8.08,387.0,350.0,2.2,18.6,1015.9,BKN,5.0,1.0,6.0,9999.0,,BUCHS-AARAU,SZ,066330-99999,2019,13,1.0
287990,99999,2019-10-05,54.167,74.1,115.0,60.0,2.0,15.7,1016.7,CLR,,,,,,CERLAK,RS,287990-99999,2019,13,1.0
010890,99999,2019-10-05,69.733,29.9,91.0,360.0,6.0,5.2,1016.0,,,,,,,HOYBUKTMOEN,NO,010890-99999,2019,13,1.0
342400,99999,2019-10-05,50.0,41.1,105.0,240.0,1.0,11.2,1006.4,BKN,,,,,,URJUPINSK,RS,342400-99999,2019,13,1.0
994420,99999,2019-10-05,30.25,-88.07,0.0,110.0,12.4,27.7,1009.6,,,,,,,DAUPHIN ISLAND  AL,US,994420-99999,2019,13,1.0
400300,99999,2019-10-05,35.117,36.75,303.0,230.0,1.0,23.6,1007.7,FEW,,,,,,HAMA,SY,400300-99999,2019,13,1.0
346440,99999,2019-10-05,47.0,41.1,61.0,0.0,0.0,12.2,1007.9,CLR,10.0,8.0,,,,KONSTANTINOVSK,RS,346440-99999,2019,13,1.0
432210,99999,2019-10-05,15.5,80.083,12.0,0.0,0.0,30.4,1006.3,BKN,,,,,,ONGOLE,IN,432210-99999,2019,13,1.0
012230,99999,2019-10-05,63.1,7.8,62.0,350.0,3.0,11.2,1015.2,,,,,,,KVERNBERGET,NO,012230-99999,2019,13,1.0
890620,99999,2019-10-05,-67.567,-68.117,33.0,10.0,1.0,-4.8,1017.1,BKN,,,,,,ROTHERA,AY,890620-99999,2019,13,1.0
716300,99999,2019-10-05,44.975,-79.303,282.0,290.0,3.6,20.0,1012.0,CLR,,,,,,MUSKOKA,CA,716300-99999,2019,13,1.0
477550,99999,2019-10-05,34.9,132.067,21.0,270.0,1.0,23.0,1004.5,,,,12.0,0.0,,HAMADA,JA,477550-99999,2019,13,1.0
998284,99999,2019-10-05,25.25,-80.45,3.0,0.0,0.0,,,,,,,,,HIGHWAY CREEK,US,998284-99999,2019,13,1.0
479170,99999,2019-10-05,24.433,123.767,11.0,210.0,6.2,30.0,1006.6,,,,12.0,0.0,,IRIOMOTEJIMA,JA,479170-99999,2019,13,1.0
430530,99999,2019-10-05,19.8,85.817,6.0,230.0,2.1,28.4,1004.5,BKN,,,,,,PURI,IN,430530-99999,2019,13,1.0
154980,99999,2019-10-05,43.667,25.35,34.0,360.0,1.0,13.6,1011.8,,,,6.0,0.0,,ZIMNICEA,RO,154980-99999,2019,13,1.0
671970,99999,2019-10-05,-25.038,46.956,9.0,0.0,0.0,15.0,,,,,,,,TOLAGNARO,MA,671970-99999,2019,13,1.0
343980,99999,2019-10-05,49.667,49.483,10.0,320.0,3.0,16.2,1002.4,SCT,,,,,,ZHALPAKTAL,KZ,343980-99999,2019,13,1.0
784820,99999,2019-10-05,18.251,-71.12,3.0,130.0,5.1,28.0,,,,,,,,MARIA MONTEZ INTL,DR,784820-99999,2019,13,1.0
225290,99999,2019-10-05,64.233,35.883,3.0,70.0,2.0,7.0,1005.4,OVC,80.0,8.0,,,,KOLEZMA,RS,225290-99999,2019,13,1.0
229120,99999,2019-10-05,60.983,32.983,12.0,300.0,2.0,9.1,1005.4,BKN,2.0,8.0,,,,OLONEC,RS,229120-99999,2019,13,1.0
943460,99999,2019-10-05,-23.433,144.283,192.0,190.0,7.7,18.8,1024.5,,,,,,,LONGREACH AERO,AS,943460-99999,2019,13,1.0
819100,99999,2019-10-05,-7.886,-40.103,458.0,85.0,1.5,22.0,1017.0,,,,99.0,9999.0,,OURICURI,BR,819100-99999,2019,13,1.0
999999,03072,2019-10-05,32.041,-100.25,609.0,,2.3,31.9,,,,,1.0,0.0,,BRONTE 11 NNE,US,999999-03072,2019,13,1.0
481090,99999,2019-10-05,14.12,93.37,2.0,230.0,1.5,27.7,1010.8,BKN,,,,,,COCO ISLAND,BM,481090-99999,2019,13,1.0
686190,99999,2019-10-05,-31.35,19.083,731.0,0.0,0.0,3.3,,,,,,,,NIEUWOUDTVILLE,SF,686190-99999,2019,13,1.0
837460,99999,2019-10-05,-22.809,-43.244,9.0,350.0,1.5,20.0,,,,,,,,GALEAO ANTONIO CARLOS JOBIM,BR,837460-99999,2019,13,1.0
869520,99999,2019-10-05,-27.854,-53.791,490.0,31.0,1.0,19.0,1014.7,,,,99.0,9999.0,,SANTO AUGUSTO,BR,869520-99999,2019,13,1.0
837460,99999,2019-10-05,-22.8,-43.25,9.0,350.0,1.5,20.0,1017.9,CLR,,,6.0,9999.0,,GALEAO ANTONIO CARLOS JOBIM,BR,837460-99999,2019,13,1.0
247710,99999,2019-10-05,62.783,136.85,289.0,200.0,2.0,26.9,1006.3,SCT,,,,,,TEPLY KLJUCH,RS,247710-99999,2019,13,1.0
767430,99999,2019-10-05,17.983,-92.933,16.0,90.0,2.0,34.2,1007.7,BKN,2.0,1.0,,,,VILLAHERMOSA  TAB.,MX,767430-99999,2019,13,1.0
022420,99999,2019-10-05,64.087,16.236,242.0,0.0,0.0,9.9,,,,,1.0,9999.0,,HOTING,SW,022420-99999,2019,13,1.0
999999,03759,2019-10-05,37.998,-78.466,359.0,,0.8,27.4,,,,,1.0,0.0,,CHARLOTTESVILLE 2 SSE,US,999999-03759,2019,13,1.0
483570,99999,2019-10-05,17.417,104.783,148.0,0.0,0.0,28.0,1008.6,OVC,10.0,2.0,,,,NAKHON PHANOM,TH,483570-99999,2019,13,1.0
128390,99999,2019-10-05,47.437,19.256,151.0,,1.0,15.0,,,80.0,,,,,FERIHEGY,HU,128390-99999,2019,13,1.0
653760,99999,2019-10-05,7.583,1.117,402.0,220.0,2.1,22.5,1014.2,BKN,,,,,,ATAKPAME/AKPAKA,TO,653760-99999,2019,13,1.0
387340,99999,2019-10-05,39.45,70.2,2561.0,,,11.0,,SCT,,,,,,DEHAVZ,TI,387340-99999,2019,13,1.0
954480,99999,2019-10-05,-27.85,120.7,498.0,90.0,3.6,7.7,1032.7,,,,,,,LEINSTER AERO,AS,954480-99999,2019,13,1.0
012200,99999,2019-10-05,62.45,7.767,1294.0,,,7.4,,,,,6.0,0.0,,MANNEN,NO,012200-99999,2019,13,1.0
346460,99999,2019-10-05,47.0,42.1,65.0,260.0,2.0,14.2,1007.9,CLR,,,,,,CIMLJANSK,RS,346460-99999,2019,13,1.0
299230,99999,2019-10-05,53.067,82.3,219.0,20.0,2.0,14.8,1012.5,,,,12.0,0.0,,REBRIHA,RS,299230-99999,2019,13,1.0
839360,99999,2019-10-05,-29.7,-53.7,95.0,270.0,0.5,17.6,1013.2,BKN,10.0,5.0,24.0,0.0,,SANTA MARIA,BR,839360-99999,2019,13,1.0
680320,99999,2019-10-05,-19.973,23.431,943.0,0.0,0.0,7.0,,,,,,,,MAUN,BC,680320-99999,2019,13,1.0
385450,99999,2019-10-05,40.467,62.283,142.0,,,22.8,999.2,,,,,,,DARGANATA,TX,385450-99999,2019,13,1.0
937730,99999,2019-10-05,-44.3,171.233,27.0,360.0,1.5,10.9,1003.5,,,,24.0,2.0,,TIMARU AERODROME AWS,NZ,937730-99999,2019,13,1.0
683450,99999,2019-10-05,-28.0,26.667,1342.0,60.0,2.1,8.2,,,,,,,,WELKOM,SF,683450-99999,2019,13,1.0
545270,99999,2019-10-05,39.1,117.167,5.0,360.0,1.0,27.0,1001.7,FEW,10.0,,,,,TIANJIN,CH,545270-99999,2019,13,1.0
784820,99999,2019-10-05,18.2,-71.1,3.0,130.0,5.0,28.4,1014.0,SCT,,,,,,MARIA MONTEZ INTL,DR,784820-99999,2019,13,1.0
111820,99999,2019-10-05,47.833,16.217,285.0,230.0,2.0,15.7,1010.6,,,,6.0,0.0,,WIENER NEUSTADT,AU,111820-99999,2019,13,1.0
718350,99999,2019-10-05,51.45,-90.217,391.0,300.0,4.6,17.2,1009.2,,,,24.0,0.0,,PICKLE LAKE (AUT),CA,718350-99999,2019,13,1.0
718350,99999,2019-10-05,51.45,-90.22,391.0,300.0,4.6,17.2,1009.2,,,,,,,PICKLE LAKE (AUT),CA,718350-99999,2019,13,1.0
619980,99999,2019-10-05,-49.35,70.25,30.0,320.0,1.0,-1.9,989.7,,,,6.0,0.0,,PORT-AUX-FRANCAIS (ILES KERGUELEN),FS,619980-99999,2019,13,1.0
688400,99999,2019-10-05,-33.05,25.717,506.0,100.0,2.6,11.0,,,,,,,,SOMERSET,SF,688400-99999,2019,13,1.0
475840,99999,2019-10-05,39.7,141.167,155.0,330.0,1.5,22.4,1004.9,SCT,1.0,8.0,24.0,95.0,,MORIOKA,JA,475840-99999,2019,13,1.0
032200,99999,2019-10-05,54.934,-2.962,28.0,,,13.5,1020.2,,,,6.0,9999.0,,CARLISLE,UK,032200-99999,2019,13,1.0
711600,99999,2019-10-05,62.72,-109.17,168.0,290.0,4.6,11.9,1007.0,,,,,,,FORT RELIANCE (AUT)  NWT,CA,711600-99999,2019,13,1.0
489160,99999,2019-10-05,9.283,103.467,24.0,340.0,1.0,28.0,1011.1,BKN,,,,,,THO CHU,VM,489160-99999,2019,13,1.0
123260,99999,2019-10-05,52.333,16.967,92.0,120.0,2.0,14.9,1010.0,BKN,10.0,6.0,,,,KRZESINY,PL,123260-99999,2019,13,1.0
710450,99999,2019-10-05,60.17,-132.73,705.0,170.0,2.1,19.9,1011.9,,,,,,,TESLIN (AUT)  YT,CA,710450-99999,2019,13,1.0
711150,99999,2019-10-05,50.217,-119.183,482.0,340.0,0.5,26.5,1011.8,,,,24.0,0.0,,VERNON AUTO,CA,711150-99999,2019,13,1.0
819180,99999,2019-10-05,-7.165,-34.816,34.0,150.0,2.0,25.5,1016.0,,,,99.0,9999.0,,JOAO PESSOA,BR,819180-99999,2019,13,1.0
123260,99999,2019-10-05,52.332,16.966,81.0,120.0,2.1,15.0,,,10.0,,,,,KRZESINY,PL,123260-99999,2019,13,1.0
711150,99999,2019-10-05,50.22,-119.2,482.0,340.0,0.5,25.5,1011.8,,,,,,,VERNON AUTO,CA,711150-99999,2019,13,1.0
714210,99999,2019-10-05,51.87,-63.28,589.0,160.0,3.1,11.7,1014.9,,,,,,,LAC EON  QUE,CA,714210-99999,2019,13,1.0
013930,99999,2019-10-05,61.887,12.048,672.0,311.0,1.1,6.5,1013.3,,,,,,,DREVSJO,NO,013930-99999,2019,13,1.0
684490,99999,2019-10-05,-28.817,27.9,1614.0,0.0,0.0,1.1,,,,,,,,FICKSBURG,SF,684490-99999,2019,13,1.0
714210,99999,2019-10-05,51.867,-63.283,589.0,160.0,3.1,11.7,1014.9,,,,24.0,0.0,,LAC EON  QUE,CA,714210-99999,2019,13,1.0
111800,99999,2019-10-05,47.717,15.783,1554.0,310.0,7.0,9.6,,,,,6.0,0.0,,RAX/SEILBAHN-BERGSTATION,AU,111800-99999,2019,13,1.0
623060,99999,2019-10-05,31.325,27.222,29.0,270.0,2.1,25.0,,,,,,,,MERSA MATRUH,EG,623060-99999,2019,13,1.0
623060,99999,2019-10-05,31.333,27.217,29.0,270.0,2.1,24.6,1011.0,SCT,,,,,,MERSA MATRUH,EG,623060-99999,2019,13,1.0
999999,54854,2019-10-05,44.908,-84.72,445.0,,1.0,22.9,,,,,1.0,0.0,,GAYLORD 9 SSW,US,999999-54854,2019,13,1.0
344450,99999,2019-10-05,49.0,41.1,90.0,110.0,1.0,13.2,1006.9,BKN,,,,,,BOKOVSKAJA,RS,344450-99999,2019,13,1.0
030800,99999,2019-10-05,57.083,-2.833,140.0,230.0,0.5,13.7,1020.1,,,,6.0,0.0,,ABOYNE NO2,UK,030800-99999,2019,13,1.0
014780,99999,2019-10-05,58.967,10.15,15.0,210.0,4.0,17.4,,,,,,,,SVENNER LH,NO,014780-99999,2019,13,1.0
028170,99999,2019-10-05,68.434,27.444,437.0,25.0,5.7,3.0,1014.7,,,,,,,SAARISELKA KAUNISPAA,FI,028170-99999,2019,13,1.0
842030,99999,2019-10-05,-2.157,-79.884,6.0,200.0,4.1,27.0,,,,,,,,SIMON BOLIVAR INTL,EC,842030-99999,2019,13,1.0
067620,99999,2019-10-05,46.167,8.933,204.0,90.0,2.1,20.8,1010.2,,,,6.0,0.0,,LOCARNO - MAGADINO,SZ,067620-99999,2019,13,1.0
711600,99999,2019-10-05,62.7,-109.15,168.0,290.0,4.6,11.9,1007.0,,,,24.0,13.0,,FORT RELIANCE (AUT)  NWT,CA,711600-99999,2019,13,1.0
372790,99999,2019-10-05,42.517,41.883,118.0,40.0,2.0,19.2,1013.5,,,,6.0,0.0,,ZUGDIDI,GG,372790-99999,2019,13,1.0
483580,99999,2019-10-05,17.433,104.783,153.0,0.0,0.0,27.0,1008.8,OVC,17.0,1.0,,,,NAKHON PHANOM AGROMET,TH,483580-99999,2019,13,1.0
350670,99999,2019-10-05,51.883,66.333,221.0,50.0,3.0,16.6,1012.6,,,,,,,ESIL',KZ,350670-99999,2019,13,1.0
072800,99999,2019-10-05,47.269,5.09,221.0,360.0,3.6,19.0,,,,,,,,LONGVIC,FR,072800-99999,2019,13,1.0
072800,99999,2019-10-05,47.267,5.083,227.0,360.0,3.6,18.6,1016.8,,0.0,,6.0,0.0,,LONGVIC,FR,072800-99999,2019,13,1.0
167160,99999,2019-10-05,37.883,23.75,45.0,,0.5,23.0,1011.4,,,,,,,ATHINAI,GR,167160-99999,2019,13,1.0
987510,99999,2019-10-05,8.15,125.133,627.0,,,22.3,1011.7,OVC,40.0,8.0,24.0,61.0,,MALAYBALAY,RP,987510-99999,2019,13,1.0
021190,99999,2019-10-05,66.887,18.02,315.0,,,7.7,1013.3,,,,1.0,9999.0,,KVIKKJOKK ARRENJARKA,SW,021190-99999,2019,13,1.0
172375,99999,2019-10-05,37.785,29.701,848.0,260.0,1.0,16.6,1008.6,CLR,,,6.0,9999.0,,CARDAK,TU,172375-99999,2019,13,1.0
471010,99999,2019-10-05,37.903,127.736,76.0,352.0,0.5,23.0,1003.7,,,,,,,CHUNCHEON,KS,471010-99999,2019,13,1.0
867680,99999,2019-10-05,-18.989,-56.623,102.0,42.0,0.7,19.7,1013.8,,,,99.0,9999.0,,NHUMIRIM,BR,867680-99999,2019,13,1.0
354750,99999,2019-10-05,49.017,68.667,490.0,40.0,4.0,18.3,1009.9,,,,,,,SHUBARKUL,KZ,354750-99999,2019,13,1.0
150330,99999,2019-10-05,47.603,24.649,1785.0,230.0,2.0,4.0,,BKN,,,6.0,9999.0,,IEZER,RO,150330-99999,2019,13,1.0
135880,99999,2019-10-05,42.017,21.4,301.0,260.0,2.0,16.3,1012.8,BKN,,,6.0,20.0,,SKOPJE-ZAJCEV RID,MK,135880-99999,2019,13,1.0
343440,99999,2019-10-05,49.0,41.1,71.0,0.0,0.0,11.2,1006.6,CLR,,,,,,KAZANSKAJA,RS,343440-99999,2019,13,1.0
021730,99999,2019-10-05,65.669,21.062,43.0,0.0,0.0,2.2,,CLR,,,1.0,9999.0,,ALVSBYN,SW,021730-99999,2019,13,1.0
869460,99999,2019-10-05,-26.914,-49.268,72.0,251.0,0.4,15.0,1015.6,,,,99.0,9999.0,,INDAIAL,BR,869460-99999,2019,13,1.0
683007,99999,2019-10-05,-26.566,27.961,1477.0,240.0,0.5,4.0,,,,,,,,VEREENIGING,SF,683007-99999,2019,13,1.0
719240,99999,2019-10-05,74.7,-94.967,46.0,90.0,10.3,6.1,1001.2,OVC,,,24.0,0.0,,RESOLUTE BAY,CA,719240-99999,2019,13,1.0
719240,99999,2019-10-05,74.717,-94.969,66.0,90.0,10.8,6.0,1001.2,,,,,,,RESOLUTE BAY,CA,719240-99999,2019,13,1.0
985530,99999,2019-10-05,11.667,125.45,3.0,320.0,1.0,26.0,1009.1,BKN,15.0,4.0,24.0,56.0,,BORONGAN,RP,985530-99999,2019,13,1.0
232204,99999,2019-10-05,57.19,65.324,115.0,80.0,2.0,19.0,,,,,,,,ROSCHINO,RS,232204-99999,2019,13,1.0
489530,99999,2019-10-05,15.333,106.683,143.0,,,24.6,1006.4,BKN,10.0,4.0,,,,SEKONG,LA,489530-99999,2019,13,1.0
714750,99999,2019-10-05,49.317,-124.917,76.0,240.0,3.6,23.6,1016.0,,,,24.0,0.0,,PORT ALBERNI (AUT)  BC,CA,714750-99999,2019,13,1.0
230320,99999,2019-10-05,69.717,66.8,25.0,60.0,3.0,6.4,1015.6,BKN,10.0,2.0,,,,MARESALE,RS,230320-99999,2019,13,1.0
780730,99999,2019-10-05,25.039,-77.466,5.0,150.0,3.6,29.0,,,16.0,,,,,NASSAU INTL,BF,780730-99999,2019,13,1.0
780730,99999,2019-10-05,25.05,-77.467,7.0,150.0,3.6,30.1,1017.2,BKN,,,6.0,0.0,,NASSAU INTL,BF,780730-99999,2019,13,1.0
714750,99999,2019-10-05,49.32,-124.93,76.0,240.0,3.6,23.6,1016.0,,,,,,,PORT ALBERNI (AUT)  BC,CA,714750-99999,2019,13,1.0
262470,99999,2019-10-05,57.783,26.033,66.0,240.0,1.0,6.8,1010.4,,,,3.0,0.0,,VALGA,EN,262470-99999,2019,13,1.0
998224,99999,2019-10-05,52.233,-174.167,0.0,0.0,0.0,9.5,1009.0,,,,,,,ATKA,US,998224-99999,2019,13,1.0
800020,99999,2019-10-05,13.367,-81.35,6.0,90.0,4.0,28.2,1010.5,OVC,,,6.0,0.0,,EL EMBRUJO,CO,800020-99999,2019,13,1.0
800020,99999,2019-10-05,13.357,-81.358,3.0,,4.1,28.0,,,,,,,,EL EMBRUJO,CO,800020-99999,2019,13,1.0
308020,99999,2019-10-05,50.74,100.983,1304.0,80.0,3.0,13.2,,OVC,2.0,8.0,12.0,39.0,,MONDY,RS,308020-99999,2019,13,1.0
030650,99999,2019-10-05,57.117,-3.633,1245.0,300.0,11.8,8.5,,,,,,,,CAIRNGORM SUMMIT,UK,030650-99999,2019,13,1.0
134630,99999,2019-10-05,42.433,19.283,50.0,290.0,1.0,20.9,1013.1,FEW,2.0,1.0,6.0,0.0,,PODGORICA-GRAD,MJ,134630-99999,2019,13,1.0
027050,99999,2019-10-05,67.022,27.218,491.0,42.0,3.2,6.0,1012.1,,,,,,,PELKOSENNIEMI PYHATUNTURI,FI,027050-99999,2019,13,1.0
869270,99999,2019-10-05,-25.699,-53.095,546.0,0.0,0.0,20.7,1015.4,,,,99.0,9999.0,,DOIS VIZINHOS,BR,869270-99999,2019,13,1.0
275770,99999,2019-10-05,55.533,45.5,125.0,340.0,2.0,14.8,1005.1,BKN,2.0,8.0,,,,SERGAC,RS,275770-99999,2019,13,1.0
385830,99999,2019-10-05,40.817,68.683,264.0,110.0,1.0,22.9,997.7,,,,,,,SYR-DAR'JA,UZ,385830-99999,2019,13,1.0
684940,99999,2019-10-05,-29.15,31.4,112.0,250.0,1.0,15.0,1026.7,,,,,,,MANDINI,SF,684940-99999,2019,13,1.0
869720,99999,2019-10-05,-28.604,-48.813,34.0,360.0,2.2,18.0,1011.6,,,,99.0,9999.0,,SANTA MARTA,BR,869720-99999,2019,13,1.0
545340,99999,2019-10-05,39.65,118.1,29.0,90.0,2.0,26.5,1001.8,BKN,,,,,,TANGSHAN,CH,545340-99999,2019,13,1.0
653570,99999,2019-10-05,9.55,1.167,341.0,0.0,0.0,24.0,1011.6,BKN,,,,,,KARA,TO,653570-99999,2019,13,1.0
569770,99999,2019-10-05,22.617,101.817,1121.0,180.0,2.0,20.7,1006.5,OVC,,,24.0,5.0,,JIANGCHENG,CH,569770-99999,2019,13,1.0
682904,99999,2019-10-05,-25.383,31.106,862.0,170.0,1.0,14.0,,,,,,,,KRUGER MPUMALANGA INTL,SF,682904-99999,2019,13,1.0
140140,99999,2019-10-05,46.218,14.477,364.0,247.0,0.5,14.0,1012.8,BKN,3.0,8.0,6.0,9999.0,,LJUBLJANA,SI,140140-99999,2019,13,1.0
320990,99999,2019-10-05,48.65,144.733,6.0,120.0,4.0,9.3,1011.1,OVC,60.0,6.0,,,,MYS TERPENIYA,RS,320990-99999,2019,13,1.0
765480,99999,2019-10-05,22.2,-97.85,25.0,110.0,3.0,33.2,1008.8,SCT,,,24.0,0.0,,TAMPICO  TAMPS,MX,765480-99999,2019,13,1.0
360910,99999,2019-10-05,52.25,93.017,662.0,,,14.3,1011.0,OVC,2.0,8.0,12.0,140.0,,NIZHNE-USINSKOE,RS,360910-99999,2019,13,1.0
041650,99999,2019-10-05,66.533,-18.017,17.0,330.0,2.1,6.9,1017.7,,,,,,,GRIMSEY,IC,041650-99999,2019,13,1.0
484040,99999,2019-10-05,16.067,103.617,156.0,220.0,2.6,28.5,1007.6,BKN,,,24.0,1.0,,ROI ET AGROMET,TH,484040-99999,2019,13,1.0
167131,99999,2019-10-05,37.633,22.76,12.0,320.0,1.5,18.5,1011.9,,,,,,,NAFPLION,GR,167131-99999,2019,13,1.0
998409,99999,2019-10-05,38.983,-76.48,0.0,0.0,0.0,29.5,1009.4,,,,,,,ANNAPOLIS,US,998409-99999,2019,13,1.0
998276,99999,2019-10-05,25.183,-80.433,3.0,0.0,0.0,,,,,,,,,BLACKWATER SOUND,US,998276-99999,2019,13,1.0
868700,99999,2019-10-05,-22.862,-46.043,1545.0,300.0,0.4,6.1,1028.3,,,,99.0,9999.0,,MONTE VERDE,BR,868700-99999,2019,13,1.0
945100,99999,2019-10-05,-26.414,146.256,303.0,210.0,5.1,15.8,1024.0,,,,,,,CHARLEVILLE,AS,945100-99999,2019,13,1.0
075300,99999,2019-10-05,44.817,0.517,51.0,290.0,3.1,20.0,1019.1,BKN,0.0,,6.0,0.0,,ROUMANIERE,FR,075300-99999,2019,13,1.0
999999,53151,2019-10-05,33.439,-117.19,347.0,,2.6,29.1,,,,,1.0,0.0,,FALLBROOK 5 NE,US,999999-53151,2019,13,1.0
997787,99999,2019-10-05,41.65,-87.15,182.0,230.0,2.1,28.3,1013.5,,,,,,,BURNS HARBOR,US,997787-99999,2019,13,1.0
764710,99999,2019-10-05,23.633,-103.65,2351.0,80.0,1.0,17.8,1005.3,BKN,1.0,2.0,6.0,20.0,,SOMBRERETE  ZAC.,MX,764710-99999,2019,13,1.0
620070,99999,2019-10-05,32.555,12.056,4.0,90.0,3.1,26.5,1014.7,,,,,,,ZUARA,LY,620070-99999,2019,13,1.0
347200,99999,2019-10-05,47.0,38.1,31.0,270.0,1.0,17.2,1007.4,FEW,,,,,,TAGANROG,RS,347200-99999,2019,13,1.0
869760,99999,2019-10-05,-29.192,-54.886,390.0,3.0,3.2,19.7,1013.0,,,,99.0,9999.0,,SANTIAGO,BR,869760-99999,2019,13,1.0
841400,99999,2019-10-05,-1.1,-79.483,120.0,0.0,0.0,24.2,1008.8,BKN,,,,,,PICHILINGUE,EC,841400-99999,2019,13,1.0
670050,99999,2019-10-05,-12.8,45.283,7.0,200.0,5.7,24.7,1016.8,,0.0,,6.0,0.0,,DZAOUDZI PAMANDZI,MF,670050-99999,2019,13,1.0
241250,99999,2019-10-05,67.967,112.433,219.0,130.0,2.0,15.7,1012.0,,,,12.0,9999.0,,OLENEK,RS,241250-99999,2019,13,1.0
233760,99999,2019-10-05,66.933,88.367,101.0,240.0,1.0,17.9,1011.8,,,,12.0,0.0,,SVETLOGORSK,RS,233760-99999,2019,13,1.0
718794,99999,2019-10-05,49.75,-114.88,1138.0,180.0,6.2,25.0,1016.2,,,,,,,SPARWOOD / ELK VALLEY,CA,718794-99999,2019,13,1.0
719250,99999,2019-10-05,69.108,-105.138,27.0,320.0,7.7,10.0,996.4,,,,,,,CAMBRIDGE BAY,CA,719250-99999,2019,13,1.0
712990,99999,2019-10-05,49.4,-82.433,218.0,220.0,4.1,22.4,1003.5,,,,24.0,0.0,,KAPUSKASING CDA ON  ONT,CA,712990-99999,2019,13,1.0
336580,99999,2019-10-05,48.259,25.981,252.0,0.0,0.0,13.0,,,,,,,,CHERNIVTSI,UP,336580-99999,2019,13,1.0
655620,99999,2019-10-05,6.65,-4.7,92.0,0.0,0.0,24.1,1016.8,BKN,,,,,,DIMBOKRO CITY,IV,655620-99999,2019,13,1.0
644000,99999,2019-10-05,-4.816,11.887,17.0,170.0,2.6,23.0,,,,,,,,POINTE NOIRE,CF,644000-99999,2019,13,1.0
031340,99999,2019-10-05,55.907,-4.531,59.0,310.0,5.7,15.2,1020.3,,,,6.0,9999.0,,GLASGOW BISHOPTON,UK,031340-99999,2019,13,1.0
409900,99999,2019-10-05,31.5,65.85,1010.0,70.0,1.0,24.9,993.4,,,,6.0,0.0,,KANDAHAR,AF,409900-99999,2019,13,1.0
712990,99999,2019-10-05,49.4,-82.45,218.0,220.0,4.1,22.4,1003.5,,,,,,,KAPUSKASING CDA ON  ONT,CA,712990-99999,2019,13,1.0
682710,99999,2019-10-05,-24.2,29.0,1097.0,0.0,0.0,8.7,,,,,,,,KOPANE,SF,682710-99999,2019,13,1.0
434360,99999,2019-10-05,7.717,81.7,8.0,180.0,1.5,27.0,1010.0,FEW,,,3.0,0.0,,BATTICALOA,CE,434360-99999,2019,13,1.0
126250,99999,2019-10-05,49.3,19.967,857.0,,,11.9,,OVC,,,6.0,0.0,,ZAKOPANE,PL,126250-99999,2019,13,1.0
140140,99999,2019-10-05,46.224,14.458,388.0,,0.5,14.0,,,,,,,,LJUBLJANA,SI,140140-99999,2019,13,1.0
479710,42402,2019-10-05,27.083,142.183,8.0,240.0,2.6,27.0,,,,,,,,CHICHIJIMA,JA,479710-42402,2019,13,1.0
670050,99999,2019-10-05,-12.805,45.281,7.0,200.0,5.7,25.0,,,,,,,,DZAOUDZI PAMANDZI,MF,670050-99999,2019,13,1.0
013110,99999,2019-10-05,60.283,5.233,50.0,330.0,2.0,12.5,1013.6,OVC,,,6.0,0.0,,FLESLAND,NO,013110-99999,2019,13,1.0
945100,99999,2019-10-05,-26.413,146.263,306.0,210.0,5.1,16.0,,CLR,,,,,,CHARLEVILLE,AS,945100-99999,2019,13,1.0
318450,99999,2019-10-05,46.533,135.317,130.0,30.0,3.0,21.5,1003.8,BKN,,,,,,KRASNYJ JAR,RS,318450-99999,2019,13,1.0
475700,99999,2019-10-05,37.483,139.917,214.0,290.0,2.1,23.1,1005.4,,,,12.0,10.0,,WAKAMATSU,JA,475700-99999,2019,13,1.0
488390,99999,2019-10-05,20.133,107.717,56.0,180.0,8.0,29.9,1003.3,BKN,,,,,,BACH LONG VI,VM,488390-99999,2019,13,1.0
114140,99999,2019-10-05,50.203,12.915,606.0,,1.0,12.0,,,,,,,,KARLOVY VARY,EZ,114140-99999,2019,13,1.0
710880,99999,2019-10-05,69.083,-79.033,41.0,150.0,7.7,4.6,999.6,OVC,,,24.0,9999.0,,ROWLEY ISLAND,CA,710880-99999,2019,13,1.0
999999,03733,2019-10-05,39.013,-79.474,1033.0,,1.1,20.0,,,,,1.0,0.0,,ELKINS 21 ENE,US,999999-03733,2019,13,1.0
935150,99999,2019-10-05,-41.733,171.567,5.0,50.0,5.7,14.1,1012.7,,,,24.0,244.0,,WESTPORT AERODROME,NZ,935150-99999,2019,13,1.0
114140,99999,2019-10-05,50.2,12.917,607.0,290.0,2.0,11.8,,BKN,2.0,6.0,6.0,4.0,,KARLOVY VARY,EZ,114140-99999,2019,13,1.0
711570,99999,2019-10-05,53.567,-113.517,671.0,280.0,3.1,25.7,1010.7,,,,24.0,0.0,,EDMONTON MUNICIPAL CR10  ALTA,CA,711570-99999,2019,13,1.0
857990,99999,2019-10-05,-41.439,-73.094,90.0,30.0,9.3,10.0,,,80.0,,,,,EL TEPUAL INTL,CI,857990-99999,2019,13,1.0
710880,99999,2019-10-05,69.07,-79.07,41.0,140.0,7.7,5.0,,,,,,,,ROWLEY ISLAND,CA,710880-99999,2019,13,1.0
857990,99999,2019-10-05,-41.433,-73.1,90.0,30.0,9.3,10.2,1010.4,OVC,80.0,6.0,6.0,10.0,,EL TEPUAL INTL,CI,857990-99999,2019,13,1.0
839480,99999,2019-10-05,-29.333,-49.733,31.0,180.0,1.0,18.1,1013.2,FEW,10.0,1.0,,,,TORRES,BR,839480-99999,2019,13,1.0
024870,99999,2019-10-05,59.35,18.733,22.0,280.0,2.0,11.3,,,,,,,,SKARPO A,SW,024870-99999,2019,13,1.0
567630,99999,2019-10-05,25.733,101.867,1120.0,180.0,1.0,24.1,1001.3,BKN,,,24.0,4.0,,YUANMOU,CH,567630-99999,2019,13,1.0
479710,42402,2019-10-05,27.1,142.183,8.0,260.0,2.1,27.3,1009.5,,,,12.0,20.0,,CHICHIJIMA,JA,479710-42402,2019,13,1.0
259410,99999,2019-10-05,60.733,163.017,14.0,160.0,6.0,17.5,1010.9,SCT,,,,,,CHEMURNAUT,RS,259410-99999,2019,13,1.0
021470,99999,2019-10-05,65.151,18.594,363.0,0.0,0.0,8.0,,,,,1.0,9999.0,,MALA-BRANNAN,SW,021470-99999,2019,13,1.0
432430,99999,2019-10-05,14.9,79.983,17.0,0.0,0.0,30.4,1007.5,BKN,,,,,,KAVALI,IN,432430-99999,2019,13,1.0
586660,99999,2019-10-05,28.45,121.883,84.0,220.0,10.0,25.9,1001.4,BKN,,,,,,DACHEN DAO,CH,586660-99999,2019,13,1.0
481100,99999,2019-10-05,12.433,98.6,37.0,180.0,1.0,25.0,1011.7,BKN,,,12.0,10.0,,MERGUI,BM,481100-99999,2019,13,1.0
713630,99999,2019-10-05,68.63,-95.85,42.0,260.0,4.1,8.0,994.2,,,,,,,GJOA HAVEN CLIMATE  NU,CA,713630-99999,2019,13,1.0
994670,99999,2019-10-05,61.08,-146.66,0.0,190.0,7.7,15.2,1015.2,,,,,,,MIDDLE ROCK LIGHT,US,994670-99999,2019,13,1.0
715120,99999,2019-10-05,50.267,-64.217,11.0,90.0,2.1,13.9,1011.8,,,,24.0,0.0,,LONGUE POINTE DE MINGAN QUE,CA,715120-99999,2019,13,1.0
764120,99999,2019-10-05,24.633,-107.433,39.0,200.0,2.0,34.6,1010.0,SCT,,,24.0,0.0,,CULIACAN INTL,MX,764120-99999,2019,13,1.0
717060,99999,2019-10-05,46.289,-63.119,49.0,133.0,6.9,17.0,1011.5,OVC,80.0,6.0,24.0,5.0,,CHARLOTTETOWN,CA,717060-99999,2019,13,1.0
717060,99999,2019-10-05,46.283,-63.133,49.0,,,17.0,1011.4,,61.0,,,,,CHARLOTTETOWN,CA,717060-99999,2019,13,1.0
817700,99999,2019-10-05,-4.097,-63.145,34.0,0.0,0.0,25.7,1011.1,,,,99.0,9999.0,,COARI,BR,817700-99999,2019,13,1.0
027600,99999,2019-10-05,66.172,29.136,305.0,,,6.1,1011.4,,,,,,,KUUSAMO RUKA TALVIJARVI,FI,027600-99999,2019,13,1.0
997706,99999,2019-10-05,45.55,-123.9,3.0,0.0,0.0,,1018.0,,,,,,,GARIBALDI TILLAMOOK,US,997706-99999,2019,13,1.0
345780,99999,2019-10-05,48.0,46.1,5.0,290.0,1.0,14.2,1007.3,OVC,10.0,2.0,,,,CERNYJ JAR,RS,345780-99999,2019,13,1.0
715120,99999,2019-10-05,50.27,-64.23,11.0,90.0,2.1,13.9,1011.8,,,,,,,LONGUE POINTE DE MINGAN QUE,CA,715120-99999,2019,13,1.0
994048,99999,2019-10-05,47.267,-122.413,5.0,0.0,0.0,24.4,1016.1,,,,,,,TACOMA,US,994048-99999,2019,13,1.0
784880,99999,2019-10-05,18.45,-68.92,94.0,80.0,3.0,28.0,1014.0,FEW,6.0,0.0,,,,DE LA ROMANA INTNAL,DR,784880-99999,2019,13,1.0
975800,99999,2019-10-05,-1.833,138.717,3.0,80.0,1.5,25.2,1011.3,SCT,,,24.0,220.0,,SARMI/ORAI,ID,975800-99999,2019,13,1.0
025580,99999,2019-10-05,58.683,16.317,155.0,100.0,2.0,12.3,1011.0,OVC,,,1.0,20.0,,KOLMARDEN-STROMSFORS,SW,025580-99999,2019,13,1.0
084300,99999,2019-10-05,38.002,-1.171,61.0,290.0,0.5,27.5,1015.0,,,,6.0,9999.0,,MURCIA,SP,084300-99999,2019,13,1.0
342540,99999,2019-10-05,50.0,42.1,97.0,180.0,2.0,12.2,1006.4,BKN,,,,,,NOVOANNENSKIJ,RS,342540-99999,2019,13,1.0
714540,99999,2019-10-05,53.917,-106.067,569.0,160.0,2.1,17.9,1011.3,,,,24.0,44.0,,WASKESIU LAKE  SASK,CA,714540-99999,2019,13,1.0
405920,99999,2019-10-05,28.567,48.067,107.0,300.0,2.6,33.2,998.3,,,,,,,WAFRA,KU,405920-99999,2019,13,1.0
682905,99999,2019-10-05,-25.334,27.173,1040.0,240.0,1.0,3.0,,,,,,,,PILANESBERG INTL,SF,682905-99999,2019,13,1.0
624050,99999,2019-10-05,25.671,32.707,90.0,30.0,1.0,32.0,,,,,,,,LUXOR INTL,EG,624050-99999,2019,13,1.0
624050,99999,2019-10-05,25.667,32.7,90.0,30.0,1.0,32.4,,,,,,,,LUXOR INTL,EG,624050-99999,2019,13,1.0
476260,99999,2019-10-05,36.15,139.383,32.0,340.0,1.0,24.1,1005.0,,,,12.0,0.0,,KUMAGAYA,JA,476260-99999,2019,13,1.0
248070,99999,2019-10-05,61.333,100.483,332.0,,,17.2,1017.8,BKN,,,12.0,0.0,,MUTORAJ,RS,248070-99999,2019,13,1.0
682400,99999,2019-10-05,-24.555,25.918,1006.0,320.0,1.5,6.0,,,,,,,,SIR SERETSE KHAMA INTL,BC,682400-99999,2019,13,1.0
075300,99999,2019-10-05,44.825,0.519,52.0,290.0,3.1,20.0,,,,,,,,ROUMANIERE,FR,075300-99999,2019,13,1.0
713080,99999,2019-10-05,45.62,-61.68,67.0,140.0,5.1,14.8,1014.7,,,,,,,TRACADIE  NS  NS,CA,713080-99999,2019,13,1.0
713080,99999,2019-10-05,45.6,-61.667,67.0,140.0,5.1,14.8,1014.7,,,,24.0,9999.0,,TRACADIE  NS  NS,CA,713080-99999,2019,13,1.0
417680,99999,2019-10-05,25.52,69.78,5.0,230.0,4.1,29.0,999.7,FEW,,,12.0,9999.0,,CHHOR,PK,417680-99999,2019,13,1.0
720324,64753,2019-10-05,40.435,-75.382,160.0,340.0,1.5,26.0,,CLR,,,,,,QUAKERTOWN AIRPORT,US,720324-64753,2019,13,1.0
869360,99999,2019-10-05,-26.287,-53.633,808.0,148.0,4.5,20.1,1015.5,,,,99.0,9999.0,,DIONISIO CERQUEIRA,BR,869360-99999,2019,13,1.0
233580,99999,2019-10-05,66.1,76.783,62.0,300.0,3.0,14.1,1014.6,OVC,,,,,,NOVYJ URENGOJ,RS,233580-99999,2019,13,1.0
544360,99999,2019-10-05,40.4,118.95,228.0,90.0,3.0,23.1,1002.6,FEW,,,24.0,63.0,,QINGLONG,CH,544360-99999,2019,13,1.0
999999,53150,2019-10-05,37.759,-119.821,2018.0,,2.0,23.3,,,,,1.0,0.0,,YOSEMITE VILLAGE 12 W,US,999999-53150,2019,13,1.0
342620,99999,2019-10-05,50.0,44.1,114.0,110.0,1.0,10.2,1007.2,SCT,,,,,,RUDNYA,RS,342620-99999,2019,13,1.0
719664,99999,2019-10-05,64.05,-139.13,370.0,230.0,2.1,14.5,1011.3,,,,,,,DAWSON,CA,719664-99999,2019,13,1.0
714540,99999,2019-10-05,53.92,-106.07,569.0,160.0,2.1,17.9,1011.3,,,,1.0,41.0,,WASKESIU LAKE  SASK,CA,714540-99999,2019,13,1.0
710130,99999,2019-10-05,51.767,-112.25,845.0,240.0,1.5,25.7,,,,,24.0,0.0,,CRAIGMYLE AGCM,CA,710130-99999,2019,13,1.0
821980,99999,2019-10-05,-1.717,-45.4,44.0,250.0,1.0,24.2,1015.8,BKN,2.0,6.0,6.0,20.0,,TURIACU,BR,821980-99999,2019,13,1.0
713630,99999,2019-10-05,68.633,-95.85,42.0,260.0,4.1,8.0,994.2,,,,24.0,9999.0,,GJOA HAVEN CLIMATE  NU,CA,713630-99999,2019,13,1.0
606400,99999,2019-10-05,26.724,8.623,542.0,150.0,3.1,31.0,,CLR,,,,,,ILLIZI TAKHAMALT,AG,606400-99999,2019,13,1.0
712180,99999,2019-10-05,50.7,-119.28,351.0,340.0,1.5,25.9,1012.5,,,,,,,SALMON ARM CS  BC,CA,712180-99999,2019,13,1.0
715240,99999,2019-10-05,45.82,-73.43,21.0,250.0,2.1,23.1,1007.8,,,,,,,L'ASSOMPTION  QUE,CA,715240-99999,2019,13,1.0
080450,99999,2019-10-05,42.239,-8.624,261.0,340.0,2.6,21.7,1014.7,,,,6.0,9999.0,,VIGO,SP,080450-99999,2019,13,1.0
715240,99999,2019-10-05,45.8,-73.433,21.0,250.0,2.1,23.1,1007.8,,,,24.0,21.0,,L'ASSOMPTION  QUE,CA,715240-99999,2019,13,1.0
080450,99999,2019-10-05,42.232,-8.627,261.0,360.0,2.1,22.0,,,,,,,,VIGO,SP,080450-99999,2019,13,1.0
714000,99999,2019-10-05,48.967,-56.067,103.0,210.0,1.5,17.1,1016.5,,,,24.0,9999.0,,BADGER (AUT)  NFLD,CA,714000-99999,2019,13,1.0
067060,99999,2019-10-05,46.484,6.443,425.0,269.0,0.4,,,,,,,,,ST-PREX,SZ,067060-99999,2019,13,1.0
315340,99999,2019-10-05,50.433,131.017,230.0,90.0,1.0,23.2,1005.3,BKN,17.0,9.0,,,,SEKTAGLI,RS,315340-99999,2019,13,1.0
997797,99999,2019-10-05,58.4,-134.95,32.0,160.0,0.5,16.5,1014.6,,,,,,,POINT RETREAT,US,997797-99999,2019,13,1.0
080870,99999,2019-10-05,42.198,-1.475,295.0,294.0,7.7,22.2,1015.3,,,,6.0,9999.0,,BARDENAS REALES,SP,080870-99999,2019,13,1.0
569540,99999,2019-10-05,22.567,99.933,1054.0,,,21.7,1007.3,OVC,60.0,,24.0,14.0,,LANCANG,CH,569540-99999,2019,13,1.0
999999,94077,2019-10-05,42.425,-103.736,1343.0,,2.2,21.4,,,,,1.0,32.0,,HARRISON 20 SSE,US,999999-94077,2019,13,1.0
292760,99999,2019-10-05,58.183,94.75,161.0,,,9.2,1019.9,,,,12.0,0.0,,MOTYGINO,RS,292760-99999,2019,13,1.0
420270,99999,2019-10-05,34.083,74.833,1587.0,320.0,1.0,22.0,,BKN,,,,,,SRINAGAR,IN,420270-99999,2019,13,1.0
411780,99999,2019-10-05,24.75,50.817,8.0,260.0,4.6,31.0,996.6,,,,,,,ABU SAMRA,QA,411780-99999,2019,13,1.0
530830,99999,2019-10-05,44.617,114.15,1183.0,40.0,4.0,22.5,1004.3,FEW,,,24.0,2.0,,NARAN BULAG,CH,530830-99999,2019,13,1.0
076310,99999,2019-10-05,43.533,1.367,166.0,270.0,1.5,22.3,1017.9,,0.0,,6.0,0.0,,FRANCAZAL,FR,076310-99999,2019,13,1.0
999999,73801,2019-10-05,33.213,-87.591,46.0,,,31.1,,,,,1.0,0.0,,NORTHPORT 2 S,US,999999-73801,2019,13,1.0
868790,99999,2019-10-05,-22.861,-43.411,30.0,0.0,0.0,15.6,1018.7,,,,99.0,9999.0,,RIO DE JANEIRO-VILA MILITAR,BR,868790-99999,2019,13,1.0
712180,99999,2019-10-05,50.7,-119.283,351.0,340.0,1.5,25.9,1012.5,,,,24.0,0.0,,SALMON ARM CS  BC,CA,712180-99999,2019,13,1.0
021030,99999,2019-10-05,65.783,15.067,793.0,330.0,4.0,9.4,,,,,,,,HEMAVAN-GIEREVARTO,SW,021030-99999,2019,13,1.0
818630,99999,2019-10-05,-6.653,-47.418,183.0,0.0,0.0,22.2,1013.0,,,,99.0,9999.0,,ESTREITO,BR,818630-99999,2019,13,1.0
718450,99999,2019-10-05,51.45,-90.2,386.0,280.0,4.6,17.3,1009.5,BKN,2.0,8.0,24.0,9999.0,,PICKLE LAKE  A,CA,718450-99999,2019,13,1.0
712200,99999,2019-10-05,54.3,-130.6,26.0,280.0,,16.4,,,,,,,,LUCY ISLAND LIGHTSTATION,CA,712200-99999,2019,13,1.0
070240,99999,2019-10-05,49.65,-1.467,138.0,290.0,2.6,15.6,1020.8,BKN,0.0,,6.0,0.0,,MAUPERTUS,FR,070240-99999,2019,13,1.0
718450,99999,2019-10-05,51.45,-90.2,386.0,290.0,4.6,17.0,1009.4,,,,,,,PICKLE LAKE  A,CA,718450-99999,2019,13,1.0
374960,99999,2019-10-05,41.6,41.633,11.0,170.0,2.0,20.9,1008.5,,,,6.0,3.0,,BATUMI,GG,374960-99999,2019,13,1.0
116830,99999,2019-10-05,49.733,16.033,740.0,240.0,4.0,11.1,,,,,6.0,0.0,,SVRATOUCH,EZ,116830-99999,2019,13,1.0
712200,99999,2019-10-05,54.296,-130.609,23.0,0.0,0.0,16.4,,,,,24.0,9999.0,,LUCY ISLAND LIGHTSTATION,CA,712200-99999,2019,13,1.0
014730,99999,2019-10-05,59.617,9.633,173.0,230.0,1.0,15.8,1009.9,,,,99.0,9999.0,,KONGSBERG BRANNSTASJON,NO,014730-99999,2019,13,1.0
987520,99999,2019-10-05,8.95,125.483,46.0,210.0,1.0,26.4,1011.6,BKN,15.0,8.0,24.0,607.0,,BUTUAN,RP,987520-99999,2019,13,1.0
817150,99999,2019-10-05,-2.527,-44.214,55.0,302.0,0.2,24.5,1014.3,,,,99.0,9999.0,,SAO LUIS,BR,817150-99999,2019,13,1.0
714000,99999,2019-10-05,48.97,-56.07,103.0,210.0,1.5,17.1,1016.5,,,,,,,BADGER (AUT)  NFLD,CA,714000-99999,2019,13,1.0
724920,23237,2019-10-05,37.9,-121.25,8.0,300.0,4.6,36.7,1008.6,,,,,,,STOCKTON METROPOLITAN AIRPORT,US,724920-23237,2019,13,1.0
938910,99999,2019-10-05,-45.917,170.183,2.0,10.0,3.1,6.0,1001.2,,,,24.0,0.0,,DUNEDIN AERODROME AWS,NZ,938910-99999,2019,13,1.0
014220,99999,2019-10-05,59.167,6.033,25.0,140.0,1.0,13.0,,,,,6.0,0.0,,FISTER SIGMUNDSTAD,NO,014220-99999,2019,13,1.0
867920,99999,2019-10-05,-19.696,-51.182,408.0,193.0,2.4,22.0,1016.1,,,,99.0,9999.0,,PARANAIBA,BR,867920-99999,2019,13,1.0
606400,99999,2019-10-05,26.723,8.617,543.0,150.0,3.1,31.2,1009.1,CLR,,,6.0,9999.0,,ILLIZI TAKHAMALT,AG,606400-99999,2019,13,1.0
070240,99999,2019-10-05,49.65,-1.47,140.0,290.0,2.6,16.0,,,,,,,,MAUPERTUS,FR,070240-99999,2019,13,1.0
433520,99999,2019-10-05,9.55,76.417,4.0,0.0,0.0,25.8,1009.7,SCT,,,,,,ALAPUZHA,IN,433520-99999,2019,13,1.0
712730,99999,2019-10-05,54.017,-109.133,546.0,260.0,4.1,24.3,1009.4,,,,24.0,0.0,,LOON LAKE,CA,712730-99999,2019,13,1.0
431920,99999,2019-10-05,15.483,73.817,58.0,230.0,0.5,24.6,1008.5,OVC,63.0,6.0,21.0,890.0,,GOA/PANJIM,IN,431920-99999,2019,13,1.0
073160,99999,2019-10-05,46.15,-1.18,20.0,360.0,3.1,18.2,1019.3,,0.0,,6.0,0.0,,ILE DE RE,FR,073160-99999,2019,13,1.0
073160,99999,2019-10-05,46.179,-1.195,23.0,360.0,3.1,18.0,,,,,,,,ILE DE RE,FR,073160-99999,2019,13,1.0
020380,99999,2019-10-05,67.255,20.27,453.0,4.0,0.7,1.7,,,,,1.0,9999.0,,LATNIVAARA,SW,020380-99999,2019,13,1.0
868540,99999,2019-10-05,-21.588,-41.958,60.0,0.0,0.0,14.5,1019.8,,,,99.0,9999.0,,CAMBUCI,BR,868540-99999,2019,13,1.0
689200,99999,2019-10-05,-34.833,20.017,14.0,150.0,3.1,15.8,1022.7,,,,,,,CAPE AGULHAS,SF,689200-99999,2019,13,1.0
010980,99999,2019-10-05,70.367,31.1,15.0,20.0,5.0,5.2,1015.7,,,,6.0,0.0,,VARDO,NO,010980-99999,2019,13,1.0
997344,99999,2019-10-05,41.82,-83.18,188.0,130.0,1.5,26.1,,,,,,,,TOLEDO LIGHT 2,US,997344-99999,2019,13,1.0
426470,99999,2019-10-05,23.067,72.633,55.0,230.0,2.1,31.4,1003.5,SCT,5.0,2.0,,,,AHMEDABAD,IN,426470-99999,2019,13,1.0
029070,99999,2019-10-05,64.333,23.45,5.0,340.0,6.0,13.1,1009.4,,,,,,,KALAJOKI ULKOKALLA,FI,029070-99999,2019,13,1.0
121460,99999,2019-10-05,54.248,18.672,6.0,270.0,2.1,12.0,,,,,,,,PRUSZCZ GDANSKI,PL,121460-99999,2019,13,1.0
161480,99999,2019-10-05,44.217,12.3,10.0,120.0,1.5,20.2,1010.0,SCT,,,6.0,0.0,,CERVIA,IT,161480-99999,2019,13,1.0
121460,99999,2019-10-05,54.25,18.667,100.0,270.0,2.0,12.3,1010.8,,,,,,,PRUSZCZ GDANSKI,PL,121460-99999,2019,13,1.0
387630,99999,2019-10-05,38.983,56.283,92.0,280.0,2.0,30.8,998.9,FEW,,,,,,GYZYLARBAT,TX,387630-99999,2019,13,1.0
999999,92826,2019-10-05,25.9,-81.318,1.0,,0.1,28.9,,,,,1.0,0.0,,EVERGLADES CITY 5 NE,US,999999-92826,2019,13,1.0
713100,99999,2019-10-05,46.45,-62.567,30.0,130.0,4.6,16.3,1012.7,,,,24.0,0.0,,ST. PETERS  PEI,CA,713100-99999,2019,13,1.0
952050,99999,2019-10-05,-17.367,123.667,7.0,110.0,5.1,23.9,1019.9,,,,,,,DERBY AERO,AS,952050-99999,2019,13,1.0
408770,99999,2019-10-05,27.967,57.7,470.0,230.0,5.0,31.8,992.0,,,,6.0,0.0,,KAHNUJ,IR,408770-99999,2019,13,1.0
727770,94012,2019-10-05,48.55,-109.767,792.0,290.0,6.7,32.2,1010.8,,,,,,,HAVRE CITY-COUNTY AIRPORT,US,727770-94012,2019,13,1.0
724860,23154,2019-10-05,39.3,-114.842,1908.0,,2.1,31.1,1009.7,,,,,,,ELY AIRPORT/YELLAND FIELD/AIRPORT,US,724860-23154,2019,13,1.0
716940,99999,2019-10-05,45.13,-79.4,297.0,260.0,2.6,19.0,1013.3,,,,,,,BEATRICE CLIMATE,CA,716940-99999,2019,13,1.0
711880,99999,2019-10-05,48.775,-64.479,33.0,140.0,4.6,16.0,1010.9,,,,,,,GASPE,CA,711880-99999,2019,13,1.0
033050,99999,2019-10-05,53.1,-3.933,215.0,230.0,2.6,14.6,1022.8,,,,6.0,0.0,,CAPEL CURIG NO3,UK,033050-99999,2019,13,1.0
604680,99999,2019-10-05,35.759,6.322,822.0,0.0,0.0,23.2,,CLR,,,6.0,9999.0,,BATNA,AG,604680-99999,2019,13,1.0
014170,99999,2019-10-05,59.483,5.75,65.0,,,12.3,,,,,6.0,1.0,,NEDRE VATS,NO,014170-99999,2019,13,1.0
981330,99999,2019-10-05,19.267,121.467,13.0,270.0,3.0,,1009.2,FEW,5.0,4.0,,,,CALAYAN,RP,981330-99999,2019,13,1.0
364180,99999,2019-10-05,49.033,83.383,524.0,,,19.0,1005.0,FEW,,,,,,SAMARSKOE,KZ,364180-99999,2019,13,1.0
711500,99999,2019-10-05,50.45,-100.6,561.0,280.0,4.6,21.7,1014.4,,,,24.0,0.0,,SHOAL LAKE CS  MAN,CA,711500-99999,2019,13,1.0
028760,99999,2019-10-05,65.006,25.393,3.0,102.0,4.9,12.1,1010.0,,,0.0,,,,OULU VIHREASAARI HARBOUR,FI,028760-99999,2019,13,1.0
711500,99999,2019-10-05,50.45,-100.6,561.0,280.0,4.6,21.7,1014.4,,,,,,,SHOAL LAKE CS  MAN,CA,711500-99999,2019,13,1.0
685380,99999,2019-10-05,-30.65,24.0,1287.0,0.0,0.0,10.3,,,,,,,,DEAAR(UA),SF,685380-99999,2019,13,1.0
027770,99999,2019-10-05,60.467,23.65,117.0,280.0,1.0,11.6,1009.0,OVC,,,,,,SALO KIIKALA AIRFIELD,FI,027770-99999,2019,13,1.0
081480,99999,2019-10-05,41.783,-2.483,1082.0,50.0,2.6,20.7,,,,,6.0,0.0,,SORIA,SP,081480-99999,2019,13,1.0
714800,99999,2019-10-05,65.28,-126.75,94.0,330.0,3.1,17.7,1010.7,,,,,,,NORMAN WELLS CLIMATE,CA,714800-99999,2019,13,1.0
710610,99999,2019-10-05,54.1,-114.45,648.0,230.0,4.1,26.0,1008.8,,,,,,,BARRHEAD CS,CA,710610-99999,2019,13,1.0
713100,99999,2019-10-05,46.45,-62.58,30.0,130.0,4.6,16.3,1012.7,,,,,,,ST. PETERS  PEI,CA,713100-99999,2019,13,1.0
013100,99999,2019-10-05,61.567,5.017,9.0,330.0,8.0,14.0,1012.9,,,,,,,FLORO,NO,013100-99999,2019,13,1.0
152600,99999,2019-10-05,45.789,24.091,443.0,260.0,2.0,11.0,1013.9,SCT,,,6.0,9999.0,,SIBIU,RO,152600-99999,2019,13,1.0
710610,99999,2019-10-05,54.1,-114.45,648.0,230.0,4.1,26.0,1008.8,,,,24.0,0.0,,BARRHEAD CS,CA,710610-99999,2019,13,1.0
111100,99999,2019-10-05,47.133,10.233,2080.0,280.0,7.0,6.5,,,,,6.0,30.0,,GALZIG,AU,111100-99999,2019,13,1.0
716940,99999,2019-10-05,45.133,-79.4,297.0,260.0,2.6,19.0,1013.3,,,,24.0,2.0,,BEATRICE CLIMATE,CA,716940-99999,2019,13,1.0
477500,99999,2019-10-05,35.45,135.317,4.0,290.0,1.0,23.8,1005.3,,,,12.0,0.0,,MAIZURU,JA,477500-99999,2019,13,1.0
011920,99999,2019-10-05,68.417,17.65,200.0,290.0,1.0,10.3,,,,,6.0,0.0,,STRAUMSNES,NO,011920-99999,2019,13,1.0
714800,99999,2019-10-05,65.28,-126.75,94.0,330.0,3.1,17.7,1010.7,,,,24.0,2.0,,NORMAN WELLS CLIMATE,CA,714800-99999,2019,13,1.0
123450,99999,2019-10-05,52.2,18.667,117.0,270.0,2.0,15.9,1009.9,,,,6.0,0.0,,KOLO,PL,123450-99999,2019,13,1.0
552990,99999,2019-10-05,31.483,92.067,4508.0,40.0,1.0,7.0,,BKN,60.0,,24.0,51.0,,NAGQU,CH,552990-99999,2019,13,1.0
477990,99999,2019-10-05,34.285,129.331,65.0,180.0,1.5,21.0,,,61.0,,,,,TSUSHIMA,JA,477990-99999,2019,13,1.0
315320,99999,2019-10-05,50.867,132.25,272.0,30.0,1.0,19.0,1006.3,OVC,81.0,8.0,,,,CEKUNDA,RS,315320-99999,2019,13,1.0
242630,99999,2019-10-05,67.65,134.683,214.0,120.0,1.0,25.2,1005.8,,,,,,,BATAGAJ,RS,242630-99999,2019,13,1.0
723626,03737,2019-10-05,36.399,-76.016,5.0,,,29.2,,CLR,,,,,,CURRITUCK COUNTY AIRPORT,US,723626-03737,2019,13,1.0
489125,99999,2019-10-05,10.083,105.717,3.0,200.0,2.1,27.0,,,,,,,,CAN THO,VM,489125-99999,2019,13,1.0
010030,99999,2019-10-05,77.0,15.5,12.0,270.0,6.0,4.7,1015.8,OVC,10.0,5.0,6.0,0.0,,HORNSUND,NO,010030-99999,2019,13,1.0
994045,99999,2019-10-05,29.73,-84.98,2.0,160.0,7.2,28.0,1014.8,,,,,,,APPALACHICOLA,US,994045-99999,2019,13,1.0
687220,99999,2019-10-05,-32.383,20.667,1459.0,60.0,1.5,4.7,,,,,,,,SUTHERLAND,SF,687220-99999,2019,13,1.0
380010,99999,2019-10-05,44.55,50.25,-25.0,320.0,6.0,23.7,1006.2,BKN,,,,,,AKTAU,KZ,380010-99999,2019,13,1.0
306950,99999,2019-10-05,53.467,123.9,266.0,280.0,2.0,20.4,1005.7,BKN,,,12.0,0.0,,DZALINDA,RS,306950-99999,2019,13,1.0
380010,99999,2019-10-05,43.86,51.092,22.0,310.0,8.0,22.0,,,,,,,,AKTAU,KZ,380010-99999,2019,13,1.0
121950,99999,2019-10-05,54.133,22.95,186.0,10.0,1.0,9.3,1010.4,,,,6.0,0.0,,SUWALKI,PL,121950-99999,2019,13,1.0
478180,99999,2019-10-05,32.733,130.267,680.0,90.0,4.6,17.7,1004.6,,,,12.0,40.0,,UNZENDAKE,JA,478180-99999,2019,13,1.0
818770,99999,2019-10-05,-6.975,-35.718,574.0,127.0,2.6,20.1,1017.0,,,,99.0,9999.0,,AREIA,BR,818770-99999,2019,13,1.0
818200,99999,2019-10-05,-5.366,-49.051,117.0,326.0,0.3,24.6,1012.7,,,,99.0,9999.0,,MARABA,BR,818200-99999,2019,13,1.0
150230,99999,2019-10-05,47.633,26.25,352.0,200.0,2.0,13.7,1010.5,OVC,,,6.0,0.0,,STEFAN CEL MARE,RO,150230-99999,2019,13,1.0
150230,99999,2019-10-05,47.688,26.354,419.0,280.0,4.6,15.0,,,,,,,,STEFAN CEL MARE,RO,150230-99999,2019,13,1.0
144420,99999,2019-10-05,44.041,16.207,255.0,10.0,1.0,16.1,1012.4,,,,,,,KNIN,HR,144420-99999,2019,13,1.0
161200,99999,2019-10-05,44.417,8.85,3.0,30.0,2.6,23.7,1010.0,SCT,,,6.0,0.0,,GENOVA SESTRI,IT,161200-99999,2019,13,1.0
066760,99999,2019-10-05,47.134,8.608,724.0,350.0,3.3,,,,,,,,,OBERAEGERI,SZ,066760-99999,2019,13,1.0
029700,99999,2019-10-05,60.125,19.904,2.0,18.0,0.8,7.1,1011.4,BKN,,,,,,MARIEHAMN,FI,029700-99999,2019,13,1.0
483040,99999,2019-10-05,19.87,99.774,397.0,0.0,0.0,26.7,1007.1,BKN,,,6.0,9999.0,,CHAING RAI ARGOMET,TH,483040-99999,2019,13,1.0
064550,99999,2019-10-05,50.1,4.6,233.0,250.0,1.0,12.0,1016.8,,,,,,,DOURBES,BE,064550-99999,2019,13,1.0
026250,99999,2019-10-05,55.483,14.317,5.0,80.0,1.0,15.5,1011.3,BKN,,,1.0,0.0,,SKILLINGE,SW,026250-99999,2019,13,1.0
943320,99999,2019-10-05,-20.664,139.489,342.0,160.0,8.8,17.0,,CLR,,,,,,MOUNT ISA,AS,943320-99999,2019,13,1.0
716690,99999,2019-10-05,50.369,-114.415,1415.0,254.0,1.2,21.6,1014.7,,,,6.0,9999.0,,PEKISKO,CA,716690-99999,2019,13,1.0
719600,99999,2019-10-05,69.6,-130.9,102.0,300.0,4.1,8.0,,,,,,,,LIVERPOOL BAY,CA,719600-99999,2019,13,1.0
943320,99999,2019-10-05,-20.678,139.488,341.0,160.0,8.8,17.3,1024.7,,,,,,,MOUNT ISA,AS,943320-99999,2019,13,1.0
688250,99999,2019-10-05,-33.5,21.283,538.0,0.0,0.0,8.0,,,,,,,,LADISMITH,SF,688250-99999,2019,13,1.0
787140,99999,2019-10-05,14.9,-85.933,442.0,70.0,1.0,29.1,,SCT,5.0,4.0,24.0,4.0,,CATACAMAS,HO,787140-99999,2019,13,1.0
718200,99999,2019-10-05,44.217,-76.6,93.0,230.0,5.1,22.4,1009.7,,,,,,,KINGSTON CLIMATE,CA,718200-99999,2019,13,1.0
787140,99999,2019-10-05,14.9,-85.933,442.0,60.0,1.0,29.0,,,,,,,,CATACAMAS,HO,787140-99999,2019,13,1.0
718200,99999,2019-10-05,44.217,-76.6,93.0,230.0,5.1,22.4,1009.7,,,,24.0,0.0,,KINGSTON CLIMATE,CA,718200-99999,2019,13,1.0
716690,99999,2019-10-05,50.367,-114.417,1415.0,250.0,1.0,21.6,1014.7,,,,,,,PEKISKO,CA,716690-99999,2019,13,1.0
719200,99999,2019-10-05,43.45,-65.467,6.0,130.0,9.8,14.7,1006.0,,,,1.0,3.0,,BACCARO PT,CA,719200-99999,2019,13,1.0
346910,99999,2019-10-05,47.9,48.8,-10.0,230.0,2.0,16.1,1001.8,BKN,,,,,,NOVYJ USHTOGAN,KZ,346910-99999,2019,13,1.0
999999,54856,2019-10-05,40.764,-81.91,336.0,,1.5,24.8,,,,,1.0,0.0,,WOOSTER 3 SSE,US,999999-54856,2019,13,1.0
082100,99999,2019-10-05,40.667,-4.683,1132.0,90.0,2.6,25.4,,,,,6.0,0.0,,AVILA,SP,082100-99999,2019,13,1.0
307100,99999,2019-10-05,52.268,104.389,511.0,290.0,4.0,16.0,,,10.0,,,,,IRKUTSK,RS,307100-99999,2019,13,1.0
872220,99999,2019-10-05,-28.6,-65.767,454.0,320.0,1.0,15.0,1016.7,OVC,,,,,,CATAMARCA,AR,872220-99999,2019,13,1.0
043300,99999,2019-10-05,74.3,-20.217,44.0,140.0,3.1,1.0,1015.1,,,,,,,DANEBORG (AUT),GL,043300-99999,2019,13,1.0
956750,99999,2019-10-05,-34.734,138.465,8.0,,,,,,,,,,,BLACK POLE,AS,956750-99999,2019,13,1.0
478820,99999,2019-10-05,33.827,132.7,8.0,,1.0,24.0,,,61.0,,,,,MATSUYAMA,JA,478820-99999,2019,13,1.0
307100,99999,2019-10-05,52.267,104.317,469.0,290.0,2.0,16.0,1015.1,OVC,80.0,8.0,12.0,0.0,,IRKUTSK,RS,307100-99999,2019,13,1.0
687270,99999,2019-10-05,-32.35,22.55,899.0,40.0,1.0,7.8,,,,,,,,BEAUFORT WEST,SF,687270-99999,2019,13,1.0
039010,99999,2019-10-05,54.333,-7.6,72.0,300.0,3.6,13.5,1024.2,,,,6.0,0.0,,THOMASTOWN,UK,039010-99999,2019,13,1.0
083350,99999,2019-10-05,38.498,-5.121,551.0,249.0,4.0,25.2,1013.7,,,,6.0,9999.0,,HINOJOSA DEL DUQUE,SP,083350-99999,2019,13,1.0
028470,99999,2019-10-05,66.5,25.717,82.0,20.0,2.0,10.5,1011.3,OVC,,,,,,ROVANIEMI RAUTATIEASEMA,FI,028470-99999,2019,13,1.0
619800,99999,2019-10-05,-20.887,55.51,20.0,190.0,2.6,18.0,,,,,,,,ST DENIS GILLOT,RE,619800-99999,2019,13,1.0
085540,99999,2019-10-05,37.014,-7.966,7.0,260.0,2.1,20.0,,,,,,,,FARO,PO,085540-99999,2019,13,1.0
171920,99999,2019-10-05,38.383,34.05,961.0,50.0,1.5,17.7,1006.3,,,,6.0,0.0,,AKSARAY,TU,171920-99999,2019,13,1.0
025980,99999,2019-10-05,57.433,18.983,5.0,,,13.7,,,,,,,,OSTERGARNSHOLM,SW,025980-99999,2019,13,1.0
085540,99999,2019-10-05,37.017,-7.967,8.0,260.0,1.0,20.3,1016.8,FEW,,,1.0,0.0,,FARO,PO,085540-99999,2019,13,1.0
723320,93862,2019-10-05,34.267,-88.767,110.0,70.0,4.1,33.3,1009.9,,,,,,,TUPELO REGIONAL AIRPORT,US,723320-93862,2019,13,1.0
476040,99999,2019-10-05,37.9,139.017,6.0,220.0,2.1,23.7,1005.9,BKN,2.0,8.0,24.0,0.0,,NIIGATA,JA,476040-99999,2019,13,1.0
965290,99999,2019-10-05,2.117,117.45,26.0,240.0,1.0,24.2,1012.8,BKN,,,,,,KALIMARAU,ID,965290-99999,2019,13,1.0
076610,99999,2019-10-05,43.083,5.933,134.0,310.0,6.7,24.8,1011.4,,,,6.0,0.0,,CAP CEPET,FR,076610-99999,2019,13,1.0
013570,99999,2019-10-05,60.867,8.517,804.0,310.0,6.0,10.1,1012.5,,,,,,,HOLLEKOLTEN,NO,013570-99999,2019,13,1.0
545110,99999,2019-10-05,39.933,116.283,55.0,40.0,3.0,26.8,1001.5,BKN,5.0,,,,,BEIJING - CAPITAL INTERNATIONAL AIRPORT,CH,545110-99999,2019,13,1.0
827840,99999,2019-10-05,-7.317,-39.3,409.0,90.0,1.5,22.5,1012.7,,,,,,,BARBALHA,BR,827840-99999,2019,13,1.0
407910,99999,2019-10-05,33.668,56.893,705.0,90.0,1.0,33.0,,,,,,,,TABAS,IR,407910-99999,2019,13,1.0
818760,99999,2019-10-05,-6.228,-36.027,228.0,135.0,1.4,24.0,1016.0,,,,99.0,9999.0,,SANTA CRUZ,BR,818760-99999,2019,13,1.0
481120,99999,2019-10-05,9.97,98.58,46.0,220.0,0.5,27.2,1011.3,OVC,2.0,2.0,,,,VICTORIA POINT,BM,481120-99999,2019,13,1.0
112140,99999,2019-10-05,46.938,14.915,1034.0,50.0,1.0,10.7,,,,,6.0,60.0,,PREITENEGG,AU,112140-99999,2019,13,1.0
717300,99999,2019-10-05,46.617,-80.8,348.0,230.0,5.7,21.7,1010.4,BKN,,,24.0,0.0,,SUDBURY,CA,717300-99999,2019,13,1.0
013150,99999,2019-10-05,60.633,6.1,17.0,120.0,1.0,13.4,,,,,6.0,0.0,,EVANGER,NO,013150-99999,2019,13,1.0
038400,99999,2019-10-05,50.867,-3.233,253.0,340.0,2.6,12.9,1022.1,,,,6.0,0.0,,DUNKESWELL AERODROME,UK,038400-99999,2019,13,1.0
150990,99999,2019-10-05,46.857,23.033,560.0,0.0,0.0,13.7,,,,,6.0,9999.0,,HUEDIN,RO,150990-99999,2019,13,1.0
619800,99999,2019-10-05,-20.9,55.533,20.0,190.0,2.6,18.1,1019.5,BKN,0.0,,6.0,0.0,,ST DENIS GILLOT,RE,619800-99999,2019,13,1.0
868040,99999,2019-10-05,-19.988,-40.58,976.0,174.0,2.3,14.7,1020.7,,,,99.0,9999.0,,SANTA TEREZA,BR,868040-99999,2019,13,1.0
155253,99999,2019-10-05,43.151,25.713,87.0,,0.5,12.0,,CLR,,,,,,GORNA ORYAHOVITSA,BU,155253-99999,2019,13,1.0
124150,99999,2019-10-05,51.2,16.2,124.0,330.0,1.0,13.8,1009.9,,,,6.0,0.0,,LEGNICA,PL,124150-99999,2019,13,1.0
027370,99999,2019-10-05,63.821,24.163,84.0,0.0,0.0,4.5,1009.3,,,,,,0.0,TOHOLAMPI LAITALA,FI,027370-99999,2019,13,1.0
353250,99999,2019-10-05,49.933,56.4,188.0,140.0,3.0,22.3,1002.2,BKN,,,,,,LLINKA,KZ,353250-99999,2019,13,1.0
476370,99999,2019-10-05,35.517,137.817,529.0,160.0,1.0,22.6,1004.1,,,,12.0,0.0,,IIDA,JA,476370-99999,2019,13,1.0
994026,99999,2019-10-05,44.625,-124.043,2.0,300.0,3.6,16.8,1017.9,,,,,,,SOUTH BEACH,US,994026-99999,2019,13,1.0
143140,99999,2019-10-05,44.533,14.483,53.0,,,21.7,1011.0,,,,,,,MALI LOSINJ,HR,143140-99999,2019,13,1.0
261410,99999,2019-10-05,59.133,26.233,123.0,250.0,2.0,10.4,1009.2,OVC,,,3.0,0.0,,VALKE-MAARJA,EN,261410-99999,2019,13,1.0
283670,99999,2019-10-05,56.167,65.1,102.0,70.0,3.0,21.7,1013.9,BKN,,,,,,TYUMEN',RS,283670-99999,2019,13,1.0
711080,99999,2019-10-05,49.025,-122.363,59.0,220.0,3.6,25.0,1015.6,SCT,,,,,,ABBOTSFORD,CA,711080-99999,2019,13,1.0
717300,99999,2019-10-05,46.625,-80.799,348.0,230.0,5.7,22.0,1010.3,,,,,,,SUDBURY,CA,717300-99999,2019,13,1.0
726940,24232,2019-10-05,44.9,-123.0,61.0,,3.1,28.3,1014.0,FEW,,,,,,MCNARY FIELD AIRPORT,US,726940-24232,2019,13,1.0
069900,99999,2019-10-05,47.133,9.517,463.0,10.0,1.5,15.5,1015.4,BKN,10.0,9.0,6.0,30.0,,VADUZ,LS,069900-99999,2019,13,1.0
722140,93805,2019-10-05,30.446,-84.299,53.0,140.0,2.1,25.0,1015.3,BKN,,,6.0,60.0,,TALLAHASSEE REGIONAL AIRPORT,US,722140-93805,2019,13,1.0
607600,99999,2019-10-05,33.94,8.111,87.0,100.0,7.2,31.0,,,,,,,,NEFTA,TS,607600-99999,2019,13,1.0
060680,99999,2019-10-05,56.1,9.183,62.0,360.0,1.5,14.6,1012.6,,,,6.0,1.0,,ISENVAD,DA,060680-99999,2019,13,1.0
869610,99999,2019-10-05,-28.417,-54.962,246.0,24.0,3.9,21.0,1012.8,,,,99.0,9999.0,,SAO LUIZ GONZAGA,BR,869610-99999,2019,13,1.0
276530,99999,2019-10-05,55.367,43.783,127.0,,,9.2,1006.7,,11.0,1.0,,,,ARZAMAS,RS,276530-99999,2019,13,1.0
683290,99999,2019-10-05,-26.883,22.05,928.0,20.0,1.0,8.8,,,,,,,,VAN ZYLSRUS,SF,683290-99999,2019,13,1.0
012280,99999,2019-10-05,63.85,8.467,6.0,10.0,3.0,10.4,1015.7,,,,,,,SULA,NO,012280-99999,2019,13,1.0
915830,99999,2019-10-05,-20.93,165.33,14.0,,,24.5,,,,,99.0,9999.0,,POINDIMIE (NLLE-CALEDONIE),NC,915830-99999,2019,13,1.0
711080,99999,2019-10-05,49.033,-122.367,59.0,210.0,3.6,25.2,1015.6,SCT,,,24.0,0.0,,ABBOTSFORD,CA,711080-99999,2019,13,1.0
604680,99999,2019-10-05,35.752,6.309,822.0,0.0,0.0,23.0,,,,,,,,BATNA,AG,604680-99999,2019,13,1.0
011990,99999,2019-10-05,68.75,23.533,382.0,20.0,1.0,4.6,1015.8,,,,99.0,9999.0,,SIHCCAJAVRI,NO,011990-99999,2019,13,1.0
967370,99999,2019-10-05,-6.117,106.133,40.0,0.0,0.0,22.6,1012.8,SCT,,,,,,SERANG,ID,967370-99999,2019,13,1.0
943120,99999,2019-10-05,-20.378,118.626,10.0,130.0,7.2,21.0,,CLR,,,,,,PORT HEDLAND INTL,AS,943120-99999,2019,13,1.0
943120,99999,2019-10-05,-20.372,118.632,8.0,130.0,7.2,21.1,1022.8,,,,,,,PORT HEDLAND INTL,AS,943120-99999,2019,13,1.0
417800,99999,2019-10-05,24.9,67.133,22.0,230.0,5.1,30.0,1000.6,,,,12.0,0.0,,JINNAH INTL,PK,417800-99999,2019,13,1.0
042280,99999,2019-10-05,67.783,-53.967,12.0,180.0,5.7,3.8,1014.7,,,,,,,KITSISSUT (ATTU),GL,042280-99999,2019,13,1.0
720646,00228,2019-10-05,37.513,-122.501,20.0,320.0,6.2,14.0,,,,,,,,HALF MOON BAY AIRPORT,US,720646-00228,2019,13,1.0
162890,34113,2019-10-05,40.85,14.3,72.0,310.0,2.6,24.6,1012.4,SCT,,,6.0,0.0,,NAPLES NAVAL AIR STATION,IT,162890-34113,2019,13,1.0
334660,99999,2019-10-05,49.667,31.0,153.0,210.0,2.0,12.5,1009.0,FEW,10.0,1.0,,,,MYRONIVKA,UP,334660-99999,2019,13,1.0
999999,03739,2019-10-05,37.291,-75.927,9.0,,1.4,27.5,,,,,1.0,0.0,,CAPE CHARLES 5 ENE,US,999999-03739,2019,13,1.0
066880,99999,2019-10-05,46.85,9.183,2480.0,290.0,7.2,5.2,,,,,,,,CRAP MASEGN,SZ,066880-99999,2019,13,1.0
488920,99999,2019-10-05,11.417,114.333,5.0,200.0,3.0,29.2,1010.4,BKN,,,,,,SONG TU TAY (SOUTH WEST CAY),VM,488920-99999,2019,13,1.0
476070,99999,2019-10-05,36.717,137.2,17.0,20.0,2.1,24.1,1005.3,BKN,,,24.0,0.0,,TOYAMA,JA,476070-99999,2019,13,1.0
110180,99999,2019-10-05,48.1,14.9,271.0,210.0,1.0,15.0,1011.3,,,,6.0,0.0,,AMSTETTEN,AU,110180-99999,2019,13,1.0
525331,99999,2019-10-05,36.515,103.62,1947.0,340.0,2.0,16.0,,,,,,,,ZHONGCHUAN,CH,525331-99999,2019,13,1.0
636120,99999,2019-10-05,3.117,35.617,515.0,290.0,5.1,25.2,,BKN,13.0,2.0,,,,LODWAR,KE,636120-99999,2019,13,1.0
152600,99999,2019-10-05,45.786,24.091,456.0,,1.0,10.0,,,,,,,,SIBIU,RO,152600-99999,2019,13,1.0
817550,99999,2019-10-05,-3.121,-40.087,67.0,97.0,3.2,25.0,1014.0,,,,99.0,9999.0,,ACARAU,BR,817550-99999,2019,13,1.0
481030,99999,2019-10-05,16.5,97.62,21.0,140.0,0.5,25.0,1010.4,OVC,2.0,5.0,,,,MAWLAMYINE,BM,481030-99999,2019,13,1.0
787080,99999,2019-10-05,15.453,-87.924,28.0,10.0,6.2,30.0,,,,,,,,LA MESA INTL,HO,787080-99999,2019,13,1.0
787080,99999,2019-10-05,15.45,-87.933,31.0,10.0,6.2,30.4,1009.5,SCT,5.0,4.0,24.0,0.0,,LA MESA INTL,HO,787080-99999,2019,13,1.0
368390,99999,2019-10-05,44.367,77.9,948.0,,,12.9,1004.3,SCT,,,,,,SARYOZEK,KZ,368390-99999,2019,13,1.0
718320,99999,2019-10-05,49.75,-84.17,264.0,240.0,3.1,19.3,1005.4,,,,1.0,15.0,,NAGAGAMI (AUT)  ONT,CA,718320-99999,2019,13,1.0
689350,99999,2019-10-05,-34.05,23.083,54.0,60.0,1.0,10.7,1020.6,,,,18.0,30.0,,KNYSNA,SF,689350-99999,2019,13,1.0
636190,99999,2019-10-05,3.53,39.03,1097.0,160.0,2.6,20.2,,SCT,,,1.0,9999.0,,MOYALE LOWER (ODA),KE,636190-99999,2019,13,1.0
407910,99999,2019-10-05,33.6,56.917,711.0,,,33.5,993.4,,,,6.0,0.0,,TABAS,IR,407910-99999,2019,13,1.0
349290,99999,2019-10-05,45.035,39.171,36.0,0.0,0.0,19.0,,,,,,,,PASHKOVSKIY,RS,349290-99999,2019,13,1.0
072554,99999,2019-10-05,47.053,2.633,177.0,350.0,1.5,18.0,,,,,,,,AVORD,FR,072554-99999,2019,13,1.0
484076,99999,2019-10-05,17.238,99.818,55.0,220.0,3.6,28.0,,,,,,,,SUKHOTHAI,TH,484076-99999,2019,13,1.0
606700,99999,2019-10-05,24.293,9.452,968.0,80.0,7.2,30.0,,,,,,,,TISKA,AG,606700-99999,2019,13,1.0
012410,99999,2019-10-05,63.7,9.6,10.0,340.0,3.0,11.1,1014.9,OVC,15.0,5.0,6.0,0.0,,ORLAND,NO,012410-99999,2019,13,1.0
476340,99999,2019-10-05,35.394,136.87,39.0,,1.0,25.0,,,,,,,,GIFU,JA,476340-99999,2019,13,1.0
151630,99999,2019-10-05,46.535,23.31,1360.0,190.0,2.0,8.0,,,0.0,0.0,3.0,9999.0,0.0,BAISOARA,RO,151630-99999,2019,13,1.0
333770,99999,2019-10-05,50.0,33.017,158.0,270.0,1.0,12.4,1008.6,,10.0,1.0,,,,LUBNY,UP,333770-99999,2019,13,1.0
545110,99999,2019-10-05,40.08,116.585,35.0,90.0,2.0,27.0,,CLR,10.0,,,,,BEIJING - CAPITAL INTERNATIONAL AIRPORT,CH,545110-99999,2019,13,1.0
606700,99999,2019-10-05,24.293,9.451,968.0,80.0,7.2,29.6,,CLR,,,6.0,9999.0,,TISKA,AG,606700-99999,2019,13,1.0
075000,99999,2019-10-05,44.633,-1.25,10.0,350.0,3.1,20.7,1019.6,SCT,,,6.0,0.0,,CAP FERRET,FR,075000-99999,2019,13,1.0
067210,99999,2019-10-05,46.368,8.192,1479.0,58.0,1.6,11.6,,,,,6.0,2.0,,BINN,SZ,067210-99999,2019,13,1.0
998172,99999,2019-10-05,56.05,-132.7,12.0,180.0,3.6,17.8,1014.5,,,,,,,LINCOLN ROCK,US,998172-99999,2019,13,1.0
998005,99999,2019-10-05,33.35,-79.191,9999.0,,,,,,,,1.0,0.0,,NORTH INLET-WINYAH BAY,US,998005-99999,2019,13,1.0
998005,99999,2019-10-05,33.35,-79.183,4.0,220.0,4.6,28.4,1014.0,,,,,,,NORTH INLET-WINYAH BAY,US,998005-99999,2019,13,1.0
718320,99999,2019-10-05,49.733,-84.15,264.0,240.0,3.1,19.3,1005.4,,,,24.0,15.0,,NAGAGAMI (AUT)  ONT,CA,718320-99999,2019,13,1.0
165200,99999,2019-10-05,40.633,8.283,40.0,280.0,1.0,23.0,1014.3,,,,6.0,0.0,,ALGHERO,IT,165200-99999,2019,13,1.0
141210,99999,2019-10-05,45.8,15.183,220.0,260.0,1.0,14.9,1012.5,SCT,,,,,,NOVO MESTO,SI,141210-99999,2019,13,1.0
723120,03870,2019-10-05,34.9,-82.217,296.0,230.0,4.1,28.3,1012.9,,,,,,,GREENVILLE-SPARTANBURG INTL AIRPORT,US,723120-03870,2019,13,1.0
673350,99999,2019-10-05,-25.05,33.633,4.0,200.0,6.2,22.3,1021.7,BKN,,,,,,XAI XAI,MZ,673350-99999,2019,13,1.0
014440,99999,2019-10-05,59.2,7.517,302.0,120.0,1.0,11.6,,,,,6.0,0.0,,VALLE,NO,014440-99999,2019,13,1.0
071060,99999,2019-10-05,48.53,-4.152,106.0,350.0,2.6,14.0,,,,,,,,LANDIVISIAU,FR,071060-99999,2019,13,1.0
042850,99999,2019-10-05,59.983,-45.146,16.0,290.0,6.7,5.1,1017.7,,,,,,,ANGISOQ,GL,042850-99999,2019,13,1.0
369050,99999,2019-10-05,43.317,79.483,1273.0,120.0,2.0,21.8,,FEW,,,,,,PODGORNOJE,KZ,369050-99999,2019,13,1.0
299060,99999,2019-10-05,52.917,77.417,112.0,10.0,1.0,14.5,1014.1,FEW,,,,,,USPENKA,KZ,299060-99999,2019,13,1.0
838270,99999,2019-10-05,-25.517,-54.583,180.0,60.0,2.1,21.9,1014.3,SCT,,,6.0,0.0,,CATARATAS INTL,BR,838270-99999,2019,13,1.0
838270,99999,2019-10-05,-25.596,-54.487,240.0,60.0,2.1,22.0,,,,,,,,CATARATAS INTL,BR,838270-99999,2019,13,1.0
714780,99999,2019-10-05,50.817,-128.9,111.0,240.0,,15.6,1016.8,,,,,,,SARTINE ISLAND (AUT),CA,714780-99999,2019,13,1.0
714780,99999,2019-10-05,50.819,-129.772,104.0,,,15.6,1016.8,,,,24.0,9999.0,,SARTINE ISLAND (AUT),CA,714780-99999,2019,13,1.0
574470,99999,2019-10-05,30.283,109.467,458.0,,,22.9,1005.0,OVC,,,24.0,0.0,,ENSHI,CH,574470-99999,2019,13,1.0
310540,99999,2019-10-05,59.183,135.15,212.0,,,19.4,1008.0,,,,,,,UST'-JUDOMA,RS,310540-99999,2019,13,1.0
742077,03763,2019-10-05,36.437,-79.851,211.0,,,27.8,,,,,,,,ROCKINGHAM COUNTY NC SHILOH AIRPORT,US,742077-03763,2019,13,1.0
948420,99999,2019-10-05,-38.85,143.517,83.0,220.0,18.0,10.4,1013.2,,,,,,,CAPE OTWAY LIGHTHOUSE,AS,948420-99999,2019,13,1.0
890560,99999,2019-10-05,-62.191,-58.987,45.0,260.0,7.7,-3.0,,,,,,,,CENTRO MET. ANTARTICO PDTE. EDUARDO FREI,AY,890560-99999,2019,13,1.0
858640,99999,2019-10-05,-45.594,-72.106,311.0,10.0,2.1,4.0,,,,,,,,TENIENTE VIDAL,CI,858640-99999,2019,13,1.0
085060,99999,2019-10-05,38.53,-28.629,60.0,190.0,4.0,22.0,1025.4,,,,1.0,9999.0,,HORTA (ACORES),PO,085060-99999,2019,13,1.0
075100,99999,2019-10-05,44.833,-0.683,54.0,340.0,2.6,19.0,1019.6,,0.0,,6.0,0.0,,MERIGNAC,FR,075100-99999,2019,13,1.0
075100,99999,2019-10-05,44.828,-0.716,49.0,340.0,2.6,19.0,,,,,,,,MERIGNAC,FR,075100-99999,2019,13,1.0
484190,99999,2019-10-05,14.1,100.617,7.0,230.0,3.6,28.2,1009.9,FEW,10.0,1.0,,,,PATHUMTHANI,TH,484190-99999,2019,13,1.0
890130,99999,2019-10-05,-82.767,-13.05,1968.0,80.0,9.3,-50.2,1003.1,,,,,,,BALDRICK AWS,AY,890130-99999,2019,13,1.0
042021,99999,2019-10-05,68.717,-52.8,27.0,330.0,1.0,6.1,1014.7,,,,,,,AASIAAT MITTARFIA,GL,042021-99999,2019,13,1.0
725780,24156,2019-10-05,42.917,-112.6,1365.0,220.0,5.7,31.1,1011.6,SCT,,,,,,POCATELLO REGIONAL AIRPORT,US,725780-24156,2019,13,1.0
063750,99999,2019-10-05,51.65,5.7,21.0,280.0,3.0,15.9,1015.5,OVC,,,6.0,0.0,,VOLKEL,NL,063750-99999,2019,13,1.0
426710,99999,2019-10-05,23.85,78.75,551.0,230.0,1.0,25.6,1002.1,FEW,,,,,,SAGAR,IN,426710-99999,2019,13,1.0
368700,99999,2019-10-05,43.233,76.933,851.0,130.0,1.0,22.6,1000.5,OVC,,,,,,ALMATY,KZ,368700-99999,2019,13,1.0
477420,99999,2019-10-05,35.55,133.233,4.0,240.0,1.5,22.8,1004.9,,,,12.0,0.0,,SAKAI,JA,477420-99999,2019,13,1.0
287751,99999,2019-10-05,54.4,68.4,115.0,120.0,4.0,17.8,1014.5,FEW,,,,,,JAVLENKA,KZ,287751-99999,2019,13,1.0
043010,99999,2019-10-05,83.65,-33.367,4.0,90.0,5.1,1.6,1011.4,,,,,,,KAP MORRIS JESUP,GL,043010-99999,2019,13,1.0
726350,94860,2019-10-05,42.883,-85.517,245.0,270.0,4.6,25.0,1013.5,FEW,,,,,,GERALD R FORD INTERNATIONAL AIRPORT,US,726350-94860,2019,13,1.0
172800,99999,2019-10-05,37.897,40.203,674.0,270.0,5.1,22.1,1000.1,CLR,,,6.0,9999.0,,DIYARBAKIR,TU,172800-99999,2019,13,1.0
407822,99999,2019-10-05,36.663,51.465,-19.0,320.0,3.1,27.0,,,80.0,,,,,NOSHAHR,IR,407822-99999,2019,13,1.0
310160,99999,2019-10-05,58.633,128.5,231.0,330.0,2.0,18.2,1008.0,OVC,,,12.0,0.0,,UGINO,RS,310160-99999,2019,13,1.0
062670,99999,2019-10-05,52.9,5.383,3.0,340.0,4.0,16.9,,OVC,,,6.0,0.0,,STAVOREN AWS,NL,062670-99999,2019,13,1.0
386470,99999,2019-10-05,39.25,55.517,31.0,80.0,1.0,32.4,997.7,BKN,,,,,,GAZANDZHYK,TX,386470-99999,2019,13,1.0
411703,99999,2019-10-05,25.267,51.6,4.0,310.0,2.6,31.6,995.7,,,,,,,DOHA,QA,411703-99999,2019,13,1.0
722900,23188,2019-10-05,32.733,-117.167,9.0,300.0,3.1,22.2,1009.8,FEW,,,,,,SAN DIEGO INTERNATIONAL AIRPORT,US,722900-23188,2019,13,1.0
133530,99999,2019-10-05,43.825,18.331,521.0,,1.0,12.0,,,,,,,,SARAJEVO,BK,133530-99999,2019,13,1.0
890560,99999,2019-10-05,-62.183,-58.983,48.0,260.0,7.7,-2.7,1016.0,OVC,2.0,2.0,6.0,0.0,,CENTRO MET. ANTARTICO PDTE. EDUARDO FREI,AY,890560-99999,2019,13,1.0
411703,99999,2019-10-05,25.267,51.6,4.0,300.0,2.6,32.0,,,,,,,,DOHA,QA,411703-99999,2019,13,1.0
812020,99999,2019-10-05,5.95,-57.033,2.0,60.0,4.1,27.2,1013.0,BKN,13.0,9.0,24.0,21.0,,NICKERIE,NS,812020-99999,2019,13,1.0
367360,99999,2019-10-05,46.65,82.75,441.0,100.0,1.0,19.3,1003.7,,,,,,,BAHTY,KZ,367360-99999,2019,13,1.0
352830,99999,2019-10-05,50.833,72.183,411.0,40.0,2.0,14.6,1013.7,FEW,,,,,,VISHNEVKA,KZ,352830-99999,2019,13,1.0
152350,99999,2019-10-05,45.836,24.935,428.0,120.0,1.0,12.0,1014.5,,,,6.0,9999.0,,FAGARAS,RO,152350-99999,2019,13,1.0
407822,99999,2019-10-05,36.65,51.5,-25.0,320.0,3.0,27.4,1004.2,BKN,80.0,5.0,6.0,1.0,,NOSHAHR,IR,407822-99999,2019,13,1.0
725070,14765,2019-10-05,41.733,-71.433,19.0,0.0,0.0,25.6,1006.4,FEW,,,6.0,5.0,,THEODORE F GREEN STATE AIRPORT,US,725070-14765,2019,13,1.0
425710,99999,2019-10-05,24.567,80.833,316.0,230.0,0.5,27.0,1000.7,FEW,,,,,,SATNA,IN,425710-99999,2019,13,1.0
716015,99999,2019-10-05,44.63,-63.52,6.0,140.0,5.7,16.1,1011.4,,,,1.0,10.0,,SHEARWATER JETTY,CA,716015-99999,2019,13,1.0
999999,63897,2019-10-05,32.335,-86.979,48.0,161.0,5.8,26.1,,,,,1.0,0.0,,SELMA 6 SSE,US,999999-63897,2019,13,1.0
336780,99999,2019-10-05,48.2,28.3,173.0,280.0,1.0,11.1,1010.9,,,,,,,SOROCA,MD,336780-99999,2019,13,1.0
288841,99999,2019-10-05,53.6,70.5,165.0,140.0,1.0,11.9,1016.3,,,,,,,CHKALOVO,KZ,288841-99999,2019,13,1.0
013590,99999,2019-10-05,60.533,8.2,773.0,,,8.4,1012.7,,,,6.0,1.0,,GEILO-OLDEBRATEN,NO,013590-99999,2019,13,1.0
959660,99999,2019-10-05,-41.55,147.217,168.0,340.0,3.6,5.8,1001.5,,,,,,,LAUNCESTON AIRPORT,AS,959660-99999,2019,13,1.0
033820,99999,2019-10-05,53.874,-0.44,7.0,270.0,1.0,15.7,1019.1,,,,6.0,9999.0,,LECONFIELD,UK,033820-99999,2019,13,1.0
075630,99999,2019-10-05,43.9,4.9,48.0,330.0,5.7,25.4,1013.2,,0.0,,6.0,0.0,,AVIGNON,FR,075630-99999,2019,13,1.0
351070,99999,2019-10-05,51.117,50.317,72.0,330.0,4.0,16.4,999.9,OVC,2.0,8.0,,,,KAMEMKA,KZ,351070-99999,2019,13,1.0
289780,99999,2019-10-05,52.533,68.75,398.0,,,12.0,1015.7,,,,,,,BALKASINO,KZ,289780-99999,2019,13,1.0
042420,99999,2019-10-05,65.017,-52.55,14.0,140.0,4.1,5.0,1016.3,,,,,,,SIORALIK,GL,042420-99999,2019,13,1.0
341860,99999,2019-10-05,50.933,47.6,111.0,330.0,4.0,14.5,1003.7,OVC,51.0,8.0,,,,ERSHOV,RS,341860-99999,2019,13,1.0
063800,99999,2019-10-05,50.9,5.75,114.0,280.0,2.0,13.9,1015.9,OVC,,,6.0,0.0,,MAASTRICHT,NL,063800-99999,2019,13,1.0
024030,99999,2019-10-05,58.7,13.117,53.0,190.0,1.0,15.3,,BKN,,,1.0,0.0,,NAVEN,SW,024030-99999,2019,13,1.0
714650,99999,2019-10-05,42.25,-81.9,178.0,200.0,3.1,22.9,1013.3,,,,24.0,9999.0,,ERIEAU (AUT)  ONT,CA,714650-99999,2019,13,1.0
890650,99999,2019-10-05,-71.317,-68.283,69.0,80.0,1.5,-2.5,1012.0,,,,,,,FOSSIL BLUFF,AY,890650-99999,2019,13,1.0
478930,99999,2019-10-05,33.567,133.55,5.0,270.0,1.5,24.0,1005.8,OVC,61.0,6.0,24.0,0.0,,KOCHI,JA,478930-99999,2019,13,1.0
998198,99999,2019-10-05,59.433,-151.717,0.0,0.0,0.0,,1014.0,,,,,,,SELDOVIA,US,998198-99999,2019,13,1.0
717210,99999,2019-10-05,46.267,-76.0,200.0,210.0,1.0,21.6,1008.9,,,,24.0,0.0,,MANIWAKI AIRPORT,CA,717210-99999,2019,13,1.0
480190,99999,2019-10-05,24.267,97.2,113.0,0.0,0.0,25.3,1003.3,OVC,2.0,9.0,12.0,120.0,,BHAMO,BM,480190-99999,2019,13,1.0
287110,99999,2019-10-05,53.933,52.6,304.0,330.0,5.0,14.5,1001.5,OVC,10.0,9.0,,,,BUGUL'MA,RS,287110-99999,2019,13,1.0
998306,99999,2019-10-05,25.619,-81.044,3.0,0.0,0.0,,,,,,,,,WILLY WILLY,US,998306-99999,2019,13,1.0
999999,03728,2019-10-05,33.153,-79.364,3.0,,1.4,27.7,,,,,1.0,0.0,,MCCLELLANVILLE 7 NE,US,999999-03728,2019,13,1.0
489280,99999,2019-10-05,20.417,104.067,1000.0,320.0,1.0,20.7,,SCT,10.0,,1.0,9999.0,,SAM-NEUA,LA,489280-99999,2019,13,1.0
769030,99999,2019-10-05,14.917,-92.25,118.0,90.0,2.0,25.4,1010.5,BKN,61.0,2.0,24.0,42.0,,TAPACHULA  CHIS,MX,769030-99999,2019,13,1.0
727760,99999,2019-10-05,47.45,-111.383,1131.0,30.0,4.6,29.4,1011.2,,,,,,,GREAT FALLS,US,727760-99999,2019,13,1.0
714650,99999,2019-10-05,42.25,-81.9,178.0,200.0,3.1,22.9,1013.3,,,,,,,ERIEAU (AUT)  ONT,CA,714650-99999,2019,13,1.0
863500,99999,2019-10-05,-30.883,-55.533,242.0,0.0,0.0,17.5,1012.9,BKN,29.0,9.0,6.0,8.0,,PRESIDENTE GENERAL DON OSCAR D GESTIDO,UY,863500-99999,2019,13,1.0
012090,99999,2019-10-05,62.167,6.067,74.0,250.0,1.0,11.8,1014.9,,,,,,,ORSTA-VOLDA/HOVDEN,NO,012090-99999,2019,13,1.0
042200,99999,2019-10-05,68.7,-52.85,41.0,340.0,1.5,5.9,1014.9,,,,6.0,9999.0,,AASIAAT (EGEDESMINDE),GL,042200-99999,2019,13,1.0
030750,99999,2019-10-05,58.454,-3.088,36.0,200.0,1.0,11.1,1020.3,,,,6.0,9999.0,,WICK,UK,030750-99999,2019,13,1.0
994660,99999,2019-10-05,61.06,-146.7,7.0,0.0,0.0,17.4,1016.0,,,,,,,POTATO POINT,US,994660-99999,2019,13,1.0
075030,99999,2019-10-05,44.433,-1.25,39.0,350.0,4.1,20.6,1019.7,OVC,0.0,,6.0,0.0,,BISCAROSSE/PARENTIS,FR,075030-99999,2019,13,1.0
082330,99999,2019-10-05,40.933,-1.3,889.0,50.0,0.5,21.1,,,,,6.0,0.0,,CALAMOCHA,SP,082330-99999,2019,13,1.0
711570,99999,2019-10-05,53.57,-113.52,671.0,280.0,3.1,25.7,1010.7,,,,,,,EDMONTON MUNICIPAL CR10  ALTA,CA,711570-99999,2019,13,1.0
714480,99999,2019-10-05,50.167,-96.05,268.0,320.0,3.1,21.4,1012.6,,,,24.0,9999.0,,PINAWA  MAN,CA,714480-99999,2019,13,1.0
154690,99999,2019-10-05,44.1,24.367,107.0,210.0,1.0,16.3,1012.0,,,,6.0,0.0,,CARACAL,RO,154690-99999,2019,13,1.0
719850,99999,2019-10-05,69.43,-133.02,5.0,,,7.9,1012.4,,,,,,,TUKTOYAKTUK  NWT,CA,719850-99999,2019,13,1.0
997308,99999,2019-10-05,37.53,-76.02,10.0,0.0,0.0,,1011.0,,,,,,,RAPPAHANNOCK LGT,US,997308-99999,2019,13,1.0
915740,99999,2019-10-05,-19.968,158.476,4.0,120.0,5.9,24.2,1018.2,,,,,,,ILE LOOP (CHESTERFIELD),NC,915740-99999,2019,13,1.0
714370,99999,2019-10-05,43.3,-79.8,77.0,250.0,2.1,22.3,1012.1,,,,,,,BURLINGTON PIERS (AUT)  ONT,CA,714370-99999,2019,13,1.0
405700,99999,2019-10-05,29.1,46.683,289.0,300.0,3.6,29.6,999.4,,,,,,,SALMY,KU,405700-99999,2019,13,1.0
478140,99999,2019-10-05,33.317,130.933,84.0,30.0,1.0,22.0,1004.9,,,,12.0,20.0,,HITA,JA,478140-99999,2019,13,1.0
544050,99999,2019-10-05,40.417,115.5,538.0,320.0,1.0,23.3,1002.3,SCT,,,24.0,1.0,,HUAILAI,CH,544050-99999,2019,13,1.0
867950,99999,2019-10-05,-19.875,-47.434,913.0,0.0,0.0,15.6,1020.3,,,,99.0,9999.0,,SACRAMENTO,BR,867950-99999,2019,13,1.0
719850,99999,2019-10-05,69.433,-133.017,5.0,0.0,0.0,7.9,1012.4,,,,24.0,9999.0,,TUKTOYAKTUK  NWT,CA,719850-99999,2019,13,1.0
075910,99999,2019-10-05,44.567,6.5,876.0,0.0,0.0,16.2,,,0.0,,6.0,0.0,,EMBRUN,FR,075910-99999,2019,13,1.0
474410,99999,2019-10-05,45.404,141.801,9.0,90.0,5.7,16.0,,,,,,,,WAKKANAI,JA,474410-99999,2019,13,1.0
061930,99999,2019-10-05,55.3,14.767,9.0,90.0,1.5,13.4,1011.4,,,,6.0,9999.0,,HAMMER ODDE FYR,DA,061930-99999,2019,13,1.0
479270,99999,2019-10-05,24.783,125.295,46.0,220.0,8.8,30.0,,,,,,,,MIYAKO,JA,479270-99999,2019,13,1.0
479270,99999,2019-10-05,24.8,125.283,42.0,210.0,7.2,30.4,1007.3,FEW,,,24.0,0.0,,MIYAKO,JA,479270-99999,2019,13,1.0
711200,99999,2019-10-05,54.405,-110.279,541.0,250.0,3.6,25.0,1010.1,FEW,,,,,,COLD LAKE,CA,711200-99999,2019,13,1.0
260630,99999,2019-10-05,59.95,30.3,78.0,,,11.6,1007.5,OVC,,,,,,PULKOVO,RS,260630-99999,2019,13,1.0
712360,99999,2019-10-05,49.63,-114.48,1303.0,280.0,4.1,23.9,,,,,,,,CROWSNEST  ALTA,CA,712360-99999,2019,13,1.0
260630,99999,2019-10-05,59.8,30.263,24.0,270.0,2.0,11.0,,,,,,,,PULKOVO,RS,260630-99999,2019,13,1.0
998246,99999,2019-10-05,18.483,-66.7,3.0,80.0,3.1,,,,,,,,,ARECIBO,RQ,998246-99999,2019,13,1.0
619010,99999,2019-10-05,-15.933,-5.667,436.0,100.0,7.2,17.2,1020.2,,,,6.0,0.0,,ST. HELENA IS.,SH,619010-99999,2019,13,1.0
344731,99999,2019-10-05,49.4,46.8,28.0,290.0,4.0,13.8,1007.2,FEW,,,,,,JANIBEK,KZ,344731-99999,2019,13,1.0
480600,99999,2019-10-05,21.3,99.617,828.0,270.0,0.5,25.0,1005.8,BKN,,,12.0,0.0,,KENGTUNG,BM,480600-99999,2019,13,1.0
072350,99999,2019-10-05,47.933,0.183,52.0,10.0,1.5,18.6,1019.7,,0.0,,6.0,0.0,,ARNAGE,FR,072350-99999,2019,13,1.0
117820,99999,2019-10-05,49.7,18.117,252.0,230.0,2.0,14.9,1010.1,OVC,,,6.0,0.0,,MOSNOV,EZ,117820-99999,2019,13,1.0
080250,99999,2019-10-05,43.301,-2.911,42.0,80.0,2.1,18.0,,CLR,,,,,,BILBAO,SP,080250-99999,2019,13,1.0
368430,99999,2019-10-05,44.633,78.75,1114.0,80.0,2.0,15.4,1005.9,FEW,,,,,,KOK-SU,KZ,368430-99999,2019,13,1.0
040640,99999,2019-10-05,63.783,-18.067,38.0,70.0,0.5,12.1,1017.2,,,,3.0,0.0,,KIRKJUBAEJARKLAUSTUR,IC,040640-99999,2019,13,1.0
683980,99999,2019-10-05,-26.433,31.95,667.0,0.0,0.0,12.9,,,,,,,,SITEKI,WZ,683980-99999,2019,13,1.0
035220,99999,2019-10-05,52.083,-2.8,76.0,310.0,1.5,14.1,1022.2,,,,6.0,0.0,,HEREFORD/CREDENHILL,UK,035220-99999,2019,13,1.0
080250,99999,2019-10-05,43.3,-2.9,39.0,70.0,2.6,17.6,1020.6,,,,6.0,0.0,,BILBAO,SP,080250-99999,2019,13,1.0
914900,99999,2019-10-05,1.983,-157.483,3.0,140.0,3.6,30.8,1007.4,SCT,80.0,1.0,24.0,9999.0,,CHRISTMAS ISLAND,KR,914900-99999,2019,13,1.0
872440,99999,2019-10-05,-29.9,-63.683,341.0,0.0,0.0,9.5,1018.5,BKN,10.0,1.0,,,,VILLA MARIA DEL RIO,AR,872440-99999,2019,13,1.0
914900,99999,2019-10-05,1.986,-157.35,2.0,140.0,3.6,31.0,,,,,,,,CHRISTMAS ISLAND,KR,914900-99999,2019,13,1.0
712360,99999,2019-10-05,49.617,-114.483,1303.0,280.0,4.1,23.9,,,,,24.0,0.0,,CROWSNEST  ALTA,CA,712360-99999,2019,13,1.0
711200,99999,2019-10-05,54.417,-110.283,541.0,250.0,5.1,25.0,1010.1,FEW,,,24.0,0.0,,COLD LAKE,CA,711200-99999,2019,13,1.0
033790,99999,2019-10-05,53.033,-0.5,62.0,310.0,4.1,15.0,1019.7,,,,6.0,2.0,,CRANWELL,UK,033790-99999,2019,13,1.0
917830,99999,2019-10-05,-18.585,-173.962,72.0,140.0,4.1,25.0,,,,,,,,VAVAU INTL,TN,917830-99999,2019,13,1.0
071060,99999,2019-10-05,48.517,-4.15,115.0,350.0,2.1,13.8,1022.6,,0.0,,6.0,0.0,,LANDIVISIAU,FR,071060-99999,2019,13,1.0
710020,99999,2019-10-05,53.567,-64.1,440.0,200.0,3.6,20.4,1008.4,OVC,,,24.0,0.0,,CHURCHILL FALLS,CA,710020-99999,2019,13,1.0
716790,99999,2019-10-05,53.77,-125.98,861.0,300.0,4.1,18.2,1015.4,,,,24.0,0.0,,OOTSA LAKESKINS LAKE,CA,716790-99999,2019,13,1.0
716790,99999,2019-10-05,53.77,-126.0,861.0,300.0,4.1,18.1,1015.4,,,,,,,OOTSA LAKESKINS LAKE,CA,716790-99999,2019,13,1.0
167460,99999,2019-10-05,35.533,24.15,149.0,250.0,2.1,21.8,1010.7,,,,6.0,0.0,,SOUDA,GR,167460-99999,2019,13,1.0
480740,99999,2019-10-05,19.717,96.217,104.0,0.0,0.0,24.8,1008.9,OVC,2.0,6.0,12.0,60.0,,PYINMANA,BM,480740-99999,2019,13,1.0
072660,99999,2019-10-05,47.817,3.55,153.0,340.0,1.5,17.1,1018.0,,0.0,,6.0,0.0,,BRANCHES,FR,072660-99999,2019,13,1.0
715650,99999,2019-10-05,52.55,-114.47,947.0,160.0,2.1,22.7,,,,,24.0,0.0,,LEEDALE AGDM,CA,715650-99999,2019,13,1.0
715650,99999,2019-10-05,52.55,-114.47,947.0,160.0,2.1,22.7,,,,,,,,LEEDALE AGDM,CA,715650-99999,2019,13,1.0
033910,99999,2019-10-05,53.094,-0.171,6.0,330.0,2.6,15.7,1019.5,BKN,,,6.0,9999.0,,CONINGSBY,UK,033910-99999,2019,13,1.0
713240,99999,2019-10-05,44.62,-63.42,30.0,130.0,7.2,15.7,1010.8,,,,1.0,4.0,,OSBORNE HEAD DND,CA,713240-99999,2019,13,1.0
475920,99999,2019-10-05,38.433,141.3,43.0,340.0,3.6,23.7,1004.8,,,,12.0,20.0,,ISHINOMAKI,JA,475920-99999,2019,13,1.0
012540,99999,2019-10-05,62.983,10.55,127.0,200.0,1.0,10.2,,,,,6.0,0.0,,KOTSOY,NO,012540-99999,2019,13,1.0
702710,26425,2019-10-05,62.15,-145.45,481.0,170.0,2.6,19.4,1012.5,BKN,,,,,,GULKANA AIRPORT,US,702710-26425,2019,13,1.0
710830,99999,2019-10-05,62.817,-92.117,32.0,180.0,1.5,12.6,997.0,OVC,51.0,8.0,24.0,26.0,,RANKIN INLET,CA,710830-99999,2019,13,1.0
987410,99999,2019-10-05,8.6,123.35,5.0,140.0,1.0,25.6,1010.7,OVC,5.0,4.0,24.0,52.0,,DIPOLOG,RP,987410-99999,2019,13,1.0
710830,99999,2019-10-05,62.811,-92.116,29.0,190.0,1.5,13.0,997.0,,51.0,,,,,RANKIN INLET,CA,710830-99999,2019,13,1.0
072350,99999,2019-10-05,47.949,0.202,59.0,10.0,1.5,19.0,,,,,,,,ARNAGE,FR,072350-99999,2019,13,1.0
710020,99999,2019-10-05,53.567,-64.1,440.0,200.0,3.6,20.0,1008.3,,,,,,,CHURCHILL FALLS,CA,710020-99999,2019,13,1.0
288790,99999,2019-10-05,53.283,69.383,229.0,,,14.3,1015.4,,,,,,,KOKSHETAY,KZ,288790-99999,2019,13,1.0
719200,99999,2019-10-05,43.45,-65.467,5.0,130.0,9.8,14.7,1006.0,,,,24.0,51.0,,BACCARO PT,CA,719200-99999,2019,13,1.0
480990,99999,2019-10-05,16.75,97.67,9.0,130.0,0.5,24.6,1011.2,OVC,2.0,5.0,,,,HPAAN,BM,480990-99999,2019,13,1.0
388860,99999,2019-10-05,37.383,60.517,186.0,330.0,2.0,26.8,999.0,,,,,,,TEDZHEN,TX,388860-99999,2019,13,1.0
244770,99999,2019-10-05,65.3,135.8,675.0,,,18.5,1007.9,SCT,4.0,0.0,,,,IEMA,RS,244770-99999,2019,13,1.0
072660,99999,2019-10-05,47.85,3.497,159.0,360.0,2.1,17.0,,,,,,,,BRANCHES,FR,072660-99999,2019,13,1.0
713490,99999,2019-10-05,54.5,-111.7,585.0,270.0,3.6,23.8,,,,,,,,RICH LAKE AGDM  ALTA,CA,713490-99999,2019,13,1.0
724020,93739,2019-10-05,37.933,-75.483,12.0,210.0,2.1,29.4,1010.1,,,,,,,WALLOPS FLIGHT FACILITY AIRPORT,US,724020-93739,2019,13,1.0
117300,99999,2019-10-05,50.183,17.117,1327.0,280.0,3.0,9.1,,,,,6.0,0.0,,SERAK,EZ,117300-99999,2019,13,1.0
766540,99999,2019-10-05,19.05,-104.317,3.0,140.0,1.0,31.8,1009.1,BKN,5.0,4.0,,,,MANZANILLO  COL.,MX,766540-99999,2019,13,1.0
171700,99999,2019-10-05,38.469,43.337,1665.0,150.0,4.6,20.5,,FEW,,,6.0,9999.0,,VAN,TU,171700-99999,2019,13,1.0
480100,99999,2019-10-05,24.867,94.917,131.0,220.0,0.5,26.0,1002.8,BKN,,,12.0,0.0,,HOMALIN,BM,480100-99999,2019,13,1.0
304550,99999,2019-10-05,55.467,113.617,1097.0,300.0,6.0,13.2,,OVC,80.0,9.0,12.0,40.0,,UAKIT,RS,304550-99999,2019,13,1.0
014670,99999,2019-10-05,58.633,9.15,5.0,300.0,1.0,15.2,1010.1,,,,,,,LYNGOR FYR,NO,014670-99999,2019,13,1.0
378650,99999,2019-10-05,51.073,58.596,277.0,160.0,5.0,22.0,,,,,,,,ORSK,RS,378650-99999,2019,13,1.0
858640,99999,2019-10-05,-45.594,-72.109,310.0,10.0,2.1,3.9,1010.3,BKN,4.0,8.0,6.0,0.0,,TENIENTE VIDAL,CI,858640-99999,2019,13,1.0
083300,99999,2019-10-05,38.883,-6.814,185.0,240.0,2.1,24.7,1014.8,,,,6.0,9999.0,,TALAVERA LA REAL,SP,083300-99999,2019,13,1.0
368940,99999,2019-10-05,43.483,78.4,870.0,,,19.9,1000.8,FEW,,,,,,MALIBAY,KZ,368940-99999,2019,13,1.0
915730,99999,2019-10-05,-19.72,163.66,82.0,100.0,7.0,23.2,,,,,99.0,9999.0,,ILE ART (BELEP),NC,915730-99999,2019,13,1.0
443250,99999,2019-10-05,45.15,97.767,2417.0,90.0,5.0,18.2,1006.7,OVC,2.0,6.0,12.0,20.0,,ERDENI,MG,443250-99999,2019,13,1.0
717210,99999,2019-10-05,46.267,-76.0,200.0,210.0,1.0,21.6,1008.9,,,,,,,MANIWAKI AIRPORT,CA,717210-99999,2019,13,1.0
720282,03736,2019-10-05,36.018,-75.671,4.0,0.0,0.0,28.6,,CLR,,,,,,FIRST FLIGHT AIRPORT,US,720282-03736,2019,13,1.0
994390,99999,2019-10-05,26.7,-79.0,2.0,130.0,2.1,28.5,1017.2,,,,,,,SETTLEMENT POINT  GBI,US,994390-99999,2019,13,1.0
819400,99999,2019-10-05,-8.304,-49.283,176.0,302.0,1.3,24.5,1013.4,,,,99.0,9999.0,,CONCEICAO DO ARAGUAIA,BR,819400-99999,2019,13,1.0
685810,99999,2019-10-05,-29.633,30.4,673.0,0.0,0.0,11.6,,,,,,,,PIETERMARITZBURG,SF,685810-99999,2019,13,1.0
869800,99999,2019-10-05,-29.369,-50.827,831.0,38.0,2.3,14.6,1015.8,,,,99.0,9999.0,,CANELA,BR,869800-99999,2019,13,1.0
010440,99999,2019-10-05,70.483,22.15,6.0,280.0,1.0,8.3,1015.3,,,,99.0,9999.0,,HASVIK,NO,010440-99999,2019,13,1.0
999999,96409,2019-10-05,68.648,-149.399,750.0,,2.3,18.0,,,,,1.0,9999.0,,TOOLIK LAKE 5 ENE,US,999999-96409,2019,13,1.0
170640,99999,2019-10-05,40.911,29.156,18.0,30.0,0.5,18.5,1011.3,CLR,,,6.0,9999.0,,ISTANBUL BOLGE (KARTAL),TU,170640-99999,2019,13,1.0
480200,99999,2019-10-05,23.633,94.417,116.0,0.0,0.0,26.3,,BKN,,,12.0,0.0,,MAWLAIK,BM,480200-99999,2019,13,1.0
377560,99999,2019-10-05,40.533,48.933,755.0,290.0,2.0,20.5,1005.7,,1.0,9.0,,,,MARAZA,AJ,377560-99999,2019,13,1.0
117820,99999,2019-10-05,49.696,18.111,257.0,230.0,1.0,15.0,,,,,,,,MOSNOV,EZ,117820-99999,2019,13,1.0
112800,99999,2019-10-05,47.117,14.183,813.0,150.0,1.0,12.7,1013.4,,,,6.0,30.0,,MURAU,AU,112800-99999,2019,13,1.0
029790,99999,2019-10-05,59.505,20.347,4.0,336.0,4.5,14.0,1011.0,,,,,,,KOKAR BOGSKAR,FI,029790-99999,2019,13,1.0
998289,99999,2019-10-05,25.55,-81.183,3.0,0.0,0.0,,,,,,,,,LOSTMANS RIVER,US,998289-99999,2019,13,1.0
711880,99999,2019-10-05,48.783,-64.483,34.0,0.0,0.0,16.0,1011.0,OVC,2.0,8.0,24.0,12.0,,GASPE,CA,711880-99999,2019,13,1.0
713490,99999,2019-10-05,54.5,-111.7,585.0,270.0,3.6,23.8,,,,,24.0,0.0,,RICH LAKE AGDM  ALTA,CA,713490-99999,2019,13,1.0
714720,99999,2019-10-05,53.3,-132.767,14.0,0.0,0.0,16.1,1015.9,,,,24.0,2.0,,KINDAKUN ROCKS (AUT)  BC,CA,714720-99999,2019,13,1.0
415235,99999,2019-10-05,34.733,72.35,951.0,0.0,0.0,24.0,,,1.0,6.0,12.0,20.0,,SAIDU SHARIF,PK,415235-99999,2019,13,1.0
718630,99999,2019-10-05,50.433,-104.667,577.0,180.0,2.6,22.0,1014.2,FEW,,,,,,REGINA INTL,CA,718630-99999,2019,13,1.0
153250,99999,2019-10-05,45.355,25.514,1510.0,310.0,1.0,6.7,,CLR,,,6.0,9999.0,,SINAIA-1500,RO,153250-99999,2019,13,1.0
998407,99999,2019-10-05,42.768,-86.201,178.0,150.0,2.1,19.6,1013.1,,,,,,,HOLLAND,US,998407-99999,2019,13,1.0
360900,99999,2019-10-05,51.133,93.683,1043.0,,,14.0,,,,,12.0,0.0,,HOVU-AKSY,RS,360900-99999,2019,13,1.0
012250,99999,2019-10-05,63.517,7.95,5.0,50.0,3.0,11.0,1015.3,,,,,,,VEIHOLMEN,NO,012250-99999,2019,13,1.0
719600,99999,2019-10-05,69.6,-130.9,102.0,280.0,3.1,8.5,1013.9,BKN,,,24.0,9999.0,,LIVERPOOL BAY,CA,719600-99999,2019,13,1.0
689330,99999,2019-10-05,-34.033,23.9,5.0,30.0,1.0,13.0,1021.3,,,,,,,TSITSIKAMMA,SF,689330-99999,2019,13,1.0
113850,99999,2019-10-05,47.817,16.033,939.0,290.0,3.0,12.8,,,,,6.0,0.0,,HOHE WAND/HOCHKOGELHAUS,AU,113850-99999,2019,13,1.0
896590,99999,2019-10-05,-73.633,160.65,1924.0,300.0,5.7,-39.5,,,,,,,,PRIESTLEY GLACIER,AY,896590-99999,2019,13,1.0
997695,99999,2019-10-05,34.2,-77.83,3.0,220.0,7.2,28.4,1013.2,,,,,,,JOHN MERCER PIER,US,997695-99999,2019,13,1.0
714720,99999,2019-10-05,53.32,-132.77,14.0,0.0,0.0,16.1,1015.9,,,,,,,KINDAKUN ROCKS (AUT)  BC,CA,714720-99999,2019,13,1.0
368060,99999,2019-10-05,45.3,82.483,394.0,140.0,2.0,22.8,1001.4,FEW,,,,,,DRUZBA,KZ,368060-99999,2019,13,1.0
828240,99999,2019-10-05,-8.7,-63.9,88.0,0.0,0.0,26.7,1010.6,CLR,,,6.0,9999.0,,GOVERNADOR JORGE TEIXEIRA DE OLIVEIRA,BR,828240-99999,2019,13,1.0
478350,99999,2019-10-05,31.583,131.4,15.0,240.0,1.5,21.7,1005.7,,,,12.0,120.0,,ABURATSU,JA,478350-99999,2019,13,1.0
710774,99999,2019-10-05,55.842,-108.417,440.0,300.0,3.6,26.0,1006.9,,,,,,,BUFFALO NARROWS,CA,710774-99999,2019,13,1.0
584720,99999,2019-10-05,30.733,122.45,81.0,40.0,10.0,21.6,1001.3,OVC,60.0,,24.0,618.0,,SHENGSI,CH,584720-99999,2019,13,1.0
304390,99999,2019-10-05,55.117,109.75,465.0,,,15.5,1012.2,OVC,4.0,8.0,12.0,30.0,,TOMPA,RS,304390-99999,2019,13,1.0
997295,99999,2019-10-05,41.68,-83.4,184.0,330.0,3.1,26.2,1013.5,,,,,,,TOLEDO,US,997295-99999,2019,13,1.0
890580,99999,2019-10-05,-62.217,-58.967,10.0,250.0,14.0,-2.6,1015.6,BKN,,,,,,GREAT WALL,AY,890580-99999,2019,13,1.0
382010,99999,2019-10-05,43.8,69.2,481.0,320.0,1.0,19.5,1001.4,,,,,,,CULAKKURGAN,KZ,382010-99999,2019,13,1.0
160990,99999,2019-10-05,45.65,12.183,23.0,300.0,2.1,19.8,1011.5,,,,6.0,6.0,,TREVISO,IT,160990-99999,2019,13,1.0
982230,99999,2019-10-05,18.183,120.533,5.0,180.0,1.0,28.8,1009.6,FEW,5.0,4.0,24.0,0.0,,LAOAG INTL,RP,982230-99999,2019,13,1.0
982230,99999,2019-10-05,18.178,120.532,8.0,,1.0,29.0,,,,,,,,LAOAG INTL,RP,982230-99999,2019,13,1.0
268980,99999,2019-10-05,53.25,34.317,216.0,300.0,1.0,8.7,1009.1,,10.0,0.0,,,,BRYANSK,RS,268980-99999,2019,13,1.0
478500,99999,2019-10-05,31.368,130.845,65.0,50.0,4.1,21.0,,,10.0,,,,,KANOYA,JA,478500-99999,2019,13,1.0
032240,99999,2019-10-05,55.05,-2.553,285.0,230.0,2.1,13.0,1020.3,,,,6.0,4.0,,SPADEADAM NO2,UK,032240-99999,2019,13,1.0
688190,99999,2019-10-05,-33.933,18.417,97.0,0.0,0.0,12.7,,,,,,,,MOLTENO RESERVIOR,SF,688190-99999,2019,13,1.0
977240,99999,2019-10-05,-3.7,128.083,12.0,150.0,3.1,26.2,1015.1,BKN,,,,,,PATTIMURA,ID,977240-99999,2019,13,1.0
977240,99999,2019-10-05,-3.71,128.089,10.0,150.0,2.6,27.0,,,,,,,,PATTIMURA,ID,977240-99999,2019,13,1.0
719560,99999,2019-10-05,45.883,-82.567,189.0,230.0,5.7,18.6,1011.6,,,,,,,GORE BAY CLIMATE,CA,719560-99999,2019,13,1.0
719560,99999,2019-10-05,45.885,-82.571,189.0,225.0,5.3,18.6,1011.6,,,,24.0,9999.0,,GORE BAY CLIMATE,CA,719560-99999,2019,13,1.0
478520,99999,2019-10-05,33.479,131.737,6.0,150.0,3.6,22.0,,,10.0,,,,,OITA,JA,478520-99999,2019,13,1.0
350370,99999,2019-10-05,51.867,58.183,341.0,120.0,4.0,24.0,1003.1,BKN,,,,,,AK'JAR,RS,350370-99999,2019,13,1.0
022970,99999,2019-10-05,64.483,21.583,43.0,280.0,5.0,12.1,1010.2,,,,1.0,0.0,,BJUROKLUBB,SW,022970-99999,2019,13,1.0
298020,99999,2019-10-05,53.817,76.533,114.0,360.0,2.0,15.1,1015.8,BKN,,,,,,MIKHAILOVKA,KZ,298020-99999,2019,13,1.0
276750,99999,2019-10-05,55.183,46.333,136.0,60.0,1.0,13.8,1005.4,BKN,,,,,,PORETSKOE,RS,276750-99999,2019,13,1.0
623664,99999,2019-10-05,28.685,34.063,1331.0,270.0,3.1,24.0,,,,,,,,ST CATHERINE INTL,EG,623664-99999,2019,13,1.0
637400,99999,2019-10-05,-1.31,36.93,1624.0,280.0,1.5,14.0,,CLR,,,1.0,9999.0,,NAIROBI JKIA,KE,637400-99999,2019,13,1.0
067270,99999,2019-10-05,46.303,7.843,639.0,286.0,1.9,19.1,,,,,6.0,9999.0,,VISP,SZ,067270-99999,2019,13,1.0
476170,99999,2019-10-05,36.15,137.25,562.0,30.0,1.0,22.8,1004.1,,,,12.0,0.0,,TAKAYAMA,JA,476170-99999,2019,13,1.0
723230,03856,2019-10-05,34.65,-86.767,196.0,40.0,3.1,30.0,1011.5,BKN,,,,,,HUNTSVILLE INTL/C.T.JONES FIELD AIRPORT,US,723230-03856,2019,13,1.0
637400,99999,2019-10-05,-1.319,36.928,1624.0,280.0,1.5,14.0,,,,,,,,NAIROBI JKIA,KE,637400-99999,2019,13,1.0
716340,99999,2019-10-05,47.433,-65.583,124.0,130.0,2.1,14.6,1009.3,,,,24.0,85.0,,RED PINES,CA,716340-99999,2019,13,1.0
027690,99999,2019-10-05,62.417,22.183,93.0,170.0,1.0,2.0,1010.8,,,,,,,KAUHAJOKI KUJA-KOKKO,FI,027690-99999,2019,13,1.0
014860,99999,2019-10-05,59.85,10.433,163.0,,,13.7,,,,,6.0,0.0,,ASKER,NO,014860-99999,2019,13,1.0
998263,99999,2019-10-05,18.3,-65.3,3.0,0.0,0.0,27.3,1016.0,,,,,,,CULEBRA,RQ,998263-99999,2019,13,1.0
818290,99999,2019-10-05,-5.349,-41.512,269.0,94.0,0.8,22.0,1014.2,,,,99.0,9999.0,,CASTELO DO PIAUI,BR,818290-99999,2019,13,1.0
374090,99999,2019-10-05,42.033,43.483,1245.0,270.0,8.0,12.2,,OBS,45.0,6.0,,,,MTA-SABUETI,GG,374090-99999,2019,13,1.0
419430,99999,2019-10-05,23.033,91.417,8.0,0.0,0.0,26.2,1003.7,OVC,,,24.0,360.0,,FENI,BG,419430-99999,2019,13,1.0
962490,99999,2019-10-05,-2.75,107.75,44.0,170.0,1.5,24.9,1013.7,BKN,,,24.0,4.0,,H AS HANANDJOEDDIN,ID,962490-99999,2019,13,1.0
407000,99999,2019-10-05,39.604,47.882,77.0,90.0,3.1,25.0,,,,,,,,PARS ABAD MOGHAN,IR,407000-99999,2019,13,1.0
716278,99999,2019-10-05,55.283,-77.75,10.0,360.0,3.1,10.0,1005.9,,,,,,,KUUJJUARAPIK ARPT,CA,716278-99999,2019,13,1.0
480300,99999,2019-10-05,22.65,93.633,1866.0,220.0,2.1,18.3,,OVC,2.0,2.0,12.0,0.0,,HAKHA,BM,480300-99999,2019,13,1.0
014530,99999,2019-10-05,58.6,8.417,162.0,,,11.9,,,,,6.0,0.0,,HYNNEKLEIV,NO,014530-99999,2019,13,1.0
013860,99999,2019-10-05,60.8,11.1,132.0,,,14.5,,,,,6.0,0.0,,HAMAR II,NO,013860-99999,2019,13,1.0
248430,99999,2019-10-05,61.917,124.55,199.0,,,24.4,1005.9,,,,12.0,0.0,,TONGULAH,RS,248430-99999,2019,13,1.0
