usaf,wban,datetime,latitude,longitude,elevation,windAngle,windSpeed,temperature,seaLvlPressure,cloudCoverage,presentWeatherIndicator,pastWeatherIndicator,precipTime,precipDepth,snowDepth,stationName,countryOrRegion,p_k,year,day,version
080440,99999,2019-10-06,42.438,-8.616,108.0,120.0,1.0,17.6,1015.8,,,,6.0,9999.0,,PONTEVEDRA,SP,080440-99999,2019,14,1.0
039780,99999,2019-10-06,54.483,-8.233,35.0,60.0,1.0,11.9,1027.7,,,,6.0,0.0,,FINNER,EI,039780-99999,2019,14,1.0
336580,99999,2019-10-06,48.259,25.981,252.0,300.0,2.0,16.0,,,,,,,,CHERNIVTSI,UP,336580-99999,2019,14,1.0
984330,99999,2019-10-06,14.583,121.367,651.0,150.0,1.0,23.8,1007.8,OBS,45.0,4.0,24.0,56.0,,TANAY,RP,984330-99999,2019,14,1.0
722010,12836,2019-10-06,24.55,-81.75,5.0,100.0,5.7,29.4,1017.4,FEW,,,6.0,5.0,,KEY WEST INTERNATIONAL AIRPORT,US,722010-12836,2019,14,1.0
967495,99999,2019-10-06,-6.267,106.891,26.0,0.0,0.0,25.0,,,5.0,,,,,HALIM PERDANAKUSUMA INTL,ID,967495-99999,2019,14,1.0
485740,99999,2019-10-06,6.8,100.383,25.0,0.0,0.0,22.9,1010.1,FEW,,,,,,SA-DAO,TH,485740-99999,2019,14,1.0
076470,99999,2019-10-06,43.517,4.917,24.0,340.0,9.8,24.4,1010.3,,0.0,,6.0,0.0,,LE TUBE,FR,076470-99999,2019,14,1.0
274530,99999,2019-10-06,56.683,43.433,103.0,,,11.4,1009.8,BKN,,,,,,GORODEC,RS,274530-99999,2019,14,1.0
222350,99999,2019-10-06,67.35,37.05,156.0,20.0,1.0,5.3,1012.9,OVC,,,,,,KRASNOSCEL'E,RS,222350-99999,2019,14,1.0
685920,99999,2019-10-06,-29.617,31.117,109.0,330.0,1.5,13.1,1022.5,,10.0,4.0,,,,KING SHAKA INTL AIRPORT,SF,685920-99999,2019,14,1.0
942870,99999,2019-10-06,-16.886,145.755,3.0,160.0,5.7,23.0,,CLR,,,,,,CAIRNS INTL,AS,942870-99999,2019,14,1.0
942870,99999,2019-10-06,-16.883,145.75,8.0,160.0,5.7,23.3,1019.1,,,,,,,CAIRNS INTL,AS,942870-99999,2019,14,1.0
960010,99999,2019-10-06,5.867,95.317,126.0,290.0,4.1,26.0,1011.9,BKN,17.0,9.0,,,,MAIMUN SALEH,ID,960010-99999,2019,14,1.0
913560,00493,2019-10-06,5.333,163.033,4.0,360.0,2.6,31.1,1009.5,BKN,2.0,8.0,24.0,3.0,,KOSRAE,FM,913560-00493,2019,14,1.0
722140,93805,2019-10-06,30.446,-84.299,53.0,170.0,2.6,30.0,1018.5,BKN,,,,,,TALLAHASSEE REGIONAL AIRPORT,US,722140-93805,2019,14,1.0
064490,99999,2019-10-06,50.454,4.442,192.0,20.0,3.0,13.0,1021.2,SCT,,,24.0,9999.0,,BRUSSELS SOUTH,BE,064490-99999,2019,14,1.0
151240,99999,2019-10-06,46.886,24.645,449.0,0.0,0.0,14.0,1010.5,,,,6.0,9999.0,,BATOS,RO,151240-99999,2019,14,1.0
878280,99999,2019-10-06,-43.2,-65.267,39.0,340.0,3.1,4.3,1012.5,,2.0,8.0,6.0,0.0,,ALMIRANTE ZAR,AR,878280-99999,2019,14,1.0
685920,99999,2019-10-06,-29.617,31.133,127.0,,0.5,10.0,,CLR,10.0,,,,,KING SHAKA INTL AIRPORT,SF,685920-99999,2019,14,1.0
722200,12832,2019-10-06,29.733,-85.033,6.0,150.0,3.6,29.4,1018.2,SCT,,,,,,APALACHICOLA MUNI AIRPORT,US,722200-12832,2019,14,1.0
713240,99999,2019-10-06,44.62,-63.42,30.0,200.0,5.7,15.6,1011.3,,,,,,,OSBORNE HEAD DND,CA,713240-99999,2019,14,1.0
221650,99999,2019-10-06,68.65,43.3,49.0,330.0,5.0,5.1,1010.7,,47.0,5.0,,,,KANIN NOS,RS,221650-99999,2019,14,1.0
485810,99999,2019-10-06,6.517,101.283,36.0,250.0,2.6,24.3,1010.6,BKN,10.0,2.0,24.0,497.0,,YALA AGROMET,TH,485810-99999,2019,14,1.0
024530,99999,2019-10-06,60.717,17.167,16.0,,,6.4,,,,,1.0,0.0,,GAVLE/SANDVIKEN AIR FORCE BASE,SW,024530-99999,2019,14,1.0
272960,99999,2019-10-06,58.1,49.917,177.0,,,9.8,1009.4,,10.0,1.0,,,,KUMENY,RS,272960-99999,2019,14,1.0
485660,99999,2019-10-06,7.533,99.05,3.0,80.0,1.5,26.4,1010.2,SCT,,,24.0,40.0,,KO LANTA,TH,485660-99999,2019,14,1.0
027060,99999,2019-10-06,60.25,24.05,37.0,,,11.2,,,,,,,,LOHJA PORLA,FI,027060-99999,2019,14,1.0
916800,99999,2019-10-06,-17.75,177.45,18.0,260.0,4.6,27.2,1011.8,FEW,2.0,0.0,24.0,0.0,,NADI INTL,FJ,916800-99999,2019,14,1.0
712950,99999,2019-10-06,50.633,-93.217,363.0,220.0,1.5,25.0,1015.3,,,,24.0,2.0,,EAR FALLS (AUT),CA,712950-99999,2019,14,1.0
407826,99999,2019-10-06,36.636,53.194,11.0,0.0,0.0,25.0,,,,,,,,SARI DASHT E NAZ,IR,407826-99999,2019,14,1.0
723700,93167,2019-10-06,35.267,-113.95,1033.0,240.0,4.6,38.9,1005.8,,,,,,,KINGMAN AIRPORT,US,723700-93167,2019,14,1.0
712950,99999,2019-10-06,50.633,-93.217,363.0,220.0,1.5,25.0,1015.3,,,,,,,EAR FALLS (AUT),CA,712950-99999,2019,14,1.0
484300,99999,2019-10-06,14.05,101.367,6.0,0.0,0.0,27.2,1007.2,BKN,10.0,2.0,24.0,1.0,,KHAO E TO,TH,484300-99999,2019,14,1.0
076470,99999,2019-10-06,43.523,4.924,25.0,340.0,9.8,24.0,,,,,,,,LE TUBE,FR,076470-99999,2019,14,1.0
274910,99999,2019-10-06,57.0,48.733,143.0,,,11.4,1008.5,OVC,10.0,2.0,,,,NOVYJ TOR'JAL,RS,274910-99999,2019,14,1.0
308230,99999,2019-10-06,51.808,107.438,515.0,280.0,2.0,18.0,,CLR,,,,,,MUKHINO,RS,308230-99999,2019,14,1.0
717060,99999,2019-10-06,46.283,-63.133,49.0,120.0,3.1,19.0,1010.5,BKN,,,24.0,13.0,,CHARLOTTETOWN,CA,717060-99999,2019,14,1.0
176000,99999,2019-10-06,34.718,32.486,12.0,10.0,4.1,21.0,,,,,,,,PAFOS INTL,CY,176000-99999,2019,14,1.0
407300,99999,2019-10-06,35.416,51.152,1007.0,320.0,6.2,26.0,,,,,,,,IMAM KHOMEINI INTL,IR,407300-99999,2019,14,1.0
873440,99999,2019-10-06,-31.117,-64.2,484.0,320.0,3.1,9.5,1019.5,FEW,,,1.0,9999.0,,AMBROSIO L V TARAVELLA,AR,873440-99999,2019,14,1.0
336580,99999,2019-10-06,48.367,25.9,246.0,300.0,2.0,15.7,1009.2,FEW,,,,,,CHERNIVTSI,UP,336580-99999,2019,14,1.0
869600,99999,2019-10-06,-28.65,-56.016,81.0,0.0,0.0,17.1,1012.9,,,,99.0,9999.0,,SAO BORJA,BR,869600-99999,2019,14,1.0
873440,99999,2019-10-06,-31.324,-64.208,489.0,320.0,3.1,9.0,,,,,,,,AMBROSIO L V TARAVELLA,AR,873440-99999,2019,14,1.0
483580,99999,2019-10-06,17.433,104.783,153.0,0.0,0.0,26.7,1005.7,OVC,10.0,6.0,24.0,3.0,,NAKHON PHANOM AGROMET,TH,483580-99999,2019,14,1.0
296420,99999,2019-10-06,55.27,86.107,263.0,300.0,2.0,16.0,,CLR,,,,,,KEMEROVO,RS,296420-99999,2019,14,1.0
143300,99999,2019-10-06,44.551,15.373,564.0,300.0,1.0,10.7,1014.8,,,,,,,GOSPIC,HR,143300-99999,2019,14,1.0
024080,99999,2019-10-06,59.221,12.075,170.0,324.0,0.6,11.2,1013.8,,,,1.0,9999.0,,BLOMSKOG,SW,024080-99999,2019,14,1.0
987550,99999,2019-10-06,8.367,126.333,3.0,250.0,1.0,25.0,1008.8,OVC,60.0,8.0,24.0,20.0,,HINATUAN,RP,987550-99999,2019,14,1.0
975700,99999,2019-10-06,-1.867,136.233,3.0,230.0,1.5,28.8,1008.2,BKN,,,,,,SERUI/YENDOSA,ID,975700-99999,2019,14,1.0
966150,99999,2019-10-06,-1.85,109.967,9.0,110.0,2.1,23.7,1012.8,BKN,,,,,,RAHADI USMAN,ID,966150-99999,2019,14,1.0
012820,99999,2019-10-06,64.833,11.133,4.0,260.0,2.0,10.6,1018.0,,,,,,,RORVIK/RYUM,NO,012820-99999,2019,14,1.0
483570,99999,2019-10-06,17.417,104.783,148.0,0.0,0.0,28.2,1005.7,BKN,,,,,,NAKHON PHANOM,TH,483570-99999,2019,14,1.0
021610,99999,2019-10-06,66.752,20.924,328.0,0.0,0.0,8.9,,OVC,,,1.0,9999.0,,NATTAVAARA,SW,021610-99999,2019,14,1.0
251510,99999,2019-10-06,68.883,170.783,5.0,330.0,7.0,12.1,1008.3,OVC,,,,,,CHAUN,RS,251510-99999,2019,14,1.0
161330,99999,2019-10-06,44.8,11.6,10.0,50.0,0.5,16.8,1013.3,,,,24.0,84.0,,FERRARA,IT,161330-99999,2019,14,1.0
154600,99999,2019-10-06,44.206,27.338,19.0,170.0,2.0,19.5,1008.0,SCT,,,6.0,9999.0,,CALARASI,RO,154600-99999,2019,14,1.0
152080,99999,2019-10-06,46.067,23.567,247.0,230.0,1.0,14.5,1010.1,BKN,,,6.0,0.0,,ALBA IULIA,RO,152080-99999,2019,14,1.0
965590,99999,2019-10-06,0.117,111.533,30.0,150.0,2.1,23.7,1011.9,FEW,,,,,,SUSILO,ID,965590-99999,2019,14,1.0
308230,99999,2019-10-06,51.74,106.983,514.0,320.0,3.0,18.7,1008.0,OVC,4.0,1.0,12.0,9999.0,,MUKHINO,RS,308230-99999,2019,14,1.0
717060,99999,2019-10-06,46.283,-63.133,49.0,120.0,3.1,19.0,1010.5,,,,,,,CHARLOTTETOWN,CA,717060-99999,2019,14,1.0
010430,99999,2019-10-06,70.417,22.817,10.0,10.0,11.0,7.5,,,,,,,,ROGNSUNDET,NO,010430-99999,2019,14,1.0
176000,99999,2019-10-06,34.717,32.483,8.0,10.0,4.1,21.0,1006.5,FEW,,,6.0,0.0,,PAFOS INTL,CY,176000-99999,2019,14,1.0
857990,99999,2019-10-06,-41.439,-73.094,90.0,20.0,7.7,9.0,,,61.0,,,,,EL TEPUAL INTL,CI,857990-99999,2019,14,1.0
916800,99999,2019-10-06,-17.755,177.443,18.0,260.0,4.6,27.0,,,,,,,,NADI INTL,FJ,916800-99999,2019,14,1.0
027930,99999,2019-10-06,62.55,29.667,80.0,350.0,5.0,10.9,1010.1,,,,,,,LIPERI TUISKAVANLUOTO,FI,027930-99999,2019,14,1.0
857990,99999,2019-10-06,-41.433,-73.1,90.0,20.0,7.7,9.2,1014.4,OVC,60.0,2.0,6.0,0.0,,EL TEPUAL INTL,CI,857990-99999,2019,14,1.0
121195,99999,2019-10-06,51.233,22.683,203.0,310.0,2.6,15.0,,,80.0,,,,,LUBLIN AIRPORT,PL,121195-99999,2019,14,1.0
999999,23908,2019-10-06,37.428,-94.583,290.0,,1.8,29.7,,,,,1.0,0.0,,JOPLIN 24 N,US,999999-23908,2019,14,1.0
200690,99999,2019-10-06,79.483,76.983,10.0,310.0,5.0,-0.4,1016.4,OVC,10.0,2.0,12.0,0.0,,OSTROV VIZE,RS,200690-99999,2019,14,1.0
161340,99999,2019-10-06,44.183,10.7,2173.0,20.0,10.3,9.6,,,,,6.0,0.0,,CIMONE MOUNTAIN,IT,161340-99999,2019,14,1.0
233580,99999,2019-10-06,66.1,76.783,62.0,130.0,4.0,13.0,1019.9,OVC,,,,,,NOVYJ URENGOJ,RS,233580-99999,2019,14,1.0
983340,99999,2019-10-06,15.75,121.633,178.0,,,28.0,1008.8,FEW,,,,,,BALER RADAR,RP,983340-99999,2019,14,1.0
485500,99999,2019-10-06,9.467,100.05,5.0,0.0,0.0,27.7,1009.7,BKN,,,,,,KO SAMUI,TH,485500-99999,2019,14,1.0
201070,99999,2019-10-06,78.067,14.25,75.0,200.0,1.0,3.4,1016.6,BKN,,,,,,BARENTSBURG,SV,201070-99999,2019,14,1.0
272770,99999,2019-10-06,57.85,45.767,136.0,340.0,1.0,13.2,1008.9,BKN,2.0,8.0,,,,VETLUGA,RS,272770-99999,2019,14,1.0
998256,99999,2019-10-06,47.276,-122.418,11.0,260.0,5.1,,,,,,,,,TACOMA MET,US,998256-99999,2019,14,1.0
485600,99999,2019-10-06,7.583,100.167,4.0,0.0,0.0,23.4,1009.8,FEW,10.0,1.0,24.0,29.0,,PHATTHALUNG AGROMET,TH,485600-99999,2019,14,1.0
170450,99999,2019-10-06,41.183,41.817,628.0,0.0,0.0,15.3,1011.2,BKN,80.0,2.0,6.0,40.0,,ARTVIN,TU,170450-99999,2019,14,1.0
027240,99999,2019-10-06,60.117,20.3,11.0,350.0,6.0,13.5,1012.4,,,,,,,LUMPARLAND LANGNAS HARBOUR,FI,027240-99999,2019,14,1.0
818660,99999,2019-10-06,-6.033,-44.233,175.0,0.0,0.0,23.6,1012.3,,,,99.0,9999.0,,COLINAS,BR,818660-99999,2019,14,1.0
896010,99999,2019-10-06,-66.267,100.75,42.0,,,-16.3,994.6,,,,,,,OAZIC BANGERA,AY,896010-99999,2019,14,1.0
987410,99999,2019-10-06,8.6,123.35,5.0,160.0,1.0,26.4,1009.2,BKN,5.0,4.0,24.0,35.0,,DIPOLOG,RP,987410-99999,2019,14,1.0
638810,99999,2019-10-06,-7.967,31.63,1923.0,90.0,9.3,13.0,,CLR,,,,,,SUMBAWANGA,TZ,638810-99999,2019,14,1.0
717270,99999,2019-10-06,48.331,-70.996,159.0,310.0,6.2,19.0,1007.5,,95.0,,,,,BAGOTVILLE,CA,717270-99999,2019,14,1.0
407370,99999,2019-10-06,36.45,52.817,14.0,,,25.0,1005.6,BKN,,,6.0,0.0,,GHARAKHIL,IR,407370-99999,2019,14,1.0
484190,99999,2019-10-06,14.1,100.617,7.0,240.0,2.1,27.5,1007.2,FEW,10.0,1.0,,,,PATHUMTHANI,TH,484190-99999,2019,14,1.0
076460,99999,2019-10-06,43.757,4.416,94.0,360.0,5.1,23.0,,,,,,,,GARONS,FR,076460-99999,2019,14,1.0
638810,99999,2019-10-06,-7.967,31.633,1923.0,90.0,9.3,13.4,,,,,,,,SUMBAWANGA,TZ,638810-99999,2019,14,1.0
789540,00408,2019-10-06,13.073,-59.5,57.0,90.0,7.0,27.2,1015.2,,15.0,8.0,6.0,9999.0,,GRANTLEY ADAMS INTERNATIONAL AIRPORT,BB,789540-00408,2019,14,1.0
727467,04926,2019-10-06,49.318,-94.903,329.0,160.0,2.6,24.0,,,,,,,,FLAG ISLAND,US,727467-04926,2019,14,1.0
984400,99999,2019-10-06,14.133,122.983,4.0,180.0,2.0,28.0,1007.5,OVC,5.0,4.0,,,,DAET,RP,984400-99999,2019,14,1.0
717270,99999,2019-10-06,48.333,-71.0,159.0,320.0,6.2,19.1,1007.5,OVC,95.0,2.0,24.0,94.0,,BAGOTVILLE,CA,717270-99999,2019,14,1.0
948650,99999,2019-10-06,-37.867,144.75,20.0,310.0,7.2,10.2,1019.7,,,,,,,LAVERTON RAAF,AS,948650-99999,2019,14,1.0
076460,99999,2019-10-06,43.767,4.417,105.0,360.0,5.1,22.9,1011.5,,0.0,,6.0,0.0,,GARONS,FR,076460-99999,2019,14,1.0
543424,99999,2019-10-06,41.64,123.483,60.0,,1.0,23.0,,CLR,10.0,,,,,TAOXIAN,CH,543424-99999,2019,14,1.0
984440,99999,2019-10-06,13.15,123.733,17.0,80.0,1.0,27.7,1007.7,BKN,,,24.0,18.0,,LEGAZPI,RP,984440-99999,2019,14,1.0
983270,99999,2019-10-06,15.183,120.55,155.0,170.0,2.0,27.9,1008.3,BKN,5.0,4.0,24.0,460.0,,CLARK INTL,RP,983270-99999,2019,14,1.0
032400,99999,2019-10-06,55.421,-1.6,23.0,260.0,2.1,14.1,1024.4,,,,6.0,9999.0,,BOULMER,UK,032400-99999,2019,14,1.0
154700,99999,2019-10-06,44.107,24.979,102.0,270.0,2.0,17.5,1008.3,OVC,,,6.0,9999.0,,ROSIORII DE VEDE,RO,154700-99999,2019,14,1.0
484620,99999,2019-10-06,13.7,102.504,49.0,230.0,2.1,27.5,1007.4,SCT,10.0,0.0,,,,ARANYAPRATHET,TH,484620-99999,2019,14,1.0
817900,99999,2019-10-06,-4.243,-44.795,22.0,0.0,0.0,26.5,1012.3,,,,99.0,9999.0,,BACABAL,BR,817900-99999,2019,14,1.0
981340,99999,2019-10-06,20.433,121.967,167.0,240.0,3.0,29.0,1006.1,FEW,,,,,,BASCO RADAR,RP,981340-99999,2019,14,1.0
036600,99999,2019-10-06,51.683,-0.8,205.0,60.0,2.1,14.2,1023.4,,,,6.0,0.0,,HIGH WYCOMBE HQAIR,UK,036600-99999,2019,14,1.0
375491,99999,2019-10-06,43.069,42.754,2700.0,,0.5,10.0,,,,,,,,MESTIA,GG,375491-99999,2019,14,1.0
484090,99999,2019-10-06,15.085,104.331,129.0,220.0,1.0,27.2,1006.4,BKN,10.0,1.0,24.0,16.0,,SI SAKET AGROMET,TH,484090-99999,2019,14,1.0
489400,99999,2019-10-06,17.95,102.567,171.0,270.0,1.0,28.2,1003.2,OVC,10.0,2.0,1.0,9999.0,,WATTAY INTL,LA,489400-99999,2019,14,1.0
476580,99999,2019-10-06,34.813,138.298,7.0,40.0,2.1,22.0,,,,,,,,SHIZUHAMA,JA,476580-99999,2019,14,1.0
489400,99999,2019-10-06,17.988,102.563,172.0,220.0,1.0,28.0,,,10.0,,,,,WATTAY INTL,LA,489400-99999,2019,14,1.0
172190,99999,2019-10-06,38.295,27.148,120.0,160.0,1.0,19.1,1007.1,CLR,,,6.0,9999.0,,ADNAN MENDERES,TU,172190-99999,2019,14,1.0
941710,99999,2019-10-06,-12.679,141.925,19.0,130.0,6.7,25.0,,CLR,,,,,,WEIPA,AS,941710-99999,2019,14,1.0
028120,99999,2019-10-06,66.533,24.65,93.0,,,4.0,,,,,,,,YLITORNIO MELTOSJARVI,FI,028120-99999,2019,14,1.0
987510,99999,2019-10-06,8.15,125.133,627.0,,,21.1,1010.6,OVC,80.0,8.0,24.0,331.0,,MALAYBALAY,RP,987510-99999,2019,14,1.0
012900,99999,2019-10-06,64.467,11.567,2.0,260.0,2.0,9.9,1018.3,,,,,,,NAMSOS AIRPORT,NO,012900-99999,2019,14,1.0
960110,99999,2019-10-06,5.517,95.417,21.0,140.0,2.1,25.4,1011.2,OVC,60.0,2.0,24.0,0.0,,SULTAN ISKANDARMUDA,ID,960110-99999,2019,14,1.0
028190,99999,2019-10-06,67.75,29.617,360.0,,,5.7,,,,,,,,SALLA VARRIOTUNTURI,FI,028190-99999,2019,14,1.0
488390,99999,2019-10-06,20.133,107.717,56.0,180.0,7.0,29.8,1000.9,OVC,,,,,,BACH LONG VI,VM,488390-99999,2019,14,1.0
945920,99999,2019-10-06,-28.164,153.505,6.0,200.0,5.1,15.0,,CLR,,,,,,GOLD COAST,AS,945920-99999,2019,14,1.0
276750,99999,2019-10-06,55.183,46.333,136.0,240.0,1.0,14.5,1008.4,BKN,,,,,,PORETSKOE,RS,276750-99999,2019,14,1.0
476810,99999,2019-10-06,34.75,137.703,46.0,340.0,1.5,23.0,,,61.0,,,,,HAMAMATSU,JA,476810-99999,2019,14,1.0
983270,99999,2019-10-06,15.186,120.56,148.0,170.0,2.1,28.0,,,5.0,,,,,CLARK INTL,RP,983270-99999,2019,14,1.0
984460,99999,2019-10-06,13.6,124.217,40.0,320.0,1.0,27.6,1007.8,BKN,5.0,4.0,24.0,67.0,,VIRAC,RP,984460-99999,2019,14,1.0
172000,99999,2019-10-06,38.434,38.093,849.0,90.0,3.1,19.1,1004.0,CLR,,,6.0,9999.0,,ERHAC,TU,172000-99999,2019,14,1.0
341720,99999,2019-10-06,51.565,46.047,152.0,310.0,5.0,17.0,,,,,,,,TSENTRALNY,RS,341720-99999,2019,14,1.0
970080,99999,2019-10-06,3.583,125.467,38.0,170.0,1.5,25.0,1010.2,OVC,21.0,6.0,24.0,50.0,,NAHA,ID,970080-99999,2019,14,1.0
789540,00408,2019-10-06,13.075,-59.492,52.0,90.0,7.7,28.0,,,16.0,,,,,GRANTLEY ADAMS INTERNATIONAL AIRPORT,BB,789540-00408,2019,14,1.0
987530,99999,2019-10-06,7.126,125.646,29.0,0.0,0.0,26.0,,,,,,,,FRANCISCO BANGOY INTL,RP,987530-99999,2019,14,1.0
603380,99999,2019-10-06,35.28,-2.956,48.0,280.0,2.6,25.0,,CLR,,,,,,MELILLA,SP,603380-99999,2019,14,1.0
484360,99999,2019-10-06,14.631,102.721,182.0,270.0,1.5,27.0,1006.8,FEW,,,,,,NANGRONG,TH,484360-99999,2019,14,1.0
987530,99999,2019-10-06,7.133,125.65,18.0,,,25.8,1009.8,OVC,21.0,6.0,24.0,8.0,,FRANCISCO BANGOY INTL,RP,987530-99999,2019,14,1.0
066040,99999,2019-10-06,47.0,6.953,485.0,25.0,1.9,15.7,1016.8,,,,6.0,9999.0,,NEUCHATEL (AUT),SZ,066040-99999,2019,14,1.0
964490,99999,2019-10-06,4.322,113.987,18.0,160.0,2.1,26.0,,,,,,,,MIRI,MY,964490-99999,2019,14,1.0
985360,99999,2019-10-06,12.583,122.283,47.0,,,27.2,1008.3,BKN,5.0,8.0,24.0,43.0,,ROMBLON,RP,985360-99999,2019,14,1.0
484530,99999,2019-10-06,13.667,100.617,6.0,270.0,1.5,27.5,1007.7,BKN,,,24.0,0.0,,BANG NA AGROMET,TH,484530-99999,2019,14,1.0
916120,99999,2019-10-06,1.383,173.15,2.0,30.0,4.1,31.1,1007.8,SCT,2.0,1.0,24.0,0.0,,BONRIKI AIRPORT,KR,916120-99999,2019,14,1.0
113550,99999,2019-10-06,47.72,14.326,600.0,0.0,0.0,11.0,,,,,6.0,20.0,,WINDISCHGARSTEN,AU,113550-99999,2019,14,1.0
960870,99999,2019-10-06,1.117,104.117,24.0,0.0,0.0,27.1,1013.2,BKN,,,,,,BATAM/HANG NADIM,ID,960870-99999,2019,14,1.0
801120,99999,2019-10-06,6.165,-75.423,2142.0,90.0,1.5,17.0,,,,,,,,JOSE MARIA CORDOVA,CO,801120-99999,2019,14,1.0
956640,99999,2019-10-06,-33.059,137.514,12.0,270.0,5.1,11.0,,,,,,,,WHYALLA,AS,956640-99999,2019,14,1.0
964490,99999,2019-10-06,4.333,113.983,18.0,160.0,2.1,25.8,1011.4,BKN,1.0,2.0,24.0,0.0,,MIRI,MY,964490-99999,2019,14,1.0
966550,99999,2019-10-06,-2.233,113.95,27.0,150.0,2.1,22.8,1014.6,SCT,,,,,,TJILIK RIWUT,ID,966550-99999,2019,14,1.0
010280,99999,2019-10-06,74.517,19.0,18.0,290.0,3.0,4.7,1017.6,BKN,50.0,8.0,6.0,1.0,,BJORNOYA ISLAND,NO,010280-99999,2019,14,1.0
983360,99999,2019-10-06,16.267,122.133,4.0,,,29.8,1007.2,BKN,,,,,,CASIGURAN,RP,983360-99999,2019,14,1.0
028300,99999,2019-10-06,60.7,26.817,33.0,,,4.9,,,,,,,,KOUVOLA ANJALA,FI,028300-99999,2019,14,1.0
818390,99999,2019-10-06,-5.837,-35.208,48.0,145.0,2.4,26.0,1014.9,,,,99.0,9999.0,,NATAL,BR,818390-99999,2019,14,1.0
875760,99999,2019-10-06,-34.822,-58.536,20.0,190.0,1.5,6.0,,,,,,,,MINISTRO PISTARINI,AR,875760-99999,2019,14,1.0
875760,99999,2019-10-06,-34.467,-58.517,20.0,200.0,1.5,6.0,1019.7,CLR,,,1.0,9999.0,,MINISTRO PISTARINI,AR,875760-99999,2019,14,1.0
715380,99999,2019-10-06,42.276,-82.956,190.0,280.0,5.1,31.0,1013.0,FEW,,,,,,WINDSOR,CA,715380-99999,2019,14,1.0
715380,99999,2019-10-06,42.267,-82.967,190.0,290.0,6.2,30.6,1013.1,FEW,,,24.0,0.0,,WINDSOR,CA,715380-99999,2019,14,1.0
028010,99999,2019-10-06,69.05,20.783,483.0,350.0,6.0,5.8,1016.3,BKN,,,,,,ENONTEKIO KILPISJARVI,FI,028010-99999,2019,14,1.0
282140,99999,2019-10-06,58.133,52.583,169.0,,,12.5,1008.4,OVC,2.0,4.0,,,,GLAZOV,RS,282140-99999,2019,14,1.0
081120,99999,2019-10-06,42.204,0.864,807.0,293.0,2.1,22.2,,,,,6.0,9999.0,,TALAR,SP,081120-99999,2019,14,1.0
976300,99999,2019-10-06,-2.883,132.25,130.0,180.0,1.5,24.0,1013.6,BKN,2.0,6.0,24.0,0.0,,FAK-FAK/TOREA,ID,976300-99999,2019,14,1.0
971920,99999,2019-10-06,-5.467,122.617,2.0,320.0,1.0,24.6,1016.2,SCT,,,,,,BAU-BAU/BETO AMBIRI,ID,971920-99999,2019,14,1.0
486570,99999,2019-10-06,3.783,103.217,16.0,0.0,0.0,24.6,1010.9,BKN,5.0,2.0,24.0,68.0,,KUANTAN,MY,486570-99999,2019,14,1.0
407100,99999,2019-10-06,37.933,47.533,1682.0,300.0,2.0,11.6,1000.4,,,,6.0,0.0,,SARAB,IR,407100-99999,2019,14,1.0
486570,99999,2019-10-06,3.775,103.209,18.0,0.0,0.0,25.0,,,,,,,,KUANTAN,MY,486570-99999,2019,14,1.0
321210,99999,2019-10-06,47.983,142.2,18.0,50.0,5.0,14.7,1011.6,OVC,,,,,,ILYINSKIY,RS,321210-99999,2019,14,1.0
624630,99999,2019-10-06,27.178,33.799,16.0,310.0,6.7,31.0,,,,,,,,HURGHADA INTL,EG,624630-99999,2019,14,1.0
717710,99999,2019-10-06,53.03,-131.6,17.0,130.0,4.6,15.4,1016.3,,,,,,,CUMSHEWA ISLAND  BC,CA,717710-99999,2019,14,1.0
624630,99999,2019-10-06,27.15,33.801,16.0,310.0,6.7,31.4,1006.1,,,,,,,HURGHADA INTL,EG,624630-99999,2019,14,1.0
223240,99999,2019-10-06,66.683,34.35,40.0,10.0,2.0,8.7,1011.4,BKN,,,,,,UMBA,RS,223240-99999,2019,14,1.0
717710,99999,2019-10-06,53.033,-131.6,17.0,130.0,4.6,15.4,1016.3,,,,24.0,2.0,,CUMSHEWA ISLAND  BC,CA,717710-99999,2019,14,1.0
479110,99999,2019-10-06,24.467,122.978,21.0,350.0,4.1,30.0,,,,,,,,YONAGUNI,JA,479110-99999,2019,14,1.0
867580,99999,2019-10-06,-17.785,-46.119,877.0,0.0,0.0,21.0,1018.1,,,,99.0,9999.0,,JOAO PINHEIRO,BR,867580-99999,2019,14,1.0
985430,99999,2019-10-06,12.367,123.633,6.0,250.0,1.0,28.2,1008.9,BKN,1.0,8.0,24.0,6.0,,MASBATE,RP,985430-99999,2019,14,1.0
603380,99999,2019-10-06,35.283,-2.95,47.0,280.0,1.5,24.4,1014.3,,,,6.0,0.0,,MELILLA,SP,603380-99999,2019,14,1.0
060600,99999,2019-10-06,56.3,9.117,53.0,250.0,3.1,13.2,1015.2,OVC,,,6.0,9999.0,,KARUP,DA,060600-99999,2019,14,1.0
027040,99999,2019-10-06,61.117,24.317,87.0,,,6.2,,,,,,,,HATTULA LEPAA AWS,FI,027040-99999,2019,14,1.0
670050,99999,2019-10-06,-12.805,45.281,7.0,210.0,4.1,24.0,,,,,,,,DZAOUDZI PAMANDZI,MF,670050-99999,2019,14,1.0
670050,99999,2019-10-06,-12.8,45.283,7.0,210.0,4.1,24.1,1017.9,BKN,0.0,,6.0,0.0,,DZAOUDZI PAMANDZI,MF,670050-99999,2019,14,1.0
987460,99999,2019-10-06,7.167,124.217,62.0,150.0,1.0,25.6,1009.8,OVC,1.0,5.0,,,,COTOBATO,RP,987460-99999,2019,14,1.0
879090,99999,2019-10-06,-49.317,-67.75,58.0,180.0,2.1,5.0,1003.4,SCT,,,,,,SAN JULIAN,AR,879090-99999,2019,14,1.0
467430,99999,2019-10-06,22.95,120.206,19.0,120.0,1.5,27.0,,,61.0,,,,,TAINAN,TW,467430-99999,2019,14,1.0
155250,99999,2019-10-06,43.15,24.7,221.0,270.0,3.0,16.2,1007.9,OVC,61.0,8.0,6.0,10.0,,LOVETCH,BU,155250-99999,2019,14,1.0
485640,99999,2019-10-06,7.883,98.4,4.0,0.0,0.0,26.8,1009.9,FEW,,,24.0,150.0,,PHUKET,TH,485640-99999,2019,14,1.0
717080,99999,2019-10-06,46.791,-71.393,74.0,240.0,1.5,23.0,1007.5,,,,,,,QUEBEC JEAN LESAGE INTL,CA,717080-99999,2019,14,1.0
953170,99999,2019-10-06,-21.183,119.75,183.0,130.0,5.7,17.6,1025.5,,,,,,,MARBLE BAR,AS,953170-99999,2019,14,1.0
167263,99999,2019-10-06,37.436,25.346,122.0,190.0,3.6,23.4,1006.6,FEW,,,6.0,0.0,,MIKONOS,GR,167263-99999,2019,14,1.0
638620,99999,2019-10-06,-6.167,35.767,1119.0,90.0,3.1,16.8,,FEW,,,,,,DODOMA,TZ,638620-99999,2019,14,1.0
638620,99999,2019-10-06,-6.17,35.753,1120.0,90.0,3.1,17.0,,,,,,,,DODOMA,TZ,638620-99999,2019,14,1.0
070610,99999,2019-10-06,49.817,3.2,101.0,350.0,2.1,11.3,1021.3,,0.0,,6.0,0.0,,ST. QUENTIN/ROUPY,FR,070610-99999,2019,14,1.0
027220,99999,2019-10-06,68.417,27.417,302.0,,,5.9,,,,,,,,INARI SAARISELKA,FI,027220-99999,2019,14,1.0
407805,99999,2019-10-06,33.433,48.283,1148.0,140.0,2.0,20.4,997.8,,,,6.0,0.0,,KHORAM ABAD,IR,407805-99999,2019,14,1.0
984270,99999,2019-10-06,14.017,121.6,158.0,,,26.2,1007.5,BKN,,,,,,TAYABAS,RP,984270-99999,2019,14,1.0
942480,99999,2019-10-06,-15.75,136.8,13.0,150.0,11.8,20.7,1020.4,,,,,,,CENTRE ISLAND,AS,942480-99999,2019,14,1.0
145490,99999,2019-10-06,44.217,17.9,348.0,110.0,1.0,,,,,,6.0,9.0,,ZENICA,BK,145490-99999,2019,14,1.0
030260,99999,2019-10-06,58.217,-6.317,15.0,250.0,1.5,12.3,1026.5,,,,6.0,0.0,,STORNOWAY,UK,030260-99999,2019,14,1.0
982330,99999,2019-10-06,17.633,121.75,62.0,180.0,1.0,28.0,1008.1,SCT,5.0,4.0,,,,TUGUEGARAO,RP,982330-99999,2019,14,1.0
027500,99999,2019-10-06,59.85,23.25,3.0,,,13.2,,,,,,,,HANKO TVARMINNE,FI,027500-99999,2019,14,1.0
999999,63857,2019-10-06,34.285,-85.962,351.0,,0.9,22.8,,,,,1.0,0.0,,GADSDEN 19 N,US,999999-63857,2019,14,1.0
484740,99999,2019-10-06,12.583,99.733,108.0,240.0,1.0,22.5,1008.8,SCT,,,,,,NONG PHLUB AGROMET,TH,484740-99999,2019,14,1.0
998475,99999,2019-10-06,38.033,-122.125,10.0,300.0,7.2,27.3,1010.0,,,,,,,MARTINEZ-AMORCO,US,998475-99999,2019,14,1.0
967410,99999,2019-10-06,-6.1,106.867,2.0,0.0,0.0,26.6,1012.3,BKN,,,,,,JAKARTA/TANJUNG PRIOK,ID,967410-99999,2019,14,1.0
485800,99999,2019-10-06,6.783,101.15,6.0,0.0,0.0,23.6,1009.3,SCT,10.0,0.0,24.0,42.0,,PATTANI,TH,485800-99999,2019,14,1.0
166320,99999,2019-10-06,40.3,21.841,627.0,,0.5,15.9,1008.2,,,,6.0,30.0,,FILIPPOS,GR,166320-99999,2019,14,1.0
121056,99999,2019-10-06,52.451,20.652,104.0,10.0,2.6,15.0,,,,,,,,MODLIN,PL,121056-99999,2019,14,1.0
176090,99999,2019-10-06,34.875,33.625,2.0,,0.5,23.0,,,,,,,,LARNACA,CY,176090-99999,2019,14,1.0
998491,99999,2019-10-06,30.279,-87.556,2.0,0.0,0.0,29.7,1016.6,,,,,,,PERDIDO PASS,US,998491-99999,2019,14,1.0
176090,99999,2019-10-06,34.883,33.633,2.0,210.0,0.5,23.4,1006.4,,,,6.0,0.0,,LARNACA,CY,176090-99999,2019,14,1.0
039620,99999,2019-10-06,52.7,-8.917,20.0,350.0,3.0,12.1,1027.0,,,,6.0,0.0,,SHANNON,EI,039620-99999,2019,14,1.0
039620,99999,2019-10-06,52.702,-8.925,14.0,350.0,2.6,12.0,,,,,,,,SHANNON,EI,039620-99999,2019,14,1.0
222170,99999,2019-10-06,67.15,32.35,25.0,20.0,2.0,8.3,1012.8,BKN,,,,,,KANDALAKSHA,RS,222170-99999,2019,14,1.0
716630,99999,2019-10-06,53.133,-109.4,640.0,110.0,0.5,24.1,1008.0,,,,24.0,0.0,,WASECA RCS,CA,716630-99999,2019,14,1.0
157300,99999,2019-10-06,41.65,25.383,331.0,20.0,2.0,15.9,1008.6,OVC,3.0,9.0,6.0,0.0,,KURDJALI,BU,157300-99999,2019,14,1.0
080010,99999,2019-10-06,43.367,-8.417,67.0,60.0,1.0,19.6,1017.5,BKN,,,6.0,0.0,,LA CORUNA,SP,080010-99999,2019,14,1.0
967810,99999,2019-10-06,-6.9,107.583,740.0,0.0,0.0,22.5,1015.8,FEW,5.0,1.0,,,,HUSEIN SASTRANEGARA,ID,967810-99999,2019,14,1.0
969350,99999,2019-10-06,-7.367,112.767,3.0,0.0,0.0,21.6,1014.3,SCT,5.0,2.0,,,,SURABAYA JUANDA,ID,969350-99999,2019,14,1.0
419980,99999,2019-10-06,20.867,92.3,6.0,0.0,0.0,24.5,1005.1,OVC,61.0,6.0,24.0,540.0,,TEKNAF,BG,419980-99999,2019,14,1.0
987520,99999,2019-10-06,8.95,125.483,46.0,180.0,1.0,25.8,1009.6,OVC,15.0,8.0,24.0,27.0,,BUTUAN,RP,987520-99999,2019,14,1.0
380010,99999,2019-10-06,44.55,50.25,-25.0,320.0,6.0,23.8,1007.3,,,,,,,AKTAU,KZ,380010-99999,2019,14,1.0
063800,99999,2019-10-06,50.9,5.75,114.0,360.0,3.0,14.8,1020.1,OVC,,,6.0,0.0,,MAASTRICHT,NL,063800-99999,2019,14,1.0
320990,99999,2019-10-06,48.65,144.733,6.0,120.0,4.0,9.1,1014.8,OBS,45.0,2.0,,,,MYS TERPENIYA,RS,320990-99999,2019,14,1.0
230320,99999,2019-10-06,69.717,66.8,25.0,110.0,9.0,10.3,1014.9,OVC,80.0,8.0,,,,MARESALE,RS,230320-99999,2019,14,1.0
380010,99999,2019-10-06,43.86,51.092,22.0,320.0,4.0,20.0,,,,,,,,AKTAU,KZ,380010-99999,2019,14,1.0
041970,99999,2019-10-06,65.267,-13.583,11.0,350.0,2.1,8.6,1016.2,,,,3.0,0.0,,DALATANGI,IC,041970-99999,2019,14,1.0
718680,99999,2019-10-06,52.817,-102.317,358.0,280.0,2.1,24.9,1010.1,,,,,,,HUDSON BAY  SASK,CA,718680-99999,2019,14,1.0
703400,25506,2019-10-06,59.75,-154.917,49.0,130.0,3.1,14.4,1012.3,OVC,61.0,,6.0,60.0,,ILIAMNA AIRPORT,US,703400-25506,2019,14,1.0
997356,99999,2019-10-06,24.72,-81.1,10.0,0.0,0.0,29.9,1017.6,,,,,,,VACA KEY,US,997356-99999,2019,14,1.0
978760,99999,2019-10-06,-6.1,140.3,16.0,150.0,2.1,26.3,1013.9,BKN,,,,,,TANAH MERAH,ID,978760-99999,2019,14,1.0
484780,99999,2019-10-06,12.633,101.35,5.0,0.0,0.0,26.0,1008.3,FEW,,,,,,RAYONG,TH,484780-99999,2019,14,1.0
763820,99999,2019-10-06,21.517,-103.433,1124.0,340.0,3.0,35.0,1002.6,FEW,,,24.0,0.0,,TORREON INTL,MX,763820-99999,2019,14,1.0
484320,99999,2019-10-06,14.883,103.5,147.0,220.0,2.6,26.2,1006.8,BKN,10.0,1.0,24.0,155.0,,SURIN,TH,484320-99999,2019,14,1.0
321650,99999,2019-10-06,44.017,145.867,49.0,60.0,3.0,12.9,1011.5,OBS,43.0,4.0,,,,JUZHNO-KURIL'SK,RS,321650-99999,2019,14,1.0
062690,99999,2019-10-06,52.467,5.517,-3.0,360.0,2.0,15.1,1020.3,OVC,,,6.0,0.0,,LELYSTAD,NL,062690-99999,2019,14,1.0
012170,99999,2019-10-06,62.733,7.25,3.0,10.0,2.0,11.0,1018.6,,,,,,,ARO,NO,012170-99999,2019,14,1.0
985380,99999,2019-10-06,11.6,122.75,4.0,,,26.8,1008.5,BKN,5.0,4.0,24.0,50.0,,ROXAS,RP,985380-99999,2019,14,1.0
787200,99999,2019-10-06,14.061,-87.217,1004.0,10.0,1.5,25.0,,,,,,,,TONCONTIN INTL,HO,787200-99999,2019,14,1.0
718680,99999,2019-10-06,52.817,-102.317,358.0,280.0,2.1,24.9,1010.1,,,,24.0,42.0,,HUDSON BAY  SASK,CA,718680-99999,2019,14,1.0
724836,23208,2019-10-06,38.667,-121.4,23.0,240.0,3.1,36.0,,CLR,,,,,,SACRAMENTO MCCLELLAN AFB,US,724836-23208,2019,14,1.0
787200,99999,2019-10-06,14.05,-87.217,1007.0,10.0,1.5,24.9,1013.6,BKN,5.0,4.0,24.0,0.0,,TONCONTIN INTL,HO,787200-99999,2019,14,1.0
971820,99999,2019-10-06,-5.067,119.55,9999.0,60.0,1.5,26.5,1013.0,SCT,,,,,,UJANG PANDANG/PAOTERE,ID,971820-99999,2019,14,1.0
716630,99999,2019-10-06,53.117,-109.4,638.0,110.0,0.5,24.1,1008.0,,,,,,,WASECA RCS,CA,716630-99999,2019,14,1.0
868910,99999,2019-10-06,-22.343,-41.766,2.0,10.0,0.5,15.0,,,,,,,,MACAE,BR,868910-99999,2019,14,1.0
868910,99999,2019-10-06,-22.376,-41.812,25.0,300.0,1.4,17.0,1016.8,,,,99.0,9999.0,,MACAE,BR,868910-99999,2019,14,1.0
062490,99999,2019-10-06,52.65,4.983,-3.0,330.0,2.0,14.3,,,,,6.0,0.0,,BERKHOUT,NL,062490-99999,2019,14,1.0
029460,99999,2019-10-06,61.867,24.817,144.0,,,5.5,,,,,,,,JAMSA HALLI LENTOASEMANTIE,FI,029460-99999,2019,14,1.0
320530,99999,2019-10-06,51.917,143.133,34.0,120.0,4.0,10.5,1014.3,OVC,2.0,4.0,,,,NOGLIKI,RS,320530-99999,2019,14,1.0
307100,99999,2019-10-06,52.267,104.317,469.0,0.0,0.0,16.5,1009.0,OVC,10.0,4.0,12.0,9999.0,,IRKUTSK,RS,307100-99999,2019,14,1.0
486200,99999,2019-10-06,4.217,100.7,8.0,0.0,0.0,24.0,,,,,,,,SITIAWAN,MY,486200-99999,2019,14,1.0
270830,99999,2019-10-06,59.85,48.283,180.0,,,7.6,1010.0,,,,,,,OPARINO,RS,270830-99999,2019,14,1.0
042720,99999,2019-10-06,60.717,-46.05,34.0,0.0,0.0,8.3,1014.9,,,,6.0,9999.0,,JULIANEHAAB,GL,042720-99999,2019,14,1.0
307100,99999,2019-10-06,52.268,104.389,511.0,0.0,0.0,16.0,,,10.0,,,,,IRKUTSK,RS,307100-99999,2019,14,1.0
014250,99999,2019-10-06,58.517,6.517,66.0,350.0,1.0,10.4,1013.8,,,,6.0,1.0,,EIK HOVE,NO,014250-99999,2019,14,1.0
998238,99999,2019-10-06,30.217,-88.5,6.0,150.0,7.7,29.3,1015.1,,,,,,,PETITS BOIS ISLAND,US,998238-99999,2019,14,1.0
722950,23174,2019-10-06,33.933,-118.4,32.0,270.0,4.6,21.7,1010.7,BKN,,,,,,LOS ANGELES INTERNATIONAL AIRPORT,US,722950-23174,2019,14,1.0
486200,99999,2019-10-06,4.217,100.7,8.0,0.0,0.0,24.0,1010.6,BKN,5.0,2.0,24.0,0.0,,SITIAWAN,MY,486200-99999,2019,14,1.0
818700,99999,2019-10-06,-6.399,-41.74,313.0,134.0,2.0,24.5,1014.1,,,,99.0,9999.0,,VALENCA DO PIAUI,BR,818700-99999,2019,14,1.0
714250,99999,2019-10-06,49.25,-65.317,29.0,90.0,2.6,16.0,1008.9,,,,24.0,0.0,,CAP MADELEINE  QUE,CA,714250-99999,2019,14,1.0
714250,99999,2019-10-06,49.25,-65.32,29.0,90.0,2.6,16.0,1008.9,,,,,,,CAP MADELEINE  QUE,CA,714250-99999,2019,14,1.0
484200,99999,2019-10-06,13.517,100.75,3.0,230.0,3.1,28.4,1007.4,BKN,,,,,,SAMUTPRAKAN AGROMET,TH,484200-99999,2019,14,1.0
985530,99999,2019-10-06,11.667,125.45,3.0,320.0,1.0,27.3,1006.9,BKN,5.0,4.0,24.0,440.0,,BORONGAN,RP,985530-99999,2019,14,1.0
984300,99999,2019-10-06,14.65,121.05,46.0,160.0,1.0,27.6,1007.3,BKN,5.0,4.0,24.0,78.0,,SCIENCE GARDEN,RP,984300-99999,2019,14,1.0
320980,99999,2019-10-06,49.217,143.1,8.0,120.0,1.0,11.9,1015.3,OBS,45.0,5.0,,,,PORONAJSK,RS,320980-99999,2019,14,1.0
787920,99999,2019-10-06,9.071,-79.383,41.0,150.0,1.5,25.0,,,61.0,,,,,TOCUMEN INTL,PM,787920-99999,2019,14,1.0
254280,99999,2019-10-06,65.233,160.533,264.0,10.0,1.0,26.4,1005.3,FEW,4.0,1.0,,,,OMOLON,RS,254280-99999,2019,14,1.0
985460,99999,2019-10-06,12.5,124.633,7.0,220.0,1.0,27.0,1007.9,OVC,,,24.0,26.0,,CATARMAN,RP,985460-99999,2019,14,1.0
426470,99999,2019-10-06,23.077,72.635,58.0,230.0,5.1,29.0,,,5.0,,,,,AHMEDABAD,IN,426470-99999,2019,14,1.0
915790,99999,2019-10-06,-20.633,166.567,9.0,160.0,3.1,24.9,1013.6,BKN,0.0,,6.0,0.0,,OUVEA,NC,915790-99999,2019,14,1.0
994082,99999,2019-10-06,28.43,-82.66,0.0,110.0,1.5,34.0,1018.4,,,,,,,APK - ARIPEKA  FL,US,994082-99999,2019,14,1.0
984320,99999,2019-10-06,14.083,121.05,11.0,,,28.1,1008.0,BKN,5.0,4.0,,,,AMBULONG,RP,984320-99999,2019,14,1.0
384032,99999,2019-10-06,41.584,60.642,98.0,,1.0,25.0,,,,,,,,URGENCH,UZ,384032-99999,2019,14,1.0
722500,12919,2019-10-06,25.917,-97.417,8.0,160.0,9.3,33.3,1008.0,,,,,,,BROWNSVILLE/S PADRE  ISLAND INTL AP,US,722500-12919,2019,14,1.0
250420,99999,2019-10-06,69.917,167.967,14.0,310.0,3.0,5.0,1009.4,OVC,,,,,,AJON,RS,250420-99999,2019,14,1.0
710680,99999,2019-10-06,56.217,-117.433,571.0,210.0,2.1,22.0,1011.3,BKN,,,24.0,83.0,,PEACE RIVER,CA,710680-99999,2019,14,1.0
718780,99999,2019-10-06,52.183,-113.9,905.0,130.0,1.5,22.0,1012.7,,16.0,,,,,RED DEER REGIONAL,CA,718780-99999,2019,14,1.0
710680,99999,2019-10-06,56.227,-117.447,571.0,200.0,2.6,22.0,1011.3,,,,,,,PEACE RIVER,CA,710680-99999,2019,14,1.0
484150,99999,2019-10-06,14.517,100.717,10.0,220.0,1.0,26.3,1007.7,BKN,10.0,2.0,,,,AYUTTHAYA,TH,484150-99999,2019,14,1.0
965290,99999,2019-10-06,2.117,117.45,26.0,300.0,1.0,24.9,1012.6,BKN,,,24.0,30.0,,KALIMARAU,ID,965290-99999,2019,14,1.0
718780,99999,2019-10-06,52.183,-113.9,905.0,140.0,1.5,21.9,1012.8,BKN,,,24.0,9999.0,,RED DEER REGIONAL,CA,718780-99999,2019,14,1.0
960910,99999,2019-10-06,0.917,104.533,18.0,130.0,2.1,25.6,1011.9,BKN,,,,,,KIJANG,ID,960910-99999,2019,14,1.0
484800,99999,2019-10-06,12.617,102.117,4.0,0.0,0.0,26.9,1008.0,FEW,10.0,0.0,24.0,5.0,,CHANTHABURI,TH,484800-99999,2019,14,1.0
701740,26533,2019-10-06,66.917,-151.533,196.0,210.0,4.6,22.2,1007.5,BKN,,,,,,BETTLES AIRPORT,US,701740-26533,2019,14,1.0
426470,99999,2019-10-06,23.067,72.633,55.0,200.0,2.1,29.0,1003.2,SCT,5.0,2.0,,,,AHMEDABAD,IN,426470-99999,2019,14,1.0
408560,99999,2019-10-06,29.467,60.883,1370.0,340.0,2.0,27.6,992.4,,,,6.0,0.0,,ZAHEDAN INTL,IR,408560-99999,2019,14,1.0
228200,99999,2019-10-06,61.885,34.155,46.0,240.0,1.0,9.0,,,,,,,,PETROZAVODSK,RS,228200-99999,2019,14,1.0
133530,99999,2019-10-06,43.825,18.331,521.0,320.0,1.5,12.0,,,10.0,,,,,SARAJEVO,BK,133530-99999,2019,14,1.0
655780,99999,2019-10-06,5.261,-3.926,6.0,,0.5,24.0,,,,,,,,ABIDJAN FELIX HOUPHOUET BOIGNY INTL,IV,655780-99999,2019,14,1.0
477880,99999,2019-10-06,34.035,131.549,2.0,0.0,0.0,22.0,,,80.0,,,,,HOFU,JA,477880-99999,2019,14,1.0
715971,99999,2019-10-06,46.55,-61.05,13.0,120.0,1.5,16.3,1010.8,,,,24.0,9999.0,,GRAND ETANG,CA,715971-99999,2019,14,1.0
999999,63826,2019-10-06,33.355,-81.328,97.0,,2.3,26.8,,,,,1.0,0.0,,BLACKVILLE 3 W,US,999999-63826,2019,14,1.0
715971,99999,2019-10-06,46.55,-61.05,13.0,120.0,1.5,16.3,1010.8,,,,,,,GRAND ETANG,CA,715971-99999,2019,14,1.0
655780,99999,2019-10-06,5.25,-3.933,7.0,0.0,0.0,24.2,1015.1,BKN,,,,,,ABIDJAN FELIX HOUPHOUET BOIGNY INTL,IV,655780-99999,2019,14,1.0
228200,99999,2019-10-06,61.817,34.267,110.0,240.0,2.0,8.1,1008.2,OVC,2.0,8.0,,,,PETROZAVODSK,RS,228200-99999,2019,14,1.0
021880,99999,2019-10-06,65.317,22.383,2.0,270.0,2.0,12.0,,BKN,,,1.0,0.0,,RODKALLEN,SW,021880-99999,2019,14,1.0
276530,99999,2019-10-06,55.367,43.783,127.0,,,9.9,1009.8,FEW,11.0,1.0,,,,ARZAMAS,RS,276530-99999,2019,14,1.0
408560,99999,2019-10-06,29.476,60.907,1378.0,340.0,2.1,28.0,,,,,,,,ZAHEDAN INTL,IR,408560-99999,2019,14,1.0
123450,99999,2019-10-06,52.2,18.667,117.0,20.0,2.0,15.2,1011.9,,,,6.0,0.0,,KOLO,PL,123450-99999,2019,14,1.0
122100,99999,2019-10-06,53.767,15.4,53.0,280.0,1.0,14.1,1013.8,,,,6.0,0.0,,RESKO-SMOLSKO,PL,122100-99999,2019,14,1.0
719650,99999,2019-10-06,63.616,-135.868,504.0,160.0,2.1,24.0,1008.8,,,,,,,MAYO,CA,719650-99999,2019,14,1.0
442660,99999,2019-10-06,46.317,93.9,2095.0,360.0,3.0,11.9,1008.8,BKN,,,,,,TONHIL,MG,442660-99999,2019,14,1.0
431850,99999,2019-10-06,16.2,81.15,3.0,200.0,3.1,25.6,1006.3,BKN,2.0,9.0,21.0,130.0,,MACHILIPATNAM/FRANCHPET,IN,431850-99999,2019,14,1.0
975300,99999,2019-10-06,-0.883,134.05,3.0,0.0,0.0,27.7,1008.9,FEW,,,,,,RENDANI,ID,975300-99999,2019,14,1.0
219210,99999,2019-10-06,70.683,127.4,33.0,10.0,3.0,12.6,1008.1,OVC,61.0,6.0,12.0,20.0,,KJUSJUR,RS,219210-99999,2019,14,1.0
869760,99999,2019-10-06,-29.192,-54.886,390.0,148.0,1.6,15.0,1014.0,,,,99.0,9999.0,,SANTIAGO,BR,869760-99999,2019,14,1.0
360340,99999,2019-10-06,51.576,81.217,219.0,20.0,5.0,18.0,1007.8,,,,12.0,0.0,,RUBCOVSK,RS,360340-99999,2019,14,1.0
872890,99999,2019-10-06,-29.689,-57.152,70.0,160.0,6.7,15.0,,,,,,,,PASO DE LOS LIBRES,AR,872890-99999,2019,14,1.0
299560,99999,2019-10-06,52.8,89.917,455.0,230.0,1.0,15.2,1008.5,OVC,10.0,2.0,12.0,0.0,,TASTYP,RS,299560-99999,2019,14,1.0
242660,99999,2019-10-06,67.567,133.4,138.0,180.0,2.0,18.3,1005.3,,5.0,1.0,,,,VERHOJANSK,RS,242660-99999,2019,14,1.0
717990,99999,2019-10-06,48.647,-123.426,19.0,80.0,1.5,24.0,1015.1,,,,,,,VICTORIA INTL,CA,717990-99999,2019,14,1.0
717990,99999,2019-10-06,48.633,-123.417,19.0,90.0,2.1,23.9,1015.2,BKN,,,24.0,0.0,,VICTORIA INTL,CA,717990-99999,2019,14,1.0
427060,99999,2019-10-06,23.383,87.083,100.0,180.0,1.0,28.4,998.9,OVC,5.0,2.0,,,,BANKURA,IN,427060-99999,2019,14,1.0
872890,99999,2019-10-06,-29.683,-57.15,69.0,160.0,6.7,15.2,1015.0,OVC,20.0,6.0,6.0,1.0,,PASO DE LOS LIBRES,AR,872890-99999,2019,14,1.0
688580,99999,2019-10-06,-33.033,27.833,125.0,10.0,2.6,13.1,1021.0,,,,6.0,0.0,,EAST LONDON,SF,688580-99999,2019,14,1.0
309750,99999,2019-10-06,50.333,119.067,521.0,60.0,1.0,23.4,1001.3,FEW,,,12.0,0.0,,PRIARGUNSK,RS,309750-99999,2019,14,1.0
259190,99999,2019-10-06,59.1,153.333,13.0,100.0,2.0,11.9,1010.4,,,,,,,BRAT' EV (MYS),RS,259190-99999,2019,14,1.0
310050,99999,2019-10-06,58.967,126.267,284.0,,,18.4,1006.0,OVC,2.0,4.0,12.0,20.0,,TOMMOT,RS,310050-99999,2019,14,1.0
442980,99999,2019-10-06,46.45,108.217,1286.0,170.0,3.0,24.3,1003.1,SCT,,,,,,CHOIR,MG,442980-99999,2019,14,1.0
279720,99999,2019-10-06,53.05,46.433,253.0,,,13.8,1008.0,BKN,,,,,,RADISHCHEVO,RS,279720-99999,2019,14,1.0
319150,99999,2019-10-06,44.4,131.383,211.0,50.0,1.0,18.4,1004.8,OVC,60.0,8.0,,,,POGRANICHNYJ,RS,319150-99999,2019,14,1.0
013360,99999,2019-10-06,60.65,6.217,328.0,,,10.1,,,,,6.0,0.0,,BULKEN,NO,013360-99999,2019,14,1.0
064000,99999,2019-10-06,51.09,2.652,4.0,40.0,3.0,16.2,1021.7,,,,99.0,9999.0,,KOKSIJDE,BE,064000-99999,2019,14,1.0
432840,99999,2019-10-06,12.961,74.89,103.0,0.0,0.0,25.0,,,,,,,,MANGALORE,IN,432840-99999,2019,14,1.0
724460,03947,2019-10-06,39.283,-94.75,313.0,0.0,0.0,31.1,1014.7,FEW,,,,,,KANSAS CITY INTERNATIONAL AIRPORT,US,724460-03947,2019,14,1.0
478500,99999,2019-10-06,31.368,130.845,65.0,240.0,7.2,25.0,,,,,,,,KANOYA,JA,478500-99999,2019,14,1.0
714990,99999,2019-10-06,57.25,-105.617,514.0,290.0,2.1,14.9,1013.2,OVC,,,24.0,25.0,,KEY LAKE,CA,714990-99999,2019,14,1.0
133880,99999,2019-10-06,43.337,21.854,198.0,330.0,1.5,15.0,,,,,,,,NIS,RI,133880-99999,2019,14,1.0
712230,99999,2019-10-06,51.93,-110.72,772.0,80.0,6.2,24.2,,,,,,,,CONSORT AGDM  ALTA,CA,712230-99999,2019,14,1.0
712510,99999,2019-10-06,50.05,-112.13,779.0,70.0,1.0,29.1,1010.5,,,,,,,VAUXHALL CDA CS  ALTA,CA,712510-99999,2019,14,1.0
712510,99999,2019-10-06,50.05,-112.133,779.0,70.0,1.0,29.1,1010.5,,,,24.0,0.0,,VAUXHALL CDA CS  ALTA,CA,712510-99999,2019,14,1.0
308460,99999,2019-10-06,51.35,112.467,743.0,80.0,1.0,19.8,1005.9,,4.0,0.0,12.0,0.0,,ULETY,RS,308460-99999,2019,14,1.0
483900,99999,2019-10-06,16.333,103.583,141.0,0.0,0.0,28.2,1005.6,BKN,10.0,2.0,,,,KAMALASAI,TH,483900-99999,2019,14,1.0
719360,99999,2019-10-06,62.463,-114.44,206.0,190.0,5.1,16.0,1009.0,,,,,,,YELLOWKNIFE,CA,719360-99999,2019,14,1.0
719360,99999,2019-10-06,62.45,-114.433,206.0,190.0,4.6,16.3,1009.1,BKN,,,24.0,0.0,,YELLOWKNIFE,CA,719360-99999,2019,14,1.0
131730,99999,2019-10-06,45.37,20.42,80.0,260.0,3.0,15.2,1009.6,BKN,,,6.0,9999.0,,ZRENJANIN,RI,131730-99999,2019,14,1.0
712600,99999,2019-10-06,46.483,-84.517,192.0,310.0,5.7,18.0,1016.0,FEW,,,24.0,0.0,,SAULT STE MARIE,CA,712600-99999,2019,14,1.0
712600,99999,2019-10-06,46.485,-84.509,192.0,310.0,6.2,18.0,1016.0,FEW,,,,,,SAULT STE MARIE,CA,712600-99999,2019,14,1.0
223650,99999,2019-10-06,66.405,43.267,20.0,10.0,5.0,7.6,1010.7,BKN,10.0,2.0,,,,ABRAMOVSKIJ MAJAK,RS,223650-99999,2019,14,1.0
432840,99999,2019-10-06,12.917,74.883,102.0,0.0,0.0,24.6,1009.3,BKN,,,21.0,3.0,,MANGALORE,IN,432840-99999,2019,14,1.0
337450,99999,2019-10-06,47.783,27.95,102.0,,,16.9,1009.6,BKN,,,,,,BALTI,MD,337450-99999,2019,14,1.0
071690,99999,2019-10-06,48.636,4.899,140.0,360.0,2.6,15.0,,,,,,,,ROBINSON,FR,071690-99999,2019,14,1.0
718420,99999,2019-10-06,50.117,-91.9,383.0,230.0,4.1,24.0,1016.2,FEW,,,,,,SIOUX LOOKOUT AIRPORT,CA,718420-99999,2019,14,1.0
718420,99999,2019-10-06,50.117,-91.9,383.0,240.0,2.6,24.4,1016.3,FEW,,,24.0,0.0,,SIOUX LOOKOUT AIRPORT,CA,718420-99999,2019,14,1.0
215350,99999,2019-10-06,74.667,138.9,15.0,230.0,5.0,0.2,1007.6,OVC,10.0,2.0,12.0,9999.0,,SANNIKOVA,RS,215350-99999,2019,14,1.0
723260,13891,2019-10-06,35.817,-83.983,299.0,220.0,8.2,25.6,1018.1,OVC,17.0,,6.0,3.0,,MC GHEE TYSON AIRPORT,US,723260-13891,2019,14,1.0
443290,99999,2019-10-06,44.617,98.7,2103.0,20.0,3.0,9.9,1011.8,OVC,63.0,6.0,12.0,120.0,,AMARBUYANTAYN,MG,443290-99999,2019,14,1.0
133700,99999,2019-10-06,43.833,20.033,312.0,,,14.5,1011.4,OVC,10.0,9.0,6.0,30.0,,POZEGA UZICKA,RI,133700-99999,2019,14,1.0
285020,99999,2019-10-06,56.233,51.033,83.0,300.0,1.0,13.6,1006.9,OVC,,,,,,VJATSKIE POLJANY,RS,285020-99999,2019,14,1.0
297060,99999,2019-10-06,54.367,77.283,115.0,40.0,1.0,16.6,1014.5,,,,12.0,0.0,,KUPINO,RS,297060-99999,2019,14,1.0
722953,03183,2019-10-06,35.067,-118.15,851.0,220.0,7.2,38.0,,CLR,,,,,,MOJAVE AIRPORT,US,722953-03183,2019,14,1.0
133880,99999,2019-10-06,43.333,21.9,203.0,280.0,1.0,15.5,1010.7,OVC,21.0,6.0,6.0,6.0,,NIS,RI,133880-99999,2019,14,1.0
154650,99999,2019-10-06,44.029,23.331,57.0,340.0,2.0,16.5,1009.3,,,,6.0,20.0,,BAILESTI,RO,154650-99999,2019,14,1.0
712670,99999,2019-10-06,49.633,-112.8,929.0,210.0,3.1,30.0,1010.0,SCT,,,,,,LETHBRIDGE,CA,712670-99999,2019,14,1.0
712670,99999,2019-10-06,49.633,-112.8,929.0,230.0,3.6,30.0,1009.9,SCT,,,24.0,0.0,,LETHBRIDGE,CA,712670-99999,2019,14,1.0
083480,99999,2019-10-06,38.989,-3.92,628.0,230.0,2.1,23.2,1013.0,,,,6.0,9999.0,,CIUDAD REAL,SP,083480-99999,2019,14,1.0
080840,99999,2019-10-06,42.45,-2.333,363.0,250.0,4.1,19.0,,CLR,,,,,,LOGRONO/AGONCILLO,SP,080840-99999,2019,14,1.0
080840,99999,2019-10-06,42.452,-2.331,353.0,260.0,3.6,19.2,1017.4,,,,6.0,40.0,,LOGRONO/AGONCILLO,SP,080840-99999,2019,14,1.0
999999,54854,2019-10-06,44.908,-84.72,445.0,,2.4,20.6,,,,,1.0,0.0,,GAYLORD 9 SSW,US,999999-54854,2019,14,1.0
419470,99999,2019-10-06,22.783,89.533,4.0,0.0,0.0,27.8,1000.2,OVC,,,24.0,530.0,,KHULNA,BG,419470-99999,2019,14,1.0
722680,23009,2019-10-06,33.3,-104.533,1118.0,100.0,3.1,37.2,1007.8,SCT,,,,,,ROSWELL INTERNATIONAL AIR CENTER AP,US,722680-23009,2019,14,1.0
027810,99999,2019-10-06,62.983,20.733,4.0,360.0,3.0,10.6,1013.7,,,,,,,STROMMINGSBADN,FI,027810-99999,2019,14,1.0
725190,14771,2019-10-06,43.117,-76.1,125.0,280.0,3.1,28.3,1011.2,BKN,,,,,,SYRACUSE HANCOCK INTERNATIONAL AP,US,725190-14771,2019,14,1.0
418580,99999,2019-10-06,25.75,88.917,39.0,240.0,3.6,25.7,998.6,OVC,29.0,9.0,24.0,1182.0,,SAIDPUR,BG,418580-99999,2019,14,1.0
717180,99999,2019-10-06,48.6,-68.217,52.0,70.0,3.1,17.0,1007.2,,,,,,,MONT JOLI A,CA,717180-99999,2019,14,1.0
717180,99999,2019-10-06,48.6,-68.217,52.0,80.0,3.1,17.4,1007.2,BKN,,,24.0,15.0,,MONT JOLI A,CA,717180-99999,2019,14,1.0
014120,99999,2019-10-06,58.659,5.555,24.0,355.0,10.4,10.5,1016.9,,,,6.0,9999.0,,OBRESTAD,NO,014120-99999,2019,14,1.0
418621,99999,2019-10-06,25.8,89.55,31.0,130.0,1.0,25.0,998.5,OVC,63.0,6.0,24.0,552.0,,RAJARHAT KURIGRAM,BG,418621-99999,2019,14,1.0
419510,99999,2019-10-06,22.683,90.65,5.0,0.0,0.0,25.6,1001.1,OVC,2.0,6.0,24.0,529.0,,BHOLA,BG,419510-99999,2019,14,1.0
433290,99999,2019-10-06,11.767,79.767,12.0,0.0,0.0,27.0,1008.0,BKN,,,,,,CUDDALORE,IN,433290-99999,2019,14,1.0
248020,99999,2019-10-06,61.738,102.805,358.0,260.0,1.0,14.1,1010.5,OVC,,,12.0,9999.0,,STRELKA CHUNYA,RS,248020-99999,2019,14,1.0
879340,99999,2019-10-06,-53.778,-67.749,20.0,50.0,8.2,5.0,,,10.0,,,,,RIO GRANDE,AR,879340-99999,2019,14,1.0
879340,99999,2019-10-06,-53.367,-67.733,13.0,50.0,8.2,5.0,1002.7,OVC,63.0,6.0,6.0,40.0,,RIO GRANDE,AR,879340-99999,2019,14,1.0
162660,99999,2019-10-06,41.883,16.167,4.0,50.0,3.1,22.6,1009.8,,,,24.0,142.0,,VIESTE,IT,162660-99999,2019,14,1.0
308440,99999,2019-10-06,51.35,110.467,802.0,260.0,2.0,15.5,1007.9,FEW,4.0,0.0,12.0,0.0,,HILOK,RS,308440-99999,2019,14,1.0
014520,99999,2019-10-06,58.2,8.083,17.0,60.0,3.0,13.2,1013.0,,,,6.0,0.0,,KJEVIK,NO,014520-99999,2019,14,1.0
443360,99999,2019-10-06,45.45,103.9,1316.0,110.0,1.0,24.1,1002.4,SCT,,,,,,SAIKHAN-OVOO,MG,443360-99999,2019,14,1.0
866720,99999,2019-10-06,-13.251,-43.405,448.0,165.0,1.2,25.7,1014.4,,,,99.0,9999.0,,BOM JESUS DA LAPA,BR,866720-99999,2019,14,1.0
084190,99999,2019-10-06,37.189,-3.777,567.0,240.0,3.1,22.0,,CLR,,,,,,GRANADA,SP,084190-99999,2019,14,1.0
084190,99999,2019-10-06,37.19,-3.789,567.0,240.0,4.6,21.6,1014.1,,,,6.0,9999.0,,GRANADA,SP,084190-99999,2019,14,1.0
316320,99999,2019-10-06,49.933,134.633,283.0,230.0,2.0,22.3,1006.8,BKN,,,,,,KUR,RS,316320-99999,2019,14,1.0
712230,99999,2019-10-06,51.933,-110.7,772.0,80.0,6.2,24.2,,,,,24.0,9999.0,,CONSORT AGDM  ALTA,CA,712230-99999,2019,14,1.0
419410,99999,2019-10-06,23.267,90.7,7.0,0.0,0.0,25.5,1001.2,OVC,2.0,9.0,24.0,580.0,,CHANDPUR,BG,419410-99999,2019,14,1.0
711290,99999,2019-10-06,51.517,-109.183,694.0,80.0,5.1,27.2,1008.2,BKN,16.0,2.0,24.0,0.0,,KINDERSLEY,CA,711290-99999,2019,14,1.0
296760,99999,2019-10-06,55.269,94.9,337.0,0.0,0.0,15.7,1008.2,OVC,60.0,6.0,,,,AGINSKOE,RS,296760-99999,2019,14,1.0
442910,99999,2019-10-06,47.85,106.75,1272.0,,,19.8,1006.3,BKN,,,12.0,0.0,,SONGIIN,MG,442910-99999,2019,14,1.0
249880,99999,2019-10-06,60.083,142.333,198.0,180.0,1.0,14.8,1012.4,OVC,,,,,,ARKA,RS,249880-99999,2019,14,1.0
637170,99999,2019-10-06,-0.433,36.967,1798.0,140.0,1.0,15.1,,BKN,,,,,,NYERI,KE,637170-99999,2019,14,1.0
836300,99999,2019-10-06,-20.55,-47.433,1026.0,0.0,0.0,21.0,,BKN,,,,,,FRANCA,BR,836300-99999,2019,14,1.0
433110,99999,2019-10-06,11.117,72.733,3.0,270.0,7.2,28.0,1008.6,BKN,2.0,6.0,21.0,40.0,,M.O. AMINI,IN,433110-99999,2019,14,1.0
419460,99999,2019-10-06,22.717,89.083,6.0,0.0,0.0,28.4,1001.0,OVC,,,24.0,380.0,,SATKHIRA,BG,419460-99999,2019,14,1.0
713380,99999,2019-10-06,67.533,-64.017,6.0,200.0,7.2,8.2,1011.3,,,,24.0,0.0,,QIKIQTARJUAQ A  NU,CA,713380-99999,2019,14,1.0
431890,99999,2019-10-06,16.95,82.233,8.0,0.0,0.0,26.4,1005.8,BKN,,,,,,KAKINADA,IN,431890-99999,2019,14,1.0
338810,99999,2019-10-06,46.483,28.283,156.0,150.0,1.0,17.8,1008.6,BKN,,,,,,LEOVA,MD,338810-99999,2019,14,1.0
298690,99999,2019-10-06,53.3,92.417,298.0,,,16.7,1007.3,OVC,45.0,4.0,12.0,0.0,,ERMAKOVSKOE,RS,298690-99999,2019,14,1.0
419260,99999,2019-10-06,23.65,88.817,12.0,180.0,1.0,27.6,999.7,OVC,,,24.0,210.0,,CHUADANGA,BG,419260-99999,2019,14,1.0
610520,99999,2019-10-06,13.483,2.167,223.0,180.0,3.1,28.5,1012.6,BKN,,,,,,DIORI HAMANI,NG,610520-99999,2019,14,1.0
419530,99999,2019-10-06,22.867,91.1,6.0,0.0,0.0,26.0,1002.0,OVC,2.0,6.0,24.0,460.0,,MAIJDICOURT,BG,419530-99999,2019,14,1.0
075400,99999,2019-10-06,44.033,1.383,108.0,330.0,1.5,23.1,1013.8,,0.0,,6.0,0.0,,MONTAUBAN,FR,075400-99999,2019,14,1.0
712030,99999,2019-10-06,49.956,-119.378,429.0,180.0,4.6,28.0,1010.3,,,,,,,KELOWNA,CA,712030-99999,2019,14,1.0
406230,99999,2019-10-06,35.561,45.315,760.0,320.0,2.6,18.0,,,,,,,,SULYMANIYAH,IZ,406230-99999,2019,14,1.0
249820,99999,2019-10-06,60.717,142.783,398.0,150.0,2.0,19.9,1011.0,SCT,,,,,,UEGA,RS,249820-99999,2019,14,1.0
152060,99999,2019-10-06,46.169,22.726,273.0,90.0,1.0,13.7,1010.3,,,,6.0,2.0,,TEBEA,RO,152060-99999,2019,14,1.0
716910,99999,2019-10-06,49.133,-68.2,22.0,70.0,3.1,14.0,1007.8,FEW,,,,,,BAIE COMEAU,CA,716910-99999,2019,14,1.0
716910,99999,2019-10-06,49.117,-68.2,21.0,70.0,3.1,13.5,1007.9,FEW,,,24.0,10.0,,BAIE COMEAU,CA,716910-99999,2019,14,1.0
997255,99999,2019-10-06,41.73,-87.54,179.0,70.0,1.5,26.9,1014.7,,,,,,,9087044 - CALUMET  IL,US,997255-99999,2019,14,1.0
419090,99999,2019-10-06,24.25,89.933,9999.0,180.0,3.1,24.0,999.9,OVC,,,15.0,1200.0,,TANGAIL,BG,419090-99999,2019,14,1.0
711290,99999,2019-10-06,51.518,-109.181,694.0,,6.2,27.0,1008.2,,16.0,,,,,KINDERSLEY,CA,711290-99999,2019,14,1.0
610520,99999,2019-10-06,13.482,2.184,223.0,190.0,3.1,28.0,,,,,,,,DIORI HAMANI,NG,610520-99999,2019,14,1.0
444540,99999,2019-10-06,27.7,85.367,1337.0,0.0,0.0,24.5,,BKN,,,,,,TRIBHUVAN INTL,NP,444540-99999,2019,14,1.0
483800,99999,2019-10-06,16.483,99.533,82.0,310.0,1.0,27.5,1007.1,BKN,,,,,,KAMPHAENG PHET,TH,483800-99999,2019,14,1.0
247530,99999,2019-10-06,62.733,129.667,90.0,170.0,3.0,25.8,1004.9,FEW,4.0,1.0,12.0,0.0,,NAMTSY,RS,247530-99999,2019,14,1.0
766750,99999,2019-10-06,19.283,-99.683,2720.0,360.0,1.0,13.3,1008.6,OVC,60.0,9.0,6.0,50.0,,TOLUCA  MEX.,MX,766750-99999,2019,14,1.0
236780,99999,2019-10-06,63.15,87.95,46.0,320.0,2.0,12.4,1016.2,FEW,,,12.0,20.0,,VERHNEIMBATSK,RS,236780-99999,2019,14,1.0
385070,99999,2019-10-06,40.033,52.983,90.0,340.0,6.0,21.9,1005.2,OVC,,,,,,TURKMENBASHI,TX,385070-99999,2019,14,1.0
133766,99999,2019-10-06,43.9,19.7,904.0,300.0,4.1,10.0,,,,,,,,UZICE-PONIKVE,RI,133766-99999,2019,14,1.0
711520,99999,2019-10-06,47.617,-57.617,11.0,80.0,6.7,13.3,1012.7,,,,24.0,0.0,,BURGEO NL,CA,711520-99999,2019,14,1.0
711520,99999,2019-10-06,47.62,-57.62,11.0,80.0,6.7,13.3,1012.7,,,,,,,BURGEO NL,CA,711520-99999,2019,14,1.0
718500,99999,2019-10-06,49.783,-94.367,406.0,200.0,3.6,25.0,1015.8,FEW,,,,,,KENORA A,CA,718500-99999,2019,14,1.0
309250,99999,2019-10-06,50.367,106.45,797.0,330.0,2.0,19.2,1006.6,OVC,4.0,2.0,12.0,0.0,,KJAHTA,RS,309250-99999,2019,14,1.0
718500,99999,2019-10-06,49.783,-94.367,410.0,200.0,4.1,24.6,1015.9,FEW,,,24.0,0.0,,KENORA A,CA,718500-99999,2019,14,1.0
876450,99999,2019-10-06,-37.233,-59.25,175.0,230.0,1.0,1.9,1020.1,,,,,,,TANDIL,AR,876450-99999,2019,14,1.0
610960,99999,2019-10-06,13.233,11.983,337.0,220.0,1.0,28.2,1010.0,BKN,,,,,,MAINE-SOROA,NG,610960-99999,2019,14,1.0
293740,99999,2019-10-06,57.683,93.267,93.0,,,11.1,1010.5,OVC,28.0,4.0,12.0,0.0,,KAZACHINSKOE,RS,293740-99999,2019,14,1.0
866970,99999,2019-10-06,-14.886,-40.801,879.0,52.0,1.7,17.6,1020.1,,,,99.0,9999.0,,VITORIA DA CONQUISTA,BR,866970-99999,2019,14,1.0
250170,99999,2019-10-06,69.167,154.5,16.0,50.0,3.0,11.5,1008.7,OVC,61.0,6.0,,,,ADRYUSKINO,RS,250170-99999,2019,14,1.0
984280,99999,2019-10-06,14.5,120.9,4.0,340.0,1.0,29.3,1008.2,BKN,5.0,4.0,24.0,4.0,,SANGLEY POINT AB,RP,984280-99999,2019,14,1.0
717670,99999,2019-10-06,45.23,-81.63,214.0,290.0,5.7,19.2,1012.7,,,,,,,TOBERMORY RCS,CA,717670-99999,2019,14,1.0
259220,99999,2019-10-06,60.717,155.883,33.0,60.0,2.0,14.8,1008.5,OBS,47.0,4.0,,,,SHELIHOVA,RS,259220-99999,2019,14,1.0
717670,99999,2019-10-06,45.233,-81.633,214.0,290.0,5.7,19.3,1012.7,,,,24.0,0.0,,TOBERMORY RCS,CA,717670-99999,2019,14,1.0
941310,99999,2019-10-06,-14.517,132.367,135.0,110.0,7.7,21.3,1019.9,,,,,,,TINDAL,AS,941310-99999,2019,14,1.0
132890,99999,2019-10-06,44.117,21.95,1039.0,280.0,6.0,11.3,,OBS,45.0,9.0,6.0,4.0,,CRNI VRH,RI,132890-99999,2019,14,1.0
870470,99999,2019-10-06,-24.856,-65.486,1246.0,50.0,2.6,15.0,,,,,,,,SALTA,AR,870470-99999,2019,14,1.0
715320,99999,2019-10-06,44.967,-79.3,282.0,260.0,3.1,22.7,1011.6,OVC,,,24.0,15.0,,MUSKOKA AWOS  ONT,CA,715320-99999,2019,14,1.0
870470,99999,2019-10-06,-24.467,-65.467,1238.0,50.0,2.6,14.6,,OVC,,,1.0,9999.0,,SALTA,AR,870470-99999,2019,14,1.0
010080,99999,2019-10-06,78.25,15.467,29.0,240.0,6.0,3.3,1016.1,BKN,58.0,6.0,99.0,9999.0,,LONGYEAR,SV,010080-99999,2019,14,1.0
314780,99999,2019-10-06,52.267,133.983,902.0,40.0,1.0,18.0,1006.7,OVC,2.0,6.0,,,,SOFIJSKIJ PRIISK,RS,314780-99999,2019,14,1.0
161100,99999,2019-10-06,45.65,13.75,4.0,0.0,0.0,20.0,1012.1,,,,6.0,0.0,,TRIESTE,IT,161100-99999,2019,14,1.0
246560,99999,2019-10-06,63.517,129.483,79.0,70.0,2.0,23.8,1005.3,OVC,,,12.0,0.0,,BATAMAJ,RS,246560-99999,2019,14,1.0
152470,99999,2019-10-06,45.771,21.258,86.0,0.0,0.0,15.0,1009.3,BKN,,,6.0,9999.0,,TRAIAN VUIA,RO,152470-99999,2019,14,1.0
711470,99999,2019-10-06,49.5,-98.033,268.0,200.0,2.6,28.3,,,,,24.0,0.0,,CARMAN U OF M CS  MAN,CA,711470-99999,2019,14,1.0
711470,99999,2019-10-06,49.5,-98.03,268.0,200.0,2.6,28.3,,,,,,,,CARMAN U OF M CS  MAN,CA,711470-99999,2019,14,1.0
224810,99999,2019-10-06,65.767,46.2,42.0,330.0,1.0,7.6,1010.2,,47.0,4.0,,,,MOSEEVO,RS,224810-99999,2019,14,1.0
610750,99999,2019-10-06,13.8,5.25,273.0,260.0,1.0,28.0,1012.2,BKN,,,,,,BIRNI-N'KONNI,NG,610750-99999,2019,14,1.0
038030,99999,2019-10-06,49.917,-6.3,30.0,20.0,5.7,15.4,1024.2,,,,6.0,0.0,,SCILLY/SAINT MARY'S,UK,038030-99999,2019,14,1.0
261790,99999,2019-10-06,58.517,31.25,24.0,350.0,1.0,8.8,1010.2,BKN,12.0,8.0,,,,NOVGOROD,RS,261790-99999,2019,14,1.0
280760,99999,2019-10-06,59.6,69.283,57.0,130.0,1.0,19.7,1016.2,FEW,,,,,,DEM'JANSKOE,RS,280760-99999,2019,14,1.0
295620,99999,2019-10-06,56.1,91.667,332.0,,,9.4,1011.5,,10.0,0.0,12.0,0.0,,KEMCHUG,RS,295620-99999,2019,14,1.0
350110,99999,2019-10-06,52.433,53.133,123.0,290.0,2.0,17.4,1006.0,OVC,2.0,8.0,,,,SOROCHINSK,RS,350110-99999,2019,14,1.0
085360,99999,2019-10-06,38.781,-9.136,114.0,300.0,3.1,19.0,,,,,,,,LISBOA,PO,085360-99999,2019,14,1.0
252480,99999,2019-10-06,67.25,167.967,353.0,290.0,4.0,25.4,1004.1,FEW,,,,,,ILIRNEJ,RS,252480-99999,2019,14,1.0
152470,99999,2019-10-06,45.81,21.338,106.0,190.0,2.1,15.0,,,,,,,,TRAIAN VUIA,RO,152470-99999,2019,14,1.0
296980,99999,2019-10-06,54.883,99.033,411.0,,,14.9,1008.0,OVC,,,12.0,0.0,,NIZNE-UDINSK,RS,296980-99999,2019,14,1.0
442140,99999,2019-10-06,48.933,89.933,1715.0,,,13.3,1007.1,OVC,,,,,,ULGI,MG,442140-99999,2019,14,1.0
443540,99999,2019-10-06,44.9,110.117,938.0,120.0,1.0,27.0,1002.4,,,,,,,SAINSHAND,MG,443540-99999,2019,14,1.0
443410,99999,2019-10-06,45.767,106.283,1393.0,110.0,4.0,24.2,1002.7,FEW,,,,,,MANDALGOBI,MG,443410-99999,2019,14,1.0
306350,99999,2019-10-06,53.417,109.017,461.0,160.0,1.0,15.5,1009.9,BKN,40.0,1.0,12.0,0.0,,UST'-BARGUZIN,RS,306350-99999,2019,14,1.0
869030,99999,2019-10-06,-23.505,-49.946,513.0,239.0,1.2,16.5,1017.1,,,,99.0,9999.0,,JOAQUIM TAVORA,BR,869030-99999,2019,14,1.0
722510,12924,2019-10-06,27.783,-97.5,15.0,170.0,5.7,33.9,1007.4,OVC,,,,,,CORPUS CHRISTI  INTERNATIONAL AIRPORT,US,722510-12924,2019,14,1.0
710600,99999,2019-10-06,52.47,-116.08,1362.0,340.0,1.5,13.6,1014.0,,,,1.0,14.0,,NORDEGG CS  ALTA,CA,710600-99999,2019,14,1.0
710600,99999,2019-10-06,52.467,-116.067,1362.0,340.0,1.5,13.6,1014.0,,,,24.0,14.0,,NORDEGG CS  ALTA,CA,710600-99999,2019,14,1.0
430410,99999,2019-10-06,19.083,82.033,553.0,180.0,1.0,24.0,1005.3,BKN,,,21.0,220.0,,JAGDALPUR,IN,430410-99999,2019,14,1.0
999999,54856,2019-10-06,40.764,-81.91,336.0,,1.6,27.6,,,,,1.0,0.0,,WOOSTER 3 SSE,US,999999-54856,2019,14,1.0
276060,99999,2019-10-06,55.017,36.483,197.0,,,10.2,1011.0,OVC,,,,,,MALOJAROSLAVEC,RS,276060-99999,2019,14,1.0
819950,99999,2019-10-06,-9.42,-36.62,278.0,0.0,0.0,22.1,1017.8,,,,99.0,9999.0,,PALMEIRA DOS INDIOS,BR,819950-99999,2019,14,1.0
956420,99999,2019-10-06,-32.217,121.75,263.0,0.0,0.0,1.3,1037.9,,,,,,,NORSEMAN AERO,AS,956420-99999,2019,14,1.0
248260,99999,2019-10-06,61.617,114.617,354.0,340.0,1.0,15.8,1010.4,BKN,2.0,4.0,6.0,0.0,,DOROZHNYJ,RS,248260-99999,2019,14,1.0
260800,99999,2019-10-06,59.45,32.033,26.0,90.0,2.0,10.8,1010.3,OVC,,,,,,KIRISHI,RS,260800-99999,2019,14,1.0
290680,99999,2019-10-06,59.5,90.928,67.0,330.0,4.0,15.2,1014.4,,,,12.0,0.0,,NAZIMOVO,RS,290680-99999,2019,14,1.0
042310,99999,2019-10-06,67.017,-50.7,53.0,70.0,3.6,11.5,1017.7,,,,,,,SONDRE STROMFJORD,GL,042310-99999,2019,14,1.0
431810,99999,2019-10-06,16.53,80.797,25.0,0.0,0.0,25.0,,,63.0,,,,,VIJAYAWADA,IN,431810-99999,2019,14,1.0
431810,99999,2019-10-06,16.533,80.8,21.0,0.0,0.0,24.8,1006.4,OVC,62.0,6.0,21.0,1010.0,,VIJAYAWADA,IN,431810-99999,2019,14,1.0
868170,99999,2019-10-06,-20.36,-47.775,611.0,176.0,1.2,17.6,1017.4,,,,99.0,9999.0,,ITUVERAVA,BR,868170-99999,2019,14,1.0
719440,99999,2019-10-06,55.283,-123.133,690.0,290.0,1.0,20.4,1013.2,BKN,,,24.0,0.0,,MACKENZIE A,CA,719440-99999,2019,14,1.0
719440,99999,2019-10-06,55.3,-123.133,690.0,,1.5,20.0,1013.1,,,,,,,MACKENZIE A,CA,719440-99999,2019,14,1.0
123765,99999,2019-10-06,54.033,19.133,5.0,340.0,2.0,13.0,1012.7,BKN,,,,,,MALBORK,PL,123765-99999,2019,14,1.0
719240,99999,2019-10-06,74.717,-94.969,66.0,100.0,11.8,4.0,1002.6,,,,,,,RESOLUTE BAY,CA,719240-99999,2019,14,1.0
719240,99999,2019-10-06,74.7,-94.967,46.0,100.0,11.8,4.2,1002.7,BKN,2.0,7.0,24.0,36.0,,RESOLUTE BAY,CA,719240-99999,2019,14,1.0
123765,99999,2019-10-06,54.027,19.134,5.0,340.0,1.5,13.0,,,,,,,,MALBORK,PL,123765-99999,2019,14,1.0
307030,99999,2019-10-06,52.967,101.983,543.0,,,13.8,1008.7,OVC,28.0,4.0,12.0,0.0,,INGA,RS,307030-99999,2019,14,1.0
723270,13897,2019-10-06,36.233,-86.55,173.0,200.0,7.2,28.3,1016.7,OVC,17.0,,6.0,0.0,,NASHVILLE INTERNATIONAL AIRPORT,US,723270-13897,2019,14,1.0
246410,99999,2019-10-06,63.767,121.617,111.0,310.0,2.0,23.0,1006.5,OVC,2.0,8.0,12.0,5.0,,VILJUJSK,RS,246410-99999,2019,14,1.0
488550,99999,2019-10-06,16.044,108.199,10.0,210.0,1.5,32.0,,,,,,,,DANANG INTL,VM,488550-99999,2019,14,1.0
488550,99999,2019-10-06,16.067,108.35,7.0,,,30.2,1003.8,BKN,,,,,,DANANG INTL,VM,488550-99999,2019,14,1.0
672950,99999,2019-10-06,-19.117,33.467,731.0,0.0,0.0,12.3,,,,,,,,CHIMOIO,MZ,672950-99999,2019,14,1.0
672950,99999,2019-10-06,-19.151,33.429,697.0,,,12.0,,,,,,,,CHIMOIO,MZ,672950-99999,2019,14,1.0
306640,99999,2019-10-06,53.533,115.617,811.0,,,15.5,1006.8,,,,12.0,0.0,,TUNGOKOCEN,RS,306640-99999,2019,14,1.0
172400,99999,2019-10-06,37.785,30.568,997.0,130.0,0.5,14.0,1005.8,CLR,,,6.0,9999.0,,ISPARTA,TU,172400-99999,2019,14,1.0
308620,99999,2019-10-06,51.867,116.033,597.0,30.0,2.0,19.5,1005.7,,,,12.0,0.0,,SHILKA,RS,308620-99999,2019,14,1.0
296310,99999,2019-10-06,55.3,82.75,137.0,10.0,2.0,17.3,1013.2,BKN,,,12.0,0.0,,KOLYVAN',RS,296310-99999,2019,14,1.0
442650,99999,2019-10-06,46.117,91.467,1186.0,40.0,1.0,16.3,1003.9,BKN,,,12.0,6.0,,BAITAG,MG,442650-99999,2019,14,1.0
713980,99999,2019-10-06,51.283,-80.6,9.0,270.0,3.1,13.7,1012.9,OVC,,,24.0,65.0,,MOOSONEE,CA,713980-99999,2019,14,1.0
259160,99999,2019-10-06,58.833,151.35,65.0,320.0,7.0,8.5,1010.8,,,,,,,ALEVINA (MYS),RS,259160-99999,2019,14,1.0
072554,99999,2019-10-06,47.053,2.633,177.0,40.0,4.6,18.0,,,,,,,,AVORD,FR,072554-99999,2019,14,1.0
724920,23237,2019-10-06,37.9,-121.25,8.0,310.0,4.6,37.2,1008.6,,,,,,,STOCKTON METROPOLITAN AIRPORT,US,724920-23237,2019,14,1.0
133840,99999,2019-10-06,43.933,21.383,125.0,,,15.6,1011.1,OVC,2.0,9.0,6.0,130.0,,CUPRIJA,RI,133840-99999,2019,14,1.0
442160,99999,2019-10-06,48.817,93.1,1051.0,300.0,4.0,18.3,1003.5,BKN,,,,,,HUNHATAOORTOO,MG,442160-99999,2019,14,1.0
243290,99999,2019-10-06,66.25,114.283,236.0,50.0,3.0,16.8,1010.9,OVC,,,12.0,0.0,,SHELAGONTSY,RS,243290-99999,2019,14,1.0
129420,99999,2019-10-06,46.0,18.233,203.0,320.0,3.0,16.5,1011.4,,,,6.0,0.0,,PECS SOUTH,HU,129420-99999,2019,14,1.0
727850,24157,2019-10-06,47.633,-117.533,721.0,260.0,5.7,30.0,1010.5,BKN,,,,,,SPOKANE INTERNATIONAL AIRPORT,US,727850-24157,2019,14,1.0
890140,99999,2019-10-06,-73.05,-13.383,497.0,,,,,,,,,,,NORDENSKIOLD BASE,AY,890140-99999,2019,14,1.0
869820,99999,2019-10-06,-30.369,-56.437,113.0,142.0,2.9,14.0,1014.9,,,,99.0,9999.0,,QUARAI,BR,869820-99999,2019,14,1.0
711080,99999,2019-10-06,49.025,-122.363,59.0,240.0,4.6,24.0,1015.8,,,,,,,ABBOTSFORD,CA,711080-99999,2019,14,1.0
711080,99999,2019-10-06,49.033,-122.367,59.0,230.0,4.1,24.1,1015.8,BKN,,,24.0,0.0,,ABBOTSFORD,CA,711080-99999,2019,14,1.0
082100,99999,2019-10-06,40.667,-4.683,1132.0,10.0,1.5,18.0,,,,,6.0,0.0,,AVILA,SP,082100-99999,2019,14,1.0
339830,99999,2019-10-06,45.4,36.417,49.0,,,14.5,1009.7,,,,,,,KERCH,UP,339830-99999,2019,14,1.0
872220,99999,2019-10-06,-28.6,-65.767,454.0,230.0,1.0,15.6,1015.6,OVC,,,,,,CATAMARCA,AR,872220-99999,2019,14,1.0
941000,99999,2019-10-06,-14.3,126.633,24.0,120.0,6.7,25.1,1018.1,,,,,,,KALUMBURU,AS,941000-99999,2019,14,1.0
873710,99999,2019-10-06,-31.15,-60.8,17.0,180.0,3.6,12.0,1018.1,BKN,,,1.0,9999.0,,SAUCE VIEJO,AR,873710-99999,2019,14,1.0
303850,99999,2019-10-06,56.583,121.483,426.0,250.0,3.0,16.3,1005.2,OVC,2.0,8.0,12.0,4.0,,UST'-NJUKZHA,RS,303850-99999,2019,14,1.0
029580,99999,2019-10-06,61.05,28.15,106.0,320.0,2.0,6.3,1011.0,,,,,,,LAPPEENRANTA,FI,029580-99999,2019,14,1.0
132740,99999,2019-10-06,44.8,20.467,132.0,260.0,2.0,16.3,1010.9,OVC,,,6.0,0.0,,BEOGRAD,RI,132740-99999,2019,14,1.0
041230,99999,2019-10-06,66.417,-22.383,22.0,360.0,1.0,9.3,,,,,,,,HORNBJARGSVITI,IC,041230-99999,2019,14,1.0
442880,99999,2019-10-06,46.267,102.783,1813.0,20.0,4.0,18.4,1003.5,BKN,,,,,,ARVAIHEER,MG,442880-99999,2019,14,1.0
295240,99999,2019-10-06,55.85,80.033,129.0,310.0,1.0,15.9,1015.3,OVC,,,12.0,0.0,,KRESCHENKA,RS,295240-99999,2019,14,1.0
305210,99999,2019-10-06,54.8,105.167,418.0,40.0,1.0,13.6,1011.7,OVC,,,12.0,0.0,,ZHIGALOVO,RS,305210-99999,2019,14,1.0
725940,24213,2019-10-06,40.8,-124.167,18.0,320.0,4.1,17.2,1016.3,,,,,,,WOODLEY ISLAND (NEW 10/94),US,725940-24213,2019,14,1.0
027770,99999,2019-10-06,60.467,23.65,117.0,40.0,2.0,10.0,1011.6,,,,,,,SALO KIIKALA AIRFIELD,FI,027770-99999,2019,14,1.0
289080,99999,2019-10-06,52.617,51.283,88.0,170.0,1.0,15.4,1007.6,OVC,2.0,8.0,,,,AVANGARD ZERNOSOVHOZ,RS,289080-99999,2019,14,1.0
443580,99999,2019-10-06,43.733,111.9,964.0,110.0,3.0,23.0,1004.6,,,,,,,ZAMYN-UUD,MG,443580-99999,2019,14,1.0
067440,99999,2019-10-06,46.572,8.333,1980.0,313.0,0.6,6.1,,,,,6.0,9999.0,,GRIMSEL-HOSPIZ,SZ,067440-99999,2019,14,1.0
130145,99999,2019-10-06,45.9,15.53,155.0,,0.5,15.0,,,,,,,,CERKLJE,SI,130145-99999,2019,14,1.0
064560,99999,2019-10-06,50.234,4.653,279.0,340.0,3.0,13.2,1020.7,,,,99.0,9999.0,,FLORENNES,BE,064560-99999,2019,14,1.0
418860,99999,2019-10-06,24.717,90.433,19.0,230.0,2.1,24.0,1001.0,OVC,61.0,6.0,24.0,260.0,,MYMENSINGH,BG,418860-99999,2019,14,1.0
421810,99999,2019-10-06,28.567,77.103,237.0,240.0,4.1,32.0,,,5.0,,,,,INDIRA GANDHI INTL,IN,421810-99999,2019,14,1.0
421810,99999,2019-10-06,28.567,77.117,225.0,230.0,4.1,31.4,996.1,BKN,5.0,1.0,,,,INDIRA GANDHI INTL,IN,421810-99999,2019,14,1.0
871660,99999,2019-10-06,-27.446,-58.762,62.0,180.0,3.1,19.0,,,,,,,,CORRIENTES,AR,871660-99999,2019,14,1.0
871660,99999,2019-10-06,-27.45,-58.767,62.0,160.0,3.1,18.5,1013.3,BKN,4.0,2.0,,,,CORRIENTES,AR,871660-99999,2019,14,1.0
999999,54795,2019-10-06,43.109,-70.948,19.0,,0.3,22.4,,,,,1.0,0.0,,DURHAM 2 SSW,US,999999-54795,2019,14,1.0
471100,99999,2019-10-06,37.558,126.791,18.0,270.0,1.5,25.0,,,10.0,,,,,GIMPO,KS,471100-99999,2019,14,1.0
687190,99999,2019-10-06,-32.95,19.433,945.0,0.0,0.0,1.2,,,,,,,,EXCELSIOR,SF,687190-99999,2019,14,1.0
336140,99999,2019-10-06,49.05,33.25,84.0,,,15.5,1009.8,,10.0,1.0,,,,SVITLOVODS'K,UP,336140-99999,2019,14,1.0
683430,99999,2019-10-06,-27.65,25.617,1128.0,40.0,1.0,2.3,,,,,,,,BLOEMHOF,SF,683430-99999,2019,14,1.0
967390,99999,2019-10-06,-6.233,106.65,46.0,0.0,0.0,21.8,1013.1,OVC,40.0,4.0,,,,TANGERANG/BUDIARTO ARPT,ID,967390-99999,2019,14,1.0
610360,99999,2019-10-06,14.2,1.45,210.0,0.0,0.0,29.0,1012.0,OVC,,,,,,TILLABERY,NG,610360-99999,2019,14,1.0
217210,99999,2019-10-06,72.4,126.35,20.0,340.0,5.0,11.2,1008.0,OVC,2.0,6.0,12.0,5.0,,IM YU A HABAROVA,RS,217210-99999,2019,14,1.0
873200,99999,2019-10-06,-30.017,-66.267,467.0,0.0,0.0,14.7,1016.7,BKN,,,1.0,9999.0,,CHAMICAL AERO,AR,873200-99999,2019,14,1.0
879380,99999,2019-10-06,-54.467,-68.3,28.0,360.0,6.2,5.1,1002.5,BKN,,,1.0,9999.0,,USHUAIA MALVINAS ARGENTINAS,AR,879380-99999,2019,14,1.0
331770,99999,2019-10-06,50.833,24.317,194.0,200.0,1.0,14.8,1009.9,OVC,,,,,,VOLODYMYR-VOLYNS'KYI,UP,331770-99999,2019,14,1.0
466960,99999,2019-10-06,25.069,121.552,5.0,290.0,5.1,32.0,,,,,,,,SUNGSHAN,TW,466960-99999,2019,14,1.0
027130,99999,2019-10-06,61.217,25.133,134.0,,,2.8,1012.7,,,,,,,HAMEENLINNA LAMMI EVO,FI,027130-99999,2019,14,1.0
687170,99999,2019-10-06,-33.013,18.977,122.0,30.0,1.0,5.3,,,,,18.0,2.0,,PORTERVILLE,SF,687170-99999,2019,14,1.0
062010,99999,2019-10-06,54.317,2.933,36.0,320.0,8.0,15.1,1021.6,OVC,,,,,,D15-FA-1 HELIPAD OIL PLATFORM,NL,062010-99999,2019,14,1.0
610850,99999,2019-10-06,13.417,12.783,303.0,280.0,2.1,28.4,,BKN,,,,,,DIFFA,NG,610850-99999,2019,14,1.0
684290,99999,2019-10-06,-28.333,23.067,1321.0,90.0,3.1,5.9,,,,,,,,POSTMASBURG,SF,684290-99999,2019,14,1.0
946150,99999,2019-10-06,-31.95,116.05,220.0,90.0,6.7,8.0,,,,,,,,GOOSEBERY HILL,AS,946150-99999,2019,14,1.0
160540,99999,2019-10-06,45.733,7.35,551.0,0.0,0.0,15.4,,,,,,,,AOSTA POLLEIN,IT,160540-99999,2019,14,1.0
112010,99999,2019-10-06,46.746,12.424,1081.0,0.0,0.0,12.0,,,,,6.0,9999.0,,SILLIAN,AU,112010-99999,2019,14,1.0
879380,99999,2019-10-06,-54.843,-68.296,22.0,360.0,6.2,5.0,,,,,,,,USHUAIA MALVINAS ARGENTINAS,AR,879380-99999,2019,14,1.0
076480,99999,2019-10-06,43.6,5.1,59.0,340.0,7.2,23.0,1010.4,,0.0,,6.0,0.0,,SALON,FR,076480-99999,2019,14,1.0
362780,99999,2019-10-06,50.383,90.433,1850.0,320.0,2.0,9.7,,BKN,,,12.0,0.0,,MUGUR-AKSY,RS,362780-99999,2019,14,1.0
387440,99999,2019-10-06,39.283,71.867,1198.0,,,12.4,,SCT,,,,,,LAHSH,TI,387440-99999,2019,14,1.0
011560,99999,2019-10-06,68.607,14.433,8.0,23.0,3.8,9.0,1016.8,,,,6.0,9999.0,,BO I VESTERALEN,NO,011560-99999,2019,14,1.0
218230,99999,2019-10-06,62.093,129.771,99.0,170.0,5.0,26.0,,,,,,,,YAKUTSK,RS,218230-99999,2019,14,1.0
175050,99999,2019-10-06,35.3,32.967,89.0,240.0,3.1,24.5,1007.3,CLR,,,6.0,9999.0,,AKDENIZ,CY,175050-99999,2019,14,1.0
432450,99999,2019-10-06,14.45,79.983,20.0,0.0,0.0,26.6,1006.8,BKN,50.0,6.0,21.0,30.0,,NELLORE,IN,432450-99999,2019,14,1.0
432260,99999,2019-10-06,14.283,74.45,9.0,140.0,1.0,23.8,1009.2,OVC,2.0,6.0,21.0,560.0,,HONAVAR,IN,432260-99999,2019,14,1.0
233050,99999,2019-10-06,66.25,52.55,22.0,310.0,3.0,14.7,1007.9,BKN,2.0,6.0,,,,OKUNEV NOS,RS,233050-99999,2019,14,1.0
319600,99999,2019-10-06,43.117,131.933,183.0,230.0,2.0,16.4,1005.4,OVC,2.0,5.0,,,,VLADIVOSTOK,RS,319600-99999,2019,14,1.0
865800,99999,2019-10-06,-34.838,-56.031,32.0,310.0,1.5,6.0,,,44.0,,,,,CARRASCO INTL,UY,865800-99999,2019,14,1.0
768400,99999,2019-10-06,16.233,-93.9,48.0,,,30.8,1009.6,SCT,,,24.0,251.0,,ARRIAGA  CHIS.,MX,768400-99999,2019,14,1.0
865800,99999,2019-10-06,-34.467,-55.983,32.0,310.0,1.5,6.2,1018.9,FEW,46.0,0.0,1.0,9999.0,,CARRASCO INTL,UY,865800-99999,2019,14,1.0
246520,99999,2019-10-06,63.967,127.433,95.0,300.0,2.0,23.6,1004.7,BKN,,,12.0,9999.0,,SANGARY,RS,246520-99999,2019,14,1.0
583211,99999,2019-10-06,31.143,121.805,4.0,320.0,2.0,24.0,,,,,,,,PUDONG,CH,583211-99999,2019,14,1.0
331350,99999,2019-10-06,51.467,31.25,141.0,,,11.1,1010.4,BKN,10.0,1.0,,,,CHERNIHIV,UP,331350-99999,2019,14,1.0
152040,99999,2019-10-06,46.019,22.151,156.0,0.0,0.0,13.5,1010.9,,,,6.0,9999.0,,VARADIA DE MURES,RO,152040-99999,2019,14,1.0
946370,99999,2019-10-06,-30.789,121.462,367.0,100.0,3.1,6.0,,CLR,,,,,,KALGOORLIE BOULDER,AS,946370-99999,2019,14,1.0
946370,99999,2019-10-06,-30.783,121.45,370.0,100.0,3.1,5.9,1036.6,,,,,,,KALGOORLIE BOULDER,AS,946370-99999,2019,14,1.0
337540,99999,2019-10-06,47.767,29.017,119.0,,,13.5,1009.1,BKN,,,,,,RIBNITA,MD,337540-99999,2019,14,1.0
876410,99999,2019-10-06,-36.667,-59.867,146.0,0.0,0.0,4.7,1020.3,CLR,,,1.0,9999.0,,AZUL AERO,AR,876410-99999,2019,14,1.0
338830,99999,2019-10-06,46.3,28.633,133.0,,,17.2,1008.5,BKN,,,,,,KOMRAT,MD,338830-99999,2019,14,1.0
619840,99999,2019-10-06,-21.321,55.425,18.0,40.0,3.6,20.0,,,,,,,,ST PIERRE PIERREFONDS,RE,619840-99999,2019,14,1.0
917840,99999,2019-10-06,-19.8,-174.35,3.0,90.0,8.2,23.9,1013.2,BKN,50.0,2.0,24.0,11.0,,HAAPAI,TN,917840-99999,2019,14,1.0
917840,99999,2019-10-06,-19.777,-174.341,9.0,90.0,8.2,24.0,,,,,,,,HAAPAI,TN,917840-99999,2019,14,1.0
314890,99999,2019-10-06,51.2,136.8,92.0,70.0,2.0,23.0,1008.8,BKN,,,,,,GORIN,RS,314890-99999,2019,14,1.0
383450,99999,2019-10-06,42.517,72.217,1218.0,80.0,1.0,16.1,,,,,,,,TALAS,KG,383450-99999,2019,14,1.0
162240,99999,2019-10-06,42.083,12.217,266.0,20.0,3.1,21.2,1010.0,,,,6.0,0.0,,VIGNA DI VALLE(MIL),IT,162240-99999,2019,14,1.0
271990,99999,2019-10-06,58.567,49.567,158.0,,,10.6,1009.3,OVC,10.0,2.0,,,,KIROV,RS,271990-99999,2019,14,1.0
425870,99999,2019-10-06,24.05,84.067,221.0,0.0,0.0,28.2,1000.0,,5.0,0.0,,,,DALTONGANJ,IN,425870-99999,2019,14,1.0
406890,99999,2019-10-06,30.517,47.783,2.0,300.0,4.0,30.6,999.0,,,,,,,BASRAH INTL,IZ,406890-99999,2019,14,1.0
716330,99999,2019-10-06,44.75,-81.1,222.0,290.0,4.1,21.0,1013.0,,,,,,,WIARTON A,CA,716330-99999,2019,14,1.0
716330,99999,2019-10-06,44.75,-81.1,222.0,290.0,3.6,20.6,1013.1,BKN,,,24.0,8.0,,WIARTON A,CA,716330-99999,2019,14,1.0
764580,99999,2019-10-06,23.2,-106.417,4.0,310.0,4.0,32.5,1009.2,FEW,,,24.0,0.0,,COLONIA JUAN CARRASCO MAZATLAN  SIN.,MX,764580-99999,2019,14,1.0
688490,99999,2019-10-06,-33.283,26.5,642.0,10.0,1.5,9.8,,,,,,,,GRAHAMSTOWN,SF,688490-99999,2019,14,1.0
376210,99999,2019-10-06,41.45,44.55,534.0,,,15.9,1008.5,OVC,95.0,9.0,,,,BOLNISI,GG,376210-99999,2019,14,1.0
478430,99999,2019-10-06,32.7,128.833,27.0,360.0,2.6,23.2,1001.1,,,,12.0,30.0,,FUKUE,JA,478430-99999,2019,14,1.0
711920,99999,2019-10-06,53.017,-122.5,545.0,330.0,4.1,21.7,1012.7,,,,24.0,9999.0,,QUESNEL,CA,711920-99999,2019,14,1.0
318730,99999,2019-10-06,45.867,133.733,101.0,70.0,1.0,21.2,1005.0,OVC,,,,,,DAL'NERECHENSK,RS,318730-99999,2019,14,1.0
170380,99999,2019-10-06,41.0,39.717,34.0,210.0,5.1,21.0,1010.8,BKN,3.0,8.0,6.0,0.0,,TRABZON,TU,170380-99999,2019,14,1.0
688210,99999,2019-10-06,-33.617,19.467,270.0,0.0,0.0,5.9,,,,,,,,WORCESTER,SF,688210-99999,2019,14,1.0
488770,99999,2019-10-06,12.217,109.217,4.0,50.0,1.0,28.9,1006.1,BKN,,,,,,NHA TRANG,VM,488770-99999,2019,14,1.0
142360,99999,2019-10-06,45.814,15.972,157.0,270.0,2.0,16.2,1012.9,,,,,,,ZAGREB/GRIC,HR,142360-99999,2019,14,1.0
702910,26412,2019-10-06,62.962,-141.938,9999.0,,,,,,,,0.0,8.0,0.0,NORTHWAY AIRPORT,US,702910-26412,2019,14,1.0
722480,13957,2019-10-06,32.45,-93.833,85.0,80.0,7.2,27.8,1008.2,BKN,,,6.0,30.0,,SHREVEPORT REGIONAL AIRPORT,US,722480-13957,2019,14,1.0
839670,99999,2019-10-06,-29.946,-51.144,8.0,130.0,2.1,13.0,,,61.0,,,,,CANOAS,BR,839670-99999,2019,14,1.0
685460,99999,2019-10-06,-30.8,26.883,1351.0,90.0,1.0,0.5,,,,,,,,ALIWAL NORTH,SF,685460-99999,2019,14,1.0
071650,99999,2019-10-06,48.776,4.184,179.0,360.0,4.6,14.0,,,,,,,,VATRY,FR,071650-99999,2019,14,1.0
389150,99999,2019-10-06,37.517,66.017,265.0,320.0,1.0,31.2,997.2,,,,,,,CARSANGA,TX,389150-99999,2019,14,1.0
684710,99999,2019-10-06,-28.367,29.383,1680.0,30.0,3.6,2.2,,,,,,,,VAN REENEN,SF,684710-99999,2019,14,1.0
072300,99999,2019-10-06,47.483,-0.6,50.0,20.0,2.6,18.2,1019.6,,0.0,,6.0,0.0,,BEAUCOUZE,FR,072300-99999,2019,14,1.0
684930,99999,2019-10-06,-28.3,31.417,524.0,20.0,2.1,11.0,,,,,,,,PRINCE MANGOSUTHU BUTHELEZI,SF,684930-99999,2019,14,1.0
289660,99999,2019-10-06,52.817,66.967,227.0,,,15.7,1012.5,,,,,,,RUZAEVKA,KZ,289660-99999,2019,14,1.0
029390,99999,2019-10-06,62.77,30.975,155.0,333.0,1.8,7.6,1009.5,BKN,,2.0,,,0.0,ILOMANTSI MEKRIJARVI,FI,029390-99999,2019,14,1.0
725260,14860,2019-10-06,42.083,-80.183,225.0,220.0,3.1,29.4,1013.0,FEW,,,,,,ERIE INTL/T. RIDGE FIELD AIRPORT,US,725260-14860,2019,14,1.0
028280,99999,2019-10-06,60.387,22.552,6.0,,,8.2,1011.2,,,,,,0.0,KAARINA YLTOINEN,FI,028280-99999,2019,14,1.0
076480,99999,2019-10-06,43.606,5.109,59.0,340.0,7.2,23.0,,,,,,,,SALON,FR,076480-99999,2019,14,1.0
943410,99999,2019-10-06,-20.702,143.115,206.0,130.0,9.3,17.0,,CLR,,,,,,RICHMOND,AS,943410-99999,2019,14,1.0
718830,99999,2019-10-06,52.117,-119.283,683.0,360.0,3.1,17.4,1013.6,,,,24.0,68.0,,BLUE RIVER,CA,718830-99999,2019,14,1.0
406890,99999,2019-10-06,30.549,47.662,3.0,270.0,3.1,27.0,,,,,,,,BASRAH INTL,IZ,406890-99999,2019,14,1.0
688330,99999,2019-10-06,-33.833,23.867,546.0,300.0,2.1,7.7,,,,,,,,JOUBERTINA,SF,688330-99999,2019,14,1.0
893140,99999,2019-10-06,-84.599,-115.811,1463.0,,,-21.9,,,,,,,,THERESA,AY,893140-99999,2019,14,1.0
687150,99999,2019-10-06,-33.467,18.717,102.0,30.0,1.5,5.5,,,,,,,,MALMESBURY,SF,687150-99999,2019,14,1.0
061360,99999,2019-10-06,55.25,11.333,12.0,300.0,3.1,13.7,,,,,6.0,9999.0,,TYSTOFTE,DA,061360-99999,2019,14,1.0
084100,99999,2019-10-06,37.842,-4.849,91.0,240.0,3.1,22.0,,CLR,,,,,,CORDOBA,SP,084100-99999,2019,14,1.0
084100,99999,2019-10-06,37.85,-4.85,92.0,240.0,3.1,21.9,1015.5,,,,6.0,0.0,,CORDOBA,SP,084100-99999,2019,14,1.0
722650,23023,2019-10-06,31.95,-102.183,874.0,70.0,4.6,34.4,1009.7,,,,,,,MIDLAND INTERNATIONAL AIRPORT,US,722650-23023,2019,14,1.0
073740,99999,2019-10-06,46.167,3.4,251.0,20.0,1.0,14.5,1017.4,,0.0,,6.0,0.0,,CHARMEIL,FR,073740-99999,2019,14,1.0
683330,99999,2019-10-06,-27.433,23.45,1315.0,150.0,1.5,4.0,,,,,,,,KURUMAN,SF,683330-99999,2019,14,1.0
085210,99999,2019-10-06,32.693,-16.776,58.0,20.0,4.1,21.7,1021.5,SCT,,,99.0,9999.0,,FUNCHAL/S.CATARINA,PO,085210-99999,2019,14,1.0
718830,99999,2019-10-06,52.117,-119.283,683.0,10.0,2.6,18.0,1013.5,,16.0,,,,,BLUE RIVER,CA,718830-99999,2019,14,1.0
318660,99999,2019-10-06,46.533,138.333,4.0,30.0,9.0,13.6,1009.7,OVC,63.0,6.0,,,,SOSUNOVO,RS,318660-99999,2019,14,1.0
712630,99999,2019-10-06,43.174,-79.935,238.0,240.0,3.6,24.0,1012.3,,,,,,,HAMILTON,CA,712630-99999,2019,14,1.0
712630,99999,2019-10-06,43.167,-79.933,238.0,240.0,4.1,23.8,1012.4,BKN,1.0,8.0,24.0,16.0,,HAMILTON,CA,712630-99999,2019,14,1.0
010780,99999,2019-10-06,71.1,28.233,10.0,280.0,3.0,6.4,1016.3,,,,,,,SLETTNES FYR,NO,010780-99999,2019,14,1.0
688150,99999,2019-10-06,-33.083,18.017,6.0,0.0,0.0,2.6,,,,,,,,LANGEBAAN,SF,688150-99999,2019,14,1.0
639620,99999,2019-10-06,-10.683,35.583,1067.0,,1.0,14.0,,CLR,,,,,,SONGEA,TZ,639620-99999,2019,14,1.0
682580,99999,2019-10-06,-24.233,28.033,1200.0,310.0,1.0,4.1,,,,,,,,GOEDEHOOP,SF,682580-99999,2019,14,1.0
385110,99999,2019-10-06,40.783,55.333,115.0,270.0,2.0,26.3,1003.1,BKN,,,,,,CHAGYL,TX,385110-99999,2019,14,1.0
166240,99999,2019-10-06,40.92,24.6,5.0,0.0,0.0,21.0,1006.2,BKN,61.0,6.0,6.0,5.0,,MEGAS ALEXANDROS INTL,GR,166240-99999,2019,14,1.0
043410,99999,2019-10-06,70.75,-22.65,10.0,150.0,1.5,4.4,1014.5,OVC,,,,,,CONSTABLE POINT,GL,043410-99999,2019,14,1.0
943410,99999,2019-10-06,-20.7,143.117,207.0,130.0,9.3,17.1,1023.1,,,,,,,RICHMOND,AS,943410-99999,2019,14,1.0
998275,99999,2019-10-06,28.017,-80.683,3.0,0.0,0.0,,,,,,,,,BOB ALLEN,US,998275-99999,2019,14,1.0
239470,99999,2019-10-06,60.067,71.483,55.0,120.0,1.0,18.7,1017.5,FEW,,,,,,SALYM,RS,239470-99999,2019,14,1.0
724120,03872,2019-10-06,37.783,-81.117,766.0,320.0,2.1,27.2,1016.6,,,,,,,RALEIGH COUNTY MEMORIAL AIRPORT,US,724120-03872,2019,14,1.0
868090,99999,2019-10-06,-20.982,-54.972,471.0,245.0,0.6,21.1,1014.2,,,,99.0,9999.0,,SIDROLANDIA,BR,868090-99999,2019,14,1.0
717320,99999,2019-10-06,46.717,-79.1,181.0,310.0,1.0,20.9,,,,,24.0,9999.0,,BARRAGE TEMISCAMINGUE,CA,717320-99999,2019,14,1.0
833190,99999,2019-10-06,-14.698,-52.35,305.0,0.0,0.0,20.2,1016.3,CLR,,,1.0,9999.0,,NOVA XAVANTINA,BR,833190-99999,2019,14,1.0
827230,99999,2019-10-06,-7.25,-64.833,60.0,0.0,0.0,27.1,,,1.0,6.0,6.0,30.0,,LABREA,BR,827230-99999,2019,14,1.0
315270,99999,2019-10-06,50.117,129.467,241.0,170.0,4.0,22.6,1004.7,BKN,,,12.0,0.0,,ZAVITAJA,RS,315270-99999,2019,14,1.0
833320,99999,2019-10-06,-14.089,-46.367,830.0,0.0,0.0,23.5,1012.9,CLR,,,1.0,9999.0,,POSSE,BR,833320-99999,2019,14,1.0
014700,99999,2019-10-06,59.383,9.2,93.0,190.0,1.0,16.2,1013.3,,,,6.0,20.0,,GVARV,NO,014700-99999,2019,14,1.0
432330,99999,2019-10-06,14.233,76.433,733.0,270.0,3.1,23.2,1009.1,BKN,,,,,,CHITRADURGA,IN,432330-99999,2019,14,1.0
256270,99999,2019-10-06,63.3,158.5,709.0,100.0,1.0,25.0,1004.9,SCT,,,,,,LABAZNAYA,RS,256270-99999,2019,14,1.0
946020,99999,2019-10-06,-32.017,115.5,43.0,70.0,7.2,12.0,1033.2,,,,,,,ROTTNEST ISLAND,AS,946020-99999,2019,14,1.0
827650,99999,2019-10-06,-7.33,-47.47,192.0,90.0,,28.5,1014.8,BKN,,,1.0,9999.0,,CAROLINA,BR,827650-99999,2019,14,1.0
290590,99999,2019-10-06,59.433,89.283,102.0,340.0,2.0,15.6,1014.6,,,,12.0,0.0,,ALEKSANDROVSKIJ SHLYUZ,RS,290590-99999,2019,14,1.0
835870,99999,2019-10-06,-19.634,-43.969,828.0,120.0,0.5,19.0,,,,,,,,TANCREDO NEVES INTL,BR,835870-99999,2019,14,1.0
317130,99999,2019-10-06,48.733,132.95,80.0,80.0,4.0,21.5,1007.3,BKN,,,,,,BIROBIDZHAN,RS,317130-99999,2019,14,1.0
943020,99999,2019-10-06,-22.236,114.089,6.0,230.0,2.6,13.0,,CLR,,,,,,LEARMONTH,AS,943020-99999,2019,14,1.0
710964,99999,2019-10-06,67.546,-64.031,6.0,200.0,6.7,8.0,1011.3,CLR,,,,,,QIKIQTARJUAQ,CA,710964-99999,2019,14,1.0
013230,99999,2019-10-06,61.383,5.75,321.0,10.0,1.0,10.1,1016.9,,,,,,,BRINGELAND,NO,013230-99999,2019,14,1.0
713420,99999,2019-10-06,51.383,-110.35,767.0,30.0,3.6,24.3,,,,,24.0,0.0,,OYEN AGDM  ALTA,CA,713420-99999,2019,14,1.0
713420,99999,2019-10-06,51.38,-110.35,767.0,30.0,3.6,24.3,,,,,,,,OYEN AGDM  ALTA,CA,713420-99999,2019,14,1.0
710010,99999,2019-10-06,61.371,-139.041,807.0,100.0,3.1,19.0,1012.7,,,,,,,BURWASH,CA,710010-99999,2019,14,1.0
710010,99999,2019-10-06,61.367,-139.033,805.0,100.0,3.6,18.9,1012.7,,,,24.0,2.0,,BURWASH,CA,710010-99999,2019,14,1.0
084820,99999,2019-10-06,36.667,-4.483,7.0,280.0,7.7,27.3,1013.4,,,,6.0,0.0,,MALAGA,SP,084820-99999,2019,14,1.0
084820,99999,2019-10-06,36.675,-4.499,16.0,280.0,7.2,27.0,,,,,,,,MALAGA,SP,084820-99999,2019,14,1.0
717770,99999,2019-10-06,50.3,-122.73,204.0,,,18.1,1014.5,,,,1.0,9.0,,PEMBERTON AIRPORT  BC,CA,717770-99999,2019,14,1.0
717770,99999,2019-10-06,50.3,-122.733,204.0,0.0,0.0,18.1,1014.5,,,,24.0,10.0,,PEMBERTON AIRPORT  BC,CA,717770-99999,2019,14,1.0
308590,99999,2019-10-06,51.1,114.517,681.0,240.0,2.0,18.6,1005.6,FEW,,,12.0,0.0,,AGINSKOE,RS,308590-99999,2019,14,1.0
943020,99999,2019-10-06,-22.233,114.083,6.0,230.0,2.6,12.5,1024.0,,,,,,,LEARMONTH,AS,943020-99999,2019,14,1.0
712940,99999,2019-10-06,45.067,-77.867,331.0,220.0,2.1,22.9,1010.9,,,,24.0,0.0,,BANCROFT AUTO  ONT,CA,712940-99999,2019,14,1.0
408270,99999,2019-10-06,31.533,60.033,1211.0,330.0,6.0,32.0,991.3,,,,6.0,0.0,,NEHBANDAN,IR,408270-99999,2019,14,1.0
488380,99999,2019-10-06,21.517,107.967,7.0,,,29.0,1001.2,BKN,95.0,9.0,12.0,70.0,,MONG CAI,VM,488380-99999,2019,14,1.0
136290,99999,2019-10-06,40.6,20.767,899.0,40.0,2.1,15.0,,OVC,63.0,6.0,6.0,100.0,,KORCA,AL,136290-99999,2019,14,1.0
314390,99999,2019-10-06,52.383,140.467,35.0,200.0,2.0,20.9,1011.2,BKN,,,,,,BOGORODSKOE,RS,314390-99999,2019,14,1.0
999999,63856,2019-10-06,30.808,-81.46,8.0,,0.5,26.6,,,,,1.0,0.0,,BRUNSWICK 23 S,US,999999-63856,2019,14,1.0
219460,99999,2019-10-06,70.617,147.883,61.0,60.0,2.0,14.1,1009.4,OVC,,,,,,CHOKURDAH,RS,219460-99999,2019,14,1.0
375750,99999,2019-10-06,41.667,46.65,490.0,230.0,2.0,18.4,1010.0,OVC,95.0,9.0,,,,ZAKATALA,AJ,375750-99999,2019,14,1.0
913240,99999,2019-10-06,7.35,149.2,2.0,310.0,7.2,28.9,1008.6,OVC,2.0,8.0,24.0,279.0,,PULUWAT ATOLL AWS   CAROLINE IS.,FM,913240-99999,2019,14,1.0
419330,99999,2019-10-06,23.433,91.183,9.0,180.0,1.5,25.0,1001.3,OVC,2.0,6.0,24.0,745.0,,COMILLA,BG,419330-99999,2019,14,1.0
725030,14732,2019-10-06,40.783,-73.867,9.0,170.0,4.1,28.3,1011.8,,,,,,,LA GUARDIA AIRPORT,US,725030-14732,2019,14,1.0
060190,99999,2019-10-06,56.933,8.633,41.0,240.0,3.6,13.4,,,,,6.0,9999.0,,SILSTRUP,DA,060190-99999,2019,14,1.0
245850,99999,2019-10-06,64.55,144.4,519.0,270.0,3.0,21.7,1006.0,BKN,,,,,,NERA,RS,245850-99999,2019,14,1.0
120010,99999,2019-10-06,55.467,18.167,46.0,20.0,4.0,15.2,1012.9,,,,,,,PETROBALTIC BETA,PL,120010-99999,2019,14,1.0
338290,99999,2019-10-06,46.9,29.6,40.0,150.0,1.0,16.1,1009.4,SCT,2.0,9.0,,,,TIRASPOL,MD,338290-99999,2019,14,1.0
062580,99999,2019-10-06,52.65,5.4,7.0,350.0,9.0,,,,,,,,,HOUTRIBDIJK,NL,062580-99999,2019,14,1.0
248710,99999,2019-10-06,61.867,135.5,141.0,150.0,1.0,22.2,1006.8,BKN,,,,,,OHOTSKIJPEREVOZ,RS,248710-99999,2019,14,1.0
916480,99999,2019-10-06,-10.75,179.5,3.0,110.0,6.7,30.1,1008.3,SCT,2.0,8.0,24.0,79.0,,NIULAKITA,TV,916480-99999,2019,14,1.0
342310,99999,2019-10-06,51.0,39.5,115.0,10.0,2.0,12.2,1009.6,SCT,,,,,,LISKI,RS,342310-99999,2019,14,1.0
943740,99999,2019-10-06,-23.375,150.478,15.0,190.0,4.6,17.1,1023.0,,,,,,,ROCKHAMPTON,AS,943740-99999,2019,14,1.0
862340,99999,2019-10-06,-25.467,-56.4,163.0,140.0,1.0,21.2,1011.8,SCT,,,,,,CORONEL OVIEDO,PA,862340-99999,2019,14,1.0
943740,99999,2019-10-06,-23.382,150.475,10.0,190.0,4.6,17.0,,CLR,,,,,,ROCKHAMPTON,AS,943740-99999,2019,14,1.0
315380,99999,2019-10-06,50.067,132.133,347.0,80.0,2.0,20.3,1006.9,OVC,,,,,,SUTUR,RS,315380-99999,2019,14,1.0
262580,99999,2019-10-06,57.784,28.396,47.0,0.0,0.0,11.0,,,,,,,,PSKOV,RS,262580-99999,2019,14,1.0
262580,99999,2019-10-06,57.817,28.333,45.0,280.0,1.0,10.9,1010.6,OVC,,,,,,PSKOV,RS,262580-99999,2019,14,1.0
998299,99999,2019-10-06,25.083,-80.733,3.0,70.0,4.1,,,,,,,,,WHIPRAY BASIN,US,998299-99999,2019,14,1.0
716230,99999,2019-10-06,43.036,-81.154,278.0,290.0,4.1,23.0,1013.7,,16.0,,,,,LONDON,CA,716230-99999,2019,14,1.0
349750,99999,2019-10-06,45.35,46.033,-2.0,,,18.9,1008.9,OVC,,,,,,KOMSOMOL'SKIJ,RS,349750-99999,2019,14,1.0
717320,99999,2019-10-06,46.717,-79.1,181.0,310.0,1.0,20.9,,,,,,,,BARRAGE TEMISCAMINGUE,CA,717320-99999,2019,14,1.0
368590,99999,2019-10-06,44.167,80.067,645.0,,,19.4,999.7,BKN,,,,,,ZHARKENT,KZ,368590-99999,2019,14,1.0
246710,99999,2019-10-06,63.95,135.867,402.0,160.0,3.0,23.7,1005.7,,,,,,,TOMPO,RS,246710-99999,2019,14,1.0
060820,99999,2019-10-06,55.967,8.633,25.0,290.0,2.6,12.9,,,,,6.0,9999.0,,BORRIS,DA,060820-99999,2019,14,1.0
387050,99999,2019-10-06,39.5,67.6,1015.0,270.0,1.0,21.8,,,,,,,,PENDZHIKENT,TI,387050-99999,2019,14,1.0
341460,99999,2019-10-06,51.367,42.083,106.0,,,13.2,1008.6,SCT,10.0,2.0,,,,BORISOGLEBSK,RS,341460-99999,2019,14,1.0
315940,99999,2019-10-06,49.417,130.083,135.0,140.0,1.0,22.2,1006.0,OVC,25.0,8.0,12.0,0.0,,ARHARA,RS,315940-99999,2019,14,1.0
316550,99999,2019-10-06,49.45,136.567,33.0,50.0,1.0,21.3,1007.0,OVC,,,,,,TROICKOE,RS,316550-99999,2019,14,1.0
650460,99999,2019-10-06,12.05,8.533,481.0,240.0,3.1,26.0,1014.8,BKN,,,,,,MALLAM AMINU INTL,NI,650460-99999,2019,14,1.0
428950,99999,2019-10-06,21.517,86.933,20.0,230.0,1.0,27.8,1001.1,SCT,,,,,,BALASORE,IN,428950-99999,2019,14,1.0
650460,99999,2019-10-06,12.048,8.525,476.0,240.0,3.1,26.0,,,,,,,,MALLAM AMINU INTL,NI,650460-99999,2019,14,1.0
027470,99999,2019-10-06,60.383,22.1,6.0,360.0,3.0,14.3,1011.2,,,,,,,TURKU RAJAKARI,FI,027470-99999,2019,14,1.0
299370,99999,2019-10-06,52.517,82.767,175.0,340.0,2.0,16.4,1009.3,,,,12.0,0.0,,ALEJSKAJA,RS,299370-99999,2019,14,1.0
607320,99999,2019-10-06,36.133,8.7,518.0,120.0,1.5,26.0,1012.4,,,,18.0,0.0,,LE KEF,TS,607320-99999,2019,14,1.0
822120,99999,2019-10-06,-2.516,-66.101,59.0,50.0,1.0,27.0,1010.2,SCT,,,1.0,9999.0,,FONTE BOA,BR,822120-99999,2019,14,1.0
309570,99999,2019-10-06,50.267,113.267,732.0,200.0,2.0,15.8,1007.0,FEW,40.0,4.0,12.0,0.0,,AKSA,RS,309570-99999,2019,14,1.0
714520,99999,2019-10-06,49.7,-103.8,589.0,250.0,2.1,30.0,1011.6,,,,,,,WEYBURN  SASK,CA,714520-99999,2019,14,1.0
714520,99999,2019-10-06,49.7,-103.8,589.0,250.0,2.1,30.0,1011.6,,,,24.0,0.0,,WEYBURN  SASK,CA,714520-99999,2019,14,1.0
333170,99999,2019-10-06,50.167,27.033,278.0,,,12.6,1009.6,BKN,,,,,,SHEPETIVKA,UP,333170-99999,2019,14,1.0
833680,99999,2019-10-06,-15.9,-52.233,345.0,0.0,0.0,24.8,1024.8,,,,,,,ARAGARCAS,BR,833680-99999,2019,14,1.0
243610,99999,2019-10-06,66.767,131.6,200.0,,,17.5,1004.8,OBS,5.0,0.0,,,,EKYUCHCHYU,RS,243610-99999,2019,14,1.0
833580,99999,2019-10-06,-15.827,-54.396,374.0,0.0,0.0,25.6,1011.7,CLR,4.0,4.0,1.0,9999.0,,POXOREO (POXOREU),BR,833580-99999,2019,14,1.0
956350,99999,2019-10-06,-33.933,120.133,27.0,10.0,3.1,9.4,1037.5,,,,,,,HOPETOWN NORTH,AS,956350-99999,2019,14,1.0
338370,99999,2019-10-06,46.427,30.676,52.0,0.0,0.0,15.0,,,,,,,,ODESA INTL,UP,338370-99999,2019,14,1.0
338370,99999,2019-10-06,46.433,30.767,42.0,270.0,1.0,17.5,1009.5,,,,,,,ODESA INTL,UP,338370-99999,2019,14,1.0
783970,99999,2019-10-06,17.933,-76.783,14.0,130.0,11.3,30.8,1013.8,SCT,5.0,0.0,6.0,0.0,,NORMAN MANLEY INTL,JM,783970-99999,2019,14,1.0
783970,99999,2019-10-06,17.936,-76.787,3.0,130.0,11.3,30.0,,,,,,,,NORMAN MANLEY INTL,JM,783970-99999,2019,14,1.0
896250,99999,2019-10-06,-75.1,123.4,3233.0,320.0,3.6,-67.9,,,,,,,,CONCORDIA,AY,896250-99999,2019,14,1.0
014760,99999,2019-10-06,58.857,9.575,3.0,61.0,1.7,15.7,1013.3,,,,,,,JOMFRULAND FYR,NO,014760-99999,2019,14,1.0
072490,99999,2019-10-06,47.988,1.761,126.0,40.0,2.1,15.0,,,,,,,,BRICY,FR,072490-99999,2019,14,1.0
021810,99999,2019-10-06,66.267,22.85,62.0,,,7.1,1014.0,OVC,,,1.0,0.0,,OVERKALIX SVARTBYN,SW,021810-99999,2019,14,1.0
855850,99999,2019-10-06,-33.633,-78.833,29.0,210.0,1.5,10.7,1023.6,BKN,3.0,2.0,6.0,0.0,,JUAN FERNANDEZ,CI,855850-99999,2019,14,1.0
317250,99999,2019-10-06,48.617,133.833,52.0,40.0,2.0,21.5,1006.4,OVC,,,,,,SMIDOVICH,RS,317250-99999,2019,14,1.0
360580,99999,2019-10-06,51.433,86.0,420.0,,,16.1,1007.8,BKN,,,12.0,0.0,,CEMAL,RS,360580-99999,2019,14,1.0
712940,99999,2019-10-06,45.07,-77.88,331.0,220.0,2.1,22.9,1010.9,,,,,,,BANCROFT AUTO  ONT,CA,712940-99999,2019,14,1.0
868490,99999,2019-10-06,-21.106,-44.251,930.0,339.0,0.9,15.2,1018.2,,,,99.0,9999.0,,SAO JOAO DEL-REI,BR,868490-99999,2019,14,1.0
290230,99999,2019-10-06,59.85,81.95,76.0,270.0,1.0,15.8,1018.6,OVC,10.0,2.0,12.0,0.0,,NAPAS,RS,290230-99999,2019,14,1.0
314840,99999,2019-10-06,51.417,135.083,269.0,100.0,2.0,20.1,1009.1,OVC,,,,,,HULARIN,RS,314840-99999,2019,14,1.0
876880,99999,2019-10-06,0.0,0.0,9999.0,0.0,0.0,5.6,,CLR,,,1.0,9999.0,,TRES ARROYOS,AR,876880-99999,2019,14,1.0
040180,16201,2019-10-06,63.985,-22.606,52.0,190.0,4.1,11.0,,,61.0,,,,,KEFLAVIK NAVAL AIR STATION,IC,040180-16201,2019,14,1.0
040180,16201,2019-10-06,63.967,-22.6,54.0,190.0,4.1,10.7,1018.7,OVC,60.0,6.0,,,,KEFLAVIK NAVAL AIR STATION,IC,040180-16201,2019,14,1.0
583670,99999,2019-10-06,31.198,121.336,3.0,10.0,2.0,25.0,,,,,,,,HONGQIAO INTL,CH,583670-99999,2019,14,1.0
072490,99999,2019-10-06,47.983,1.783,125.0,40.0,2.1,14.6,1019.8,,0.0,,6.0,0.0,,BRICY,FR,072490-99999,2019,14,1.0
836500,99999,2019-10-06,-20.5,-29.317,5.0,130.0,2.6,24.0,1019.0,,0.0,,,,,TRINDADE (ILHA),BR,836500-99999,2019,14,1.0
866240,99999,2019-10-06,-11.375,-58.775,365.0,0.0,0.0,24.2,1012.2,,,,99.0,9999.0,,JUINA,BR,866240-99999,2019,14,1.0
913760,00492,2019-10-06,7.068,171.294,5.0,20.0,2.6,30.5,1007.6,BKN,,,24.0,56.0,,MARSHALL ISLANDS INTERNATIONAL AIRPORT,RM,913760-00492,2019,14,1.0
475830,99999,2019-10-06,40.192,140.371,89.0,,1.0,24.0,,,,,,,,ODATE NOSHIRO,JA,475830-99999,2019,14,1.0
787930,99999,2019-10-06,8.391,-82.435,27.0,340.0,2.6,24.0,,,95.0,,,,,ENRIQUE MALEK INTL,PM,787930-99999,2019,14,1.0
918090,99999,2019-10-06,-10.377,-161.002,2.0,80.0,1.0,31.0,,,,,,,,MANIHIKI (HUMPHREY ISLAND),CW,918090-99999,2019,14,1.0
442540,99999,2019-10-06,48.85,111.45,994.0,90.0,2.0,20.0,1006.3,FEW,,,,,,TATAAL,MG,442540-99999,2019,14,1.0
261150,99999,2019-10-06,58.917,22.067,9.0,310.0,2.0,14.0,1011.4,,,,3.0,0.0,,RISTNA,EN,261150-99999,2019,14,1.0
914340,99999,2019-10-06,1.083,154.767,3.0,280.0,3.1,29.4,1009.1,BKN,2.0,8.0,24.0,69.0,,KAPINGAMARANGI ATOLL  CAROLINE IS.,FM,914340-99999,2019,14,1.0
036720,99999,2019-10-06,51.55,-0.417,39.0,40.0,2.6,16.7,1022.9,,,,6.0,0.0,,NORTHOLT,UK,036720-99999,2019,14,1.0
683860,99999,2019-10-06,-26.117,31.45,320.0,0.0,0.0,-39.2,,,,,,,,NYONYANE,WZ,683860-99999,2019,14,1.0
485550,99999,2019-10-06,9.1,99.633,37.0,0.0,0.0,23.5,1011.9,SCT,10.0,0.0,24.0,159.0,,SURAT THANI AGROMET,TH,485550-99999,2019,14,1.0
234310,99999,2019-10-06,65.833,65.933,17.0,90.0,5.0,15.8,1007.9,OVC,2.0,9.0,,,,PITLYAR,RS,234310-99999,2019,14,1.0
011670,99999,2019-10-06,68.7,15.417,3.0,10.0,6.0,9.6,1017.1,OVC,2.0,2.0,,,,SORTLAND,NO,011670-99999,2019,14,1.0
082310,99999,2019-10-06,40.067,-2.132,948.0,260.0,1.5,24.5,,,,,6.0,9999.0,,CUENCA,SP,082310-99999,2019,14,1.0
360640,99999,2019-10-06,51.767,87.6,480.0,,,13.8,1008.6,SCT,,,12.0,0.0,,YAJLJU,RS,360640-99999,2019,14,1.0
719840,99999,2019-10-06,69.35,-124.08,6.0,340.0,,7.0,1008.7,,,,,,,PAULATUK  NWT,CA,719840-99999,2019,14,1.0
229390,99999,2019-10-06,60.017,37.75,131.0,180.0,2.0,7.7,1010.2,BKN,,,,,,BELOZERSK,RS,229390-99999,2019,14,1.0
915170,99999,2019-10-06,-9.417,159.967,56.0,20.0,1.5,29.3,1010.0,BKN,15.0,2.0,,,,HONIARA,BP,915170-99999,2019,14,1.0
723150,03812,2019-10-06,35.433,-82.55,661.0,0.0,0.0,25.0,1018.7,BKN,,,6.0,0.0,,ASHEVILLE REGIONAL AIRPORT,US,723150-03812,2019,14,1.0
985310,99999,2019-10-06,12.367,121.05,3.0,340.0,2.0,27.1,1008.1,BKN,5.0,8.0,24.0,8.0,,SAN JOSE,RP,985310-99999,2019,14,1.0
488480,99999,2019-10-06,17.483,106.6,8.0,230.0,3.0,31.3,1002.8,OVC,,,,,,DONG HOI,VM,488480-99999,2019,14,1.0
022860,99999,2019-10-06,63.8,20.283,8.0,,,9.9,1013.8,,,,,,,UMEA,SW,022860-99999,2019,14,1.0
948640,99999,2019-10-06,-37.728,144.902,86.0,310.0,6.2,9.0,,,,,,,,MELBOURNE ESSENDON,AS,948640-99999,2019,14,1.0
997275,99999,2019-10-06,43.65,-70.25,10.0,0.0,0.0,22.4,,,,,,,,PORTLAND,US,997275-99999,2019,14,1.0
683830,99999,2019-10-06,-26.95,31.95,175.0,0.0,0.0,,,,,,,,,NDZEVANE,WZ,683830-99999,2019,14,1.0
229130,99999,2019-10-06,60.717,33.55,23.0,200.0,1.0,4.2,1009.4,SCT,,,,,,LODEJNOE POLE,RS,229130-99999,2019,14,1.0
229170,99999,2019-10-06,60.117,32.317,9.0,240.0,1.0,6.1,1010.0,FEW,,,,,,NOVAJA LADOGA,RS,229170-99999,2019,14,1.0
360380,99999,2019-10-06,51.15,82.2,355.0,40.0,2.0,18.0,1005.3,OVC,,,12.0,0.0,,ZMEINOGORSK,KZ,360380-99999,2019,14,1.0
817740,99999,2019-10-06,-6.836,-38.312,237.0,149.0,4.8,26.5,1015.2,,,,99.0,9999.0,,SAO GONCALO,BR,817740-99999,2019,14,1.0
270510,99999,2019-10-06,59.967,42.767,134.0,,,5.6,1010.4,SCT,,,,,,TOTMA,RS,270510-99999,2019,14,1.0
014500,99999,2019-10-06,59.833,8.183,977.0,150.0,2.0,9.7,1014.7,,,,6.0,0.0,,MOSSTRAND II,NO,014500-99999,2019,14,1.0
251470,99999,2019-10-06,68.05,166.45,280.0,190.0,2.0,24.1,1004.9,OVC,,,,,,BILIBINO,RS,251470-99999,2019,14,1.0
351380,99999,2019-10-06,51.067,58.6,285.0,150.0,5.0,23.8,1004.4,BKN,,,,,,ORSK,RS,351380-99999,2019,14,1.0
293130,99999,2019-10-06,57.533,79.431,97.0,20.0,2.0,18.8,1017.4,SCT,,,12.0,0.0,,PUDINO,RS,293130-99999,2019,14,1.0
249590,99999,2019-10-06,62.017,129.717,101.0,190.0,5.0,25.8,1005.4,FEW,,,12.0,0.0,,JAKUTSK,RS,249590-99999,2019,14,1.0
226210,99999,2019-10-06,63.767,34.283,112.0,350.0,2.0,8.2,1008.2,OVC,2.0,8.0,,,,SEGEZA,RS,226210-99999,2019,14,1.0
225730,99999,2019-10-06,64.9,45.767,71.0,,,9.8,1008.5,OVC,,,,,,LESUKONSKOE,RS,225730-99999,2019,14,1.0
071825,99999,2019-10-06,48.325,6.07,330.0,340.0,2.6,13.0,,,,,,,,MIRECOURT,FR,071825-99999,2019,14,1.0
719840,99999,2019-10-06,69.35,-124.067,6.0,0.0,0.0,7.0,1008.7,,,,24.0,24.0,,PAULATUK  NWT,CA,719840-99999,2019,14,1.0
869730,99999,2019-10-06,-29.84,-57.082,74.0,,,14.7,1015.0,,,,99.0,9999.0,,URUGUAIANA,BR,869730-99999,2019,14,1.0
310870,99999,2019-10-06,58.817,141.85,5.0,,,8.4,1013.3,OBS,45.0,4.0,,,,UL' YA,RS,310870-99999,2019,14,1.0
076320,99999,2019-10-06,43.917,2.117,176.0,90.0,2.6,20.0,1013.6,,0.0,,6.0,0.0,,LE SEQUESTRE,FR,076320-99999,2019,14,1.0
124540,99999,2019-10-06,51.552,19.179,193.0,280.0,0.5,12.0,,,,,,,,LASK,PL,124540-99999,2019,14,1.0
124540,99999,2019-10-06,51.55,19.183,190.0,280.0,1.0,12.4,1012.0,SCT,,,6.0,0.0,,LASK,PL,124540-99999,2019,14,1.0
208710,99999,2019-10-06,71.883,82.7,6.0,80.0,3.0,2.3,1021.5,OVC,10.0,1.0,12.0,0.0,,SOPOCHNAYA KARGA,RS,208710-99999,2019,14,1.0
295580,99999,2019-10-06,55.533,89.2,319.0,140.0,1.0,11.2,1012.2,SCT,4.0,1.0,12.0,0.0,,GGP KATEK,RS,295580-99999,2019,14,1.0
605500,99999,2019-10-06,33.717,1.083,1347.0,220.0,1.0,25.5,,,,,6.0,0.0,,EL-BAYADH,AG,605500-99999,2019,14,1.0
605500,99999,2019-10-06,33.717,1.083,1345.0,220.0,1.0,26.0,,,,,,,,EL-BAYADH,AG,605500-99999,2019,14,1.0
293320,99999,2019-10-06,57.583,83.783,114.0,10.0,3.0,17.9,1015.9,BKN,,,12.0,0.0,,MOLCHANOVO,RS,293320-99999,2019,14,1.0
871210,99999,2019-10-06,-26.841,-65.105,456.0,0.0,0.0,14.0,,,,,,,,TENIENTE BENJAMIN MATIENZO,AR,871210-99999,2019,14,1.0
871210,99999,2019-10-06,-26.667,-65.083,440.0,0.0,0.0,13.7,1015.9,OVC,4.0,2.0,1.0,9999.0,,TENIENTE BENJAMIN MATIENZO,AR,871210-99999,2019,14,1.0
022690,99999,2019-10-06,63.183,19.017,11.0,330.0,2.0,10.8,,BKN,,,1.0,0.0,,SKAGSUDDE,SW,022690-99999,2019,14,1.0
714650,99999,2019-10-06,42.257,-81.909,178.0,265.0,3.1,30.1,1012.4,,,,,,,ERIEAU (AUT)  ONT,CA,714650-99999,2019,14,1.0
226760,99999,2019-10-06,63.583,45.633,62.0,160.0,1.0,5.6,1009.5,FEW,11.0,1.0,,,,SURA,RS,226760-99999,2019,14,1.0
744860,94789,2019-10-06,40.65,-73.783,7.0,190.0,6.2,25.0,1012.5,,,,,,,JOHN F KENNEDY INTERNATIONAL AIRPORT,US,744860-94789,2019,14,1.0
027170,99999,2019-10-06,68.17,25.783,276.0,297.0,1.4,3.1,,BKN,,,,,0.0,KITTILA POKKA,FI,027170-99999,2019,14,1.0
423480,99999,2019-10-06,26.824,75.812,385.0,230.0,3.1,29.0,,,5.0,,,,,JAIPUR,IN,423480-99999,2019,14,1.0
423480,99999,2019-10-06,26.817,75.8,383.0,230.0,3.1,28.8,999.2,FEW,5.0,0.0,,,,JAIPUR,IN,423480-99999,2019,14,1.0
479180,99999,2019-10-06,24.345,124.187,28.0,230.0,7.7,31.0,,,,,,,,ISHIGAKI,JA,479180-99999,2019,14,1.0
479180,99999,2019-10-06,24.337,124.164,6.0,220.0,6.7,30.6,1004.0,FEW,1.0,8.0,24.0,9999.0,,ISHIGAKI,JA,479180-99999,2019,14,1.0
234260,99999,2019-10-06,65.483,64.717,19.0,220.0,2.0,17.3,1006.8,OVC,2.0,9.0,,,,MUZHI,RS,234260-99999,2019,14,1.0
869620,99999,2019-10-06,-28.603,-53.674,427.0,66.0,1.8,17.2,1013.7,,,,99.0,9999.0,,CRUZ ALTA,BR,869620-99999,2019,14,1.0
999999,04138,2019-10-06,41.616,-112.544,1509.0,,4.5,31.6,,,,,1.0,0.0,,BRIGHAM CITY 28 WNW,US,999999-04138,2019,14,1.0
817420,99999,2019-10-06,-3.844,-50.638,89.0,0.0,0.0,24.0,1012.4,,,,99.0,9999.0,,PACAJA,BR,817420-99999,2019,14,1.0
726410,14837,2019-10-06,43.133,-89.333,264.0,350.0,2.1,28.3,1015.6,BKN,,,,,,DANE CO REGIONAL-TRUAX FIELD AIRPORT,US,726410-14837,2019,14,1.0
477430,99999,2019-10-06,35.492,133.236,6.0,,0.5,23.0,,,,,,,,MIHO,JA,477430-99999,2019,14,1.0
714650,99999,2019-10-06,42.25,-81.9,178.0,270.0,3.1,30.1,1012.4,,,,,,,ERIEAU (AUT)  ONT,CA,714650-99999,2019,14,1.0
681920,99999,2019-10-06,-22.967,30.5,600.0,0.0,0.0,10.8,,,,,,,,THOHOYANDOU,SF,681920-99999,2019,14,1.0
719510,99999,2019-10-06,54.469,-128.576,217.0,210.0,5.1,21.0,1014.4,,,,,,,TERRACE,CA,719510-99999,2019,14,1.0
226190,99999,2019-10-06,63.267,33.417,128.0,320.0,3.0,8.2,1007.8,OVC,,,,,,PADANY,RS,226190-99999,2019,14,1.0
442320,99999,2019-10-06,49.383,102.7,938.0,,,18.2,1005.8,BKN,,,,,,HUTAG,MG,442320-99999,2019,14,1.0
514635,99999,2019-10-06,43.907,87.474,648.0,,1.0,25.0,,CLR,,,,,,DIWOPU,CH,514635-99999,2019,14,1.0
484500,99999,2019-10-06,14.017,99.533,29.0,0.0,0.0,28.0,1007.9,BKN,,,,,,KANCHANA BURI,TH,484500-99999,2019,14,1.0
229540,99999,2019-10-06,60.467,40.2,202.0,180.0,1.0,7.3,1009.6,FEW,,,,,,VOZEGA,RS,229540-99999,2019,14,1.0
294050,99999,2019-10-06,56.6,76.567,116.0,10.0,1.0,17.1,1017.2,FEW,,,12.0,0.0,,KYSTOVKA,RS,294050-99999,2019,14,1.0
143700,99999,2019-10-06,45.167,18.0,89.0,240.0,3.0,15.1,1011.6,OVC,21.0,6.0,6.0,10.0,,SLAVONSKI BROD,HR,143700-99999,2019,14,1.0
718890,99999,2019-10-06,49.463,-119.602,344.0,10.0,2.6,29.0,1010.1,SCT,,,,,,PENTICTON,CA,718890-99999,2019,14,1.0
718890,99999,2019-10-06,49.45,-119.6,344.0,350.0,2.6,28.8,1010.1,SCT,,,24.0,0.0,,PENTICTON,CA,718890-99999,2019,14,1.0
867440,99999,2019-10-06,-16.088,-39.215,90.0,234.0,0.4,18.2,1018.9,,,,99.0,9999.0,,BELMONTE,BR,867440-99999,2019,14,1.0
085450,99999,2019-10-06,41.233,-8.683,77.0,150.0,2.0,19.0,1016.2,OVC,10.0,2.0,6.0,0.0,,PORTO,PO,085450-99999,2019,14,1.0
257030,99999,2019-10-06,62.917,152.417,205.0,200.0,1.0,26.7,1006.0,BKN,4.0,2.0,,,,SEJMCHAN,RS,257030-99999,2019,14,1.0
784580,99999,2019-10-06,19.75,-70.55,5.0,110.0,5.0,28.4,1016.6,FEW,,,,,,PUERTO PLATA,DR,784580-99999,2019,14,1.0
085450,99999,2019-10-06,41.248,-8.681,69.0,350.0,1.5,18.0,,,,,,,,PORTO,PO,085450-99999,2019,14,1.0
080142,99999,2019-10-06,42.2,-1.45,295.0,300.0,8.2,21.0,,CLR,,,,,,BARDENAS REALES,SP,080142-99999,2019,14,1.0
295510,99999,2019-10-06,56.183,87.683,144.0,,,14.4,1012.1,BKN,2.0,4.0,12.0,0.0,,MARIINSK,RS,295510-99999,2019,14,1.0
339020,99999,2019-10-06,46.633,32.567,54.0,240.0,1.0,17.2,1009.3,FEW,,,,,,KHERSON,UP,339020-99999,2019,14,1.0
293280,99999,2019-10-06,57.0,82.067,110.0,10.0,3.0,18.3,1015.6,OVC,,,12.0,0.0,,BAKCHAR,RS,293280-99999,2019,14,1.0
221270,99999,2019-10-06,68.0,35.033,162.0,10.0,2.0,5.5,1013.6,OVC,51.0,5.0,,,,LOVOZERO,RS,221270-99999,2019,14,1.0
249660,99999,2019-10-06,60.383,134.45,170.0,130.0,2.0,20.2,1006.6,OVC,95.0,9.0,,,,UST'-MAJYA,RS,249660-99999,2019,14,1.0
324080,99999,2019-10-06,56.217,162.717,27.0,200.0,8.0,11.1,1012.0,BKN,,,,,,UST'-KAMCHATSK,RS,324080-99999,2019,14,1.0
320690,99999,2019-10-06,50.05,142.167,4.0,80.0,5.0,18.0,1011.9,BKN,,,,,,PIL'VO,RS,320690-99999,2019,14,1.0
442070,99999,2019-10-06,50.433,100.15,1668.0,,,11.1,1014.7,OVC,2.0,6.0,12.0,220.0,,HATGAL,MG,442070-99999,2019,14,1.0
064500,99999,2019-10-06,51.191,4.452,14.0,360.0,4.0,15.5,1021.3,OVC,,,24.0,10.0,,DEURNE,BE,064500-99999,2019,14,1.0
717280,99999,2019-10-06,48.517,-72.267,179.0,210.0,2.6,17.0,1007.0,,80.0,,,,,ROBERVAL A,CA,717280-99999,2019,14,1.0
038620,99999,2019-10-06,50.783,-1.833,10.0,10.0,2.6,15.6,1022.3,,,,6.0,0.0,,BOURNEMOUTH,UK,038620-99999,2019,14,1.0
113580,99999,2019-10-06,47.553,13.935,814.0,180.0,1.0,11.2,1017.1,,,,6.0,30.0,,BAD MITTERNDORF,AU,113580-99999,2019,14,1.0
238470,99999,2019-10-06,61.3,71.3,33.0,130.0,2.0,19.9,1016.9,BKN,,,,,,SYTOMINO,RS,238470-99999,2019,14,1.0
871620,99999,2019-10-06,-26.2,-58.233,59.0,230.0,2.1,20.3,1012.3,OVC,,,,,,FORMOSA,AR,871620-99999,2019,14,1.0
719510,99999,2019-10-06,54.45,-128.567,217.0,200.0,5.1,20.8,1014.4,BKN,15.0,2.0,24.0,2.0,,TERRACE,CA,719510-99999,2019,14,1.0
176074,99999,2019-10-06,35.15,33.5,119.0,280.0,3.6,23.3,1005.7,,,,6.0,0.0,,ERCAN,CY,176074-99999,2019,14,1.0
027970,99999,2019-10-06,64.15,25.417,112.0,,,9.3,,,,,,,,HAAPAVEST MUSTIKKAMAKI,FI,027970-99999,2019,14,1.0
998432,99999,2019-10-06,59.548,-139.733,14.0,0.0,0.0,,1015.8,,,,,,,YAKUTAT,US,998432-99999,2019,14,1.0
206670,99999,2019-10-06,73.333,70.05,7.0,130.0,3.0,6.4,1020.0,BKN,,,,,,IM. M.V. POPOVA,RS,206670-99999,2019,14,1.0
876920,99999,2019-10-06,-37.934,-57.573,22.0,260.0,1.5,9.0,,,,,,,,MAR DEL PLATA,AR,876920-99999,2019,14,1.0
876920,99999,2019-10-06,-37.767,-57.567,18.0,270.0,1.5,9.2,1019.8,OVC,,,1.0,9999.0,,MAR DEL PLATA,AR,876920-99999,2019,14,1.0
032040,99999,2019-10-06,54.085,-4.631,16.0,330.0,5.7,13.0,1025.1,FEW,,,6.0,9999.0,,ISLE OF MAN,IM,032040-99999,2019,14,1.0
235030,99999,2019-10-06,65.033,53.967,52.0,200.0,1.0,12.9,1007.9,OVC,10.0,1.0,,,,IZHMA,RS,235030-99999,2019,14,1.0
025870,99999,2019-10-06,57.917,18.95,13.0,240.0,2.0,13.4,,OVC,,,1.0,0.0,,FAROSUND-AR,SW,025870-99999,2019,14,1.0
407390,99999,2019-10-06,36.417,54.95,1345.0,50.0,4.0,27.6,995.6,FEW,,,6.0,0.0,,SHAHRUD,IR,407390-99999,2019,14,1.0
225460,99999,2019-10-06,64.55,39.767,8.0,130.0,1.0,10.3,1008.5,BKN,25.0,8.0,,,,SEVERODVINSK,RS,225460-99999,2019,14,1.0
711400,99999,2019-10-06,49.917,-99.95,409.0,220.0,4.6,28.0,1013.0,,,,,,,BRANDON MUNI,CA,711400-99999,2019,14,1.0
946030,99999,2019-10-06,-30.333,115.533,275.0,60.0,5.1,9.1,,,,,,,,BADGINGARRA RESEARCH STN,AS,946030-99999,2019,14,1.0
485000,99999,2019-10-06,11.834,99.806,4.0,0.0,0.0,26.7,1008.8,SCT,,,6.0,9999.0,,PRACHUAP,TH,485000-99999,2019,14,1.0
408480,99999,2019-10-06,29.533,52.6,1484.0,,,24.0,993.7,SCT,,,6.0,0.0,,SHIRAZ SHAHID DASTGHAIB INTL,IR,408480-99999,2019,14,1.0
234450,99999,2019-10-06,65.467,72.667,19.0,120.0,4.0,14.6,1016.2,OVC,95.0,9.0,,,,NADYM,RS,234450-99999,2019,14,1.0
150940,99999,2019-10-06,47.017,27.583,400.0,100.0,1.0,16.4,1009.9,,,,6.0,0.0,,BARNOVA,RO,150940-99999,2019,14,1.0
408480,99999,2019-10-06,29.539,52.589,1500.0,0.0,0.0,24.0,,,,,,,,SHIRAZ SHAHID DASTGHAIB INTL,IR,408480-99999,2019,14,1.0
027720,99999,2019-10-06,62.067,28.567,80.0,340.0,3.0,11.1,1010.8,,,,,,,RANTASALMI RUKKASLUOTO,FI,027720-99999,2019,14,1.0
607150,99999,2019-10-06,36.833,10.233,4.0,310.0,3.6,28.7,1011.7,,,,18.0,0.0,,CARTHAGE,TS,607150-99999,2019,14,1.0
607150,99999,2019-10-06,36.851,10.227,7.0,310.0,3.6,29.0,,,,,,,,CARTHAGE,TS,607150-99999,2019,14,1.0
722060,13889,2019-10-06,30.483,-81.7,11.0,70.0,3.1,27.2,1019.4,BKN,,,6.0,60.0,,JACKSONVILLE  INTERNATIONAL AIRPORT,US,722060-13889,2019,14,1.0
227170,99999,2019-10-06,62.1,32.383,156.0,250.0,1.0,6.1,1009.0,BKN,,,,,,SUOYARVI,RS,227170-99999,2019,14,1.0
711400,99999,2019-10-06,49.917,-99.95,409.0,220.0,3.6,28.1,1013.1,BKN,,,24.0,0.0,,BRANDON MUNI,CA,711400-99999,2019,14,1.0
435330,99999,2019-10-06,6.733,73.167,2.0,200.0,1.5,27.1,1010.5,SCT,,,24.0,0.0,,HANIMAADHOO,MV,435330-99999,2019,14,1.0
407830,99999,2019-10-06,33.4,49.683,2034.0,120.0,7.0,17.2,995.3,,,,6.0,0.0,,ALI-GOODARZ,IR,407830-99999,2019,14,1.0
488750,99999,2019-10-06,12.683,108.083,537.0,230.0,1.0,24.9,1008.3,BKN,,,,,,BANMETHUOT,VM,488750-99999,2019,14,1.0
718870,99999,2019-10-06,50.702,-120.444,345.0,270.0,4.1,29.0,1009.8,,,,,,,KAMLOOPS,CA,718870-99999,2019,14,1.0
718870,99999,2019-10-06,50.703,-120.449,345.0,274.0,3.5,29.1,1009.9,BKN,0.0,,24.0,9999.0,,KAMLOOPS,CA,718870-99999,2019,14,1.0
140240,99999,2019-10-06,46.068,15.29,943.0,25.0,1.9,12.5,,CLR,,,,,,LISCA,SI,140240-99999,2019,14,1.0
067620,99999,2019-10-06,46.167,8.933,204.0,360.0,1.0,18.9,1013.2,,,,6.0,0.0,,LOCARNO - MAGADINO,SZ,067620-99999,2019,14,1.0
230220,99999,2019-10-06,69.783,61.65,47.0,90.0,6.0,4.8,1010.0,OVC,80.0,8.0,,,,AMADERMA,RS,230220-99999,2019,14,1.0
155020,99999,2019-10-06,43.983,22.85,595.0,,,16.2,1008.5,OVC,61.0,6.0,6.0,30.0,,VIDIN,BU,155020-99999,2019,14,1.0
719400,99999,2019-10-06,55.18,-118.885,669.0,10.0,2.6,21.0,1011.8,,,,,,,GRANDE PRAIRIE,CA,719400-99999,2019,14,1.0
719400,99999,2019-10-06,55.183,-118.883,669.0,20.0,2.1,20.8,1011.9,BKN,1.0,9.0,24.0,14.0,,GRANDE PRAIRIE,CA,719400-99999,2019,14,1.0
156400,99999,2019-10-06,42.667,26.333,257.0,,,16.8,1008.4,OVC,3.0,9.0,6.0,280.0,,SLIVEN,BU,156400-99999,2019,14,1.0
717210,99999,2019-10-06,46.267,-76.0,200.0,180.0,1.0,16.2,1010.0,,,,1.0,10.0,,MANIWAKI AIRPORT,CA,717210-99999,2019,14,1.0
717210,99999,2019-10-06,46.274,-76.101,199.0,179.0,0.9,16.2,1010.0,,,,24.0,220.0,,MANIWAKI AIRPORT,CA,717210-99999,2019,14,1.0
984340,99999,2019-10-06,14.75,121.65,7.0,,,29.0,1007.3,BKN,,,24.0,18.0,,INFANTA,RP,984340-99999,2019,14,1.0
485610,99999,2019-10-06,8.683,98.25,4.0,0.0,0.0,25.5,1009.5,BKN,1.0,6.0,24.0,6.0,,TAKUA PA,TH,485610-99999,2019,14,1.0
718230,99999,2019-10-06,53.75,-73.683,306.0,320.0,1.0,15.6,1005.8,OVC,,,24.0,6.0,,LA GRANDE IV UA,CA,718230-99999,2019,14,1.0
718230,99999,2019-10-06,53.75,-73.683,306.0,310.0,1.0,16.0,1005.8,,,,,,,LA GRANDE IV UA,CA,718230-99999,2019,14,1.0
253780,99999,2019-10-06,66.35,-179.117,26.0,150.0,6.0,21.8,1002.9,BKN,,,,,,EGVEKINOT,RS,253780-99999,2019,14,1.0
653380,99999,2019-10-06,7.167,2.067,167.0,220.0,2.1,23.1,1015.8,BKN,,,,,,BOHICON,BN,653380-99999,2019,14,1.0
