usaf,wban,datetime,latitude,longitude,elevation,windAngle,windSpeed,temperature,seaLvlPressure,cloudCoverage,presentWeatherIndicator,pastWeatherIndicator,precipTime,precipDepth,snowDepth,stationName,countryOrRegion,p_k,year,day,version
264770,99999,2019-10-07,56.35,30.617,106.0,,,9.8,1011.2,OVC,,,,,,VELIKIE LUKI,RS,264770-99999,2019,15,1.0
010350,99999,2019-10-07,69.567,20.1,710.0,,,3.4,,,,,,,,LYNGEN GJERDVASSBU,NO,010350-99999,2019,15,1.0
475970,99999,2019-10-07,37.133,140.217,357.0,50.0,2.1,20.5,1007.3,,,,12.0,30.0,,SHIRAKAWA,JA,475970-99999,2019,15,1.0
314180,99999,2019-10-07,52.283,135.8,201.0,100.0,1.0,22.1,1010.8,OVC,,,,,,VESELAJA GORKA,RS,314180-99999,2019,15,1.0
998211,99999,2019-10-07,38.317,-75.083,0.0,270.0,2.1,29.9,1015.5,,,,,,,OCEAN CITY INLET,US,998211-99999,2019,15,1.0
686190,99999,2019-10-07,-31.35,19.083,731.0,0.0,0.0,0.0,,,,,,,,NIEUWOUDTVILLE,SF,686190-99999,2019,15,1.0
315100,99999,2019-10-07,50.283,127.483,169.0,,,24.1,1006.8,OVC,2.0,8.0,12.0,0.0,,BLAGOVESCENSK,RS,315100-99999,2019,15,1.0
080001,99999,2019-10-07,32.698,-16.774,59.0,,3.6,21.0,,,,,,,,MADEIRA,PO,080001-99999,2019,15,1.0
296450,99999,2019-10-07,55.25,86.217,148.0,350.0,2.0,16.7,1010.1,,,,12.0,0.0,,KEMEROVO CGMS,RS,296450-99999,2019,15,1.0
385990,99999,2019-10-07,40.217,69.733,427.0,260.0,2.0,24.5,999.0,,,,,,,KHUDJANT,TI,385990-99999,2019,15,1.0
997288,99999,2019-10-07,41.58,-71.4,10.0,270.0,2.1,28.4,1011.9,,,,,,,QUONSET POINT,US,997288-99999,2019,15,1.0
432430,99999,2019-10-07,14.9,79.983,17.0,0.0,0.0,29.0,1004.5,BKN,,,21.0,0.0,,KAVALI,IN,432430-99999,2019,15,1.0
248070,99999,2019-10-07,61.333,100.483,332.0,350.0,1.0,15.9,1010.5,OVC,4.0,8.0,12.0,0.0,,MUTORAJ,RS,248070-99999,2019,15,1.0
975800,99999,2019-10-07,-1.833,138.717,3.0,0.0,0.0,25.0,1011.5,OVC,91.0,9.0,24.0,40.0,,SARMI/ORAI,ID,975800-99999,2019,15,1.0
278570,99999,2019-10-07,53.483,42.633,131.0,290.0,1.0,10.6,1010.4,,,,,,,ZAMETCHINO,RS,278570-99999,2019,15,1.0
408180,99999,2019-10-07,31.183,52.667,2030.0,330.0,1.0,25.4,990.4,SCT,,,6.0,0.0,,ABADEH,IR,408180-99999,2019,15,1.0
360910,99999,2019-10-07,52.25,93.017,662.0,,,10.4,1008.1,OBS,47.0,1.0,12.0,0.0,,NIZHNE-USINSKOE,RS,360910-99999,2019,15,1.0
167460,99999,2019-10-07,35.533,24.15,149.0,270.0,7.2,24.0,1005.4,FEW,,,6.0,0.0,,SOUDA,GR,167460-99999,2019,15,1.0
711230,99999,2019-10-07,53.317,-113.583,723.0,240.0,3.1,23.2,1010.5,BKN,,,24.0,0.0,,EDMONTON INTL,CA,711230-99999,2019,15,1.0
292090,99999,2019-10-07,57.8,77.217,99.0,,,12.4,1017.0,,,,12.0,0.0,,MAJSK,RS,292090-99999,2019,15,1.0
711230,99999,2019-10-07,53.31,-113.58,723.0,240.0,3.6,23.0,1010.4,,,,,,,EDMONTON INTL,CA,711230-99999,2019,15,1.0
420270,99999,2019-10-07,34.083,74.833,1587.0,140.0,0.5,18.6,,BKN,,,21.0,40.0,,SRINAGAR,IN,420270-99999,2019,15,1.0
161700,99999,2019-10-07,43.8,11.2,38.0,,1.0,23.9,1008.3,BKN,,,6.0,0.0,,FIRENZE,IT,161700-99999,2019,15,1.0
167160,99999,2019-10-07,37.883,23.75,45.0,,1.0,22.5,1007.6,,,,,,,ATHINAI,GR,167160-99999,2019,15,1.0
288380,99999,2019-10-07,53.35,59.083,384.0,130.0,3.0,22.4,1002.1,BKN,,,,,,MAGNITOGORSK,RS,288380-99999,2019,15,1.0
471380,99999,2019-10-07,36.033,129.383,4.0,50.0,2.1,23.8,1008.3,BKN,,,,,,POHANG,KS,471380-99999,2019,15,1.0
315340,99999,2019-10-07,50.433,131.017,230.0,100.0,2.0,23.2,1009.2,BKN,,,,,,SEKTAGLI,RS,315340-99999,2019,15,1.0
386470,99999,2019-10-07,39.25,55.517,31.0,,,25.9,1006.3,FEW,,,,,,GAZANDZHYK,TX,386470-99999,2019,15,1.0
020950,99999,2019-10-07,67.204,23.39,164.0,134.0,0.9,6.7,1013.0,OVC,,,1.0,9999.0,,PAJALA,SW,020950-99999,2019,15,1.0
278170,99999,2019-10-07,53.383,36.533,201.0,,,10.6,1010.8,BKN,10.0,1.0,,,,MCENSK,RS,278170-99999,2019,15,1.0
766830,99999,2019-10-07,19.317,-98.25,2248.0,160.0,3.0,20.4,1009.3,OVC,20.0,5.0,6.0,0.0,,TLAXCALA  TLAX.,MX,766830-99999,2019,15,1.0
406500,99999,2019-10-07,33.3,44.4,34.0,340.0,5.0,28.0,1000.5,,,,,,,BAGHDAD INTL AIRPORT,IZ,406500-99999,2019,15,1.0
301980,99999,2019-10-07,58.067,123.717,417.0,,,25.0,1007.8,OVC,,,12.0,8.0,,SUON-TIT,RS,301980-99999,2019,15,1.0
269970,99999,2019-10-07,52.583,33.767,178.0,30.0,2.0,14.0,1009.5,BKN,,,,,,TRUBCHEVSK,RS,269970-99999,2019,15,1.0
407920,99999,2019-10-07,34.017,58.167,1293.0,80.0,2.0,28.1,995.4,FEW,,,6.0,0.0,,FERDOUS,IR,407920-99999,2019,15,1.0
607400,99999,2019-10-07,35.667,10.75,3.0,320.0,2.6,27.5,1008.3,CLR,29.0,9.0,18.0,9999.0,,MONASTIR-SKANES,TS,607400-99999,2019,15,1.0
386870,99999,2019-10-07,39.083,63.6,190.0,340.0,4.0,27.9,998.6,,,,,,,CHARDZHEV,TX,386870-99999,2019,15,1.0
338920,99999,2019-10-07,46.517,29.483,173.0,10.0,1.0,13.4,1008.5,BKN,,,,,,STEFAN-VODA,MD,338920-99999,2019,15,1.0
133670,99999,2019-10-07,43.733,19.717,1029.0,280.0,2.0,11.6,,BKN,,,6.0,0.0,,ZLATIBOR,RI,133670-99999,2019,15,1.0
239660,99999,2019-10-07,60.35,84.083,99.0,350.0,1.0,12.2,1014.5,,,,12.0,0.0,,VANZIL'-KYNAK,RS,239660-99999,2019,15,1.0
025980,99999,2019-10-07,57.433,18.983,5.0,220.0,4.0,14.7,,,,,,,,OSTERGARNSHOLM,SW,025980-99999,2019,15,1.0
317700,99999,2019-10-07,49.0,140.3,24.0,160.0,2.0,17.1,1014.9,OVC,,,,,,SOVETSKAYA GAVAN,RS,317700-99999,2019,15,1.0
489170,99999,2019-10-07,10.217,103.967,4.0,250.0,4.0,25.6,1009.0,OVC,95.0,9.0,12.0,150.0,,PHU QUOC,VM,489170-99999,2019,15,1.0
681100,99999,2019-10-07,-22.567,17.1,1700.0,100.0,4.1,11.8,,,,,,,,WINDHOEK/EROS(SAAF),WA,681100-99999,2019,15,1.0
025890,99999,2019-10-07,58.4,19.2,17.0,220.0,4.0,15.2,1011.9,,,,1.0,0.0,,GOTSKA SANDON,SW,025890-99999,2019,15,1.0
624050,99999,2019-10-07,25.671,32.707,90.0,160.0,1.0,30.0,,,,,,,,LUXOR INTL,EG,624050-99999,2019,15,1.0
723560,13968,2019-10-07,36.2,-95.883,195.0,,3.1,30.0,1012.5,FEW,,,,,,TULSA INTERNATIONAL AIRPORT,US,723560-13968,2019,15,1.0
131160,99999,2019-10-07,45.224,14.582,85.0,50.0,2.0,21.1,1011.7,CLR,,,6.0,9999.0,,RIJEKA,HR,131160-99999,2019,15,1.0
683007,99999,2019-10-07,-26.566,27.961,1477.0,200.0,0.5,3.0,,,,,,,,VEREENIGING,SF,683007-99999,2019,15,1.0
406500,99999,2019-10-07,33.267,44.233,35.0,320.0,4.1,27.0,,,,,,,,BAGHDAD INTL AIRPORT,IZ,406500-99999,2019,15,1.0
228890,99999,2019-10-07,61.117,48.0,70.0,250.0,1.0,10.3,1010.9,,,,,,,VILEGODSKOE,RS,228890-99999,2019,15,1.0
143070,99999,2019-10-07,44.894,13.922,84.0,40.0,4.1,19.0,,,,,,,,PULA,HR,143070-99999,2019,15,1.0
248430,99999,2019-10-07,61.917,124.55,199.0,360.0,2.0,21.3,1010.1,BKN,,,12.0,0.0,,TONGULAH,RS,248430-99999,2019,15,1.0
318450,99999,2019-10-07,46.533,135.317,130.0,40.0,2.0,20.8,1011.3,OVC,,,,,,KRASNYJ JAR,RS,318450-99999,2019,15,1.0
489530,99999,2019-10-07,15.333,106.683,143.0,90.0,1.0,24.5,1004.4,BKN,10.0,4.0,,,,SEKONG,LA,489530-99999,2019,15,1.0
997694,99999,2019-10-07,39.58,-75.58,8.0,330.0,2.6,29.7,1014.9,,,,,,,DELAWARE CITY,US,997694-99999,2019,15,1.0
947500,99999,2019-10-07,-34.95,150.533,105.0,230.0,6.7,13.9,1016.7,,,,,,,NOWRA,AS,947500-99999,2019,15,1.0
131160,99999,2019-10-07,45.217,14.57,85.0,,1.5,21.0,,,,,,,,RIJEKA,HR,131160-99999,2019,15,1.0
681100,99999,2019-10-07,-22.567,17.1,1725.0,100.0,3.6,12.0,,,,,,,,WINDHOEK/EROS(SAAF),WA,681100-99999,2019,15,1.0
259410,99999,2019-10-07,60.733,163.017,14.0,260.0,6.0,14.7,1008.0,,,,,,,CHEMURNAUT,RS,259410-99999,2019,15,1.0
351880,99999,2019-10-07,51.133,71.367,350.0,60.0,1.0,20.5,1010.5,,,,,,,ASTANA INTL,KZ,351880-99999,2019,15,1.0
304330,99999,2019-10-07,55.783,109.55,487.0,40.0,4.0,21.3,1003.9,OVC,,,12.0,0.0,,NIZHNEANGARSK,RS,304330-99999,2019,15,1.0
433480,99999,2019-10-07,10.333,79.383,6.0,0.0,0.0,27.0,1006.2,BKN,,,,,,ATIRAMAPATTINAM,IN,433480-99999,2019,15,1.0
947500,99999,2019-10-07,-34.949,150.537,122.0,230.0,6.7,14.0,,,,,,,,NOWRA,AS,947500-99999,2019,15,1.0
343980,99999,2019-10-07,49.667,49.483,10.0,270.0,2.0,15.8,1005.3,SCT,,,,,,ZHALPAKTAL,KZ,343980-99999,2019,15,1.0
432210,99999,2019-10-07,15.5,80.083,12.0,0.0,0.0,27.8,1004.0,OVC,,,21.0,9.0,,ONGOLE,IN,432210-99999,2019,15,1.0
263590,99999,2019-10-07,57.017,28.9,108.0,260.0,2.0,10.7,1011.8,OVC,80.0,2.0,,,,PUSKINSKIE GORY,RS,263590-99999,2019,15,1.0
335060,99999,2019-10-07,49.6,34.55,160.0,360.0,1.0,15.1,1008.6,BKN,,,,,,POLTAVA,UP,335060-99999,2019,15,1.0
042023,99999,2019-10-07,70.733,-52.7,89.0,130.0,2.1,12.0,1012.7,,,,,,,QAARSUT MITTARFIA,GL,042023-99999,2019,15,1.0
244770,99999,2019-10-07,65.3,135.8,675.0,320.0,1.0,14.2,1009.5,OVC,2.0,8.0,,,,IEMA,RS,244770-99999,2019,15,1.0
766540,99999,2019-10-07,19.05,-104.317,3.0,360.0,1.0,27.8,1011.2,BKN,5.0,4.0,24.0,21.0,,MANZANILLO  COL.,MX,766540-99999,2019,15,1.0
443250,99999,2019-10-07,45.15,97.767,2417.0,120.0,5.0,20.1,1000.4,FEW,,,,,,ERDENI,MG,443250-99999,2019,15,1.0
400250,99999,2019-10-07,35.401,35.949,48.0,120.0,2.6,23.0,,,,,,,,BASSEL AL ASSAD INTL,SY,400250-99999,2019,15,1.0
387630,99999,2019-10-07,38.983,56.283,92.0,310.0,3.0,26.0,1007.1,FEW,1.0,9.0,,,,GYZYLARBAT,TX,387630-99999,2019,15,1.0
063750,99999,2019-10-07,51.65,5.7,21.0,330.0,2.0,13.0,1020.8,OVC,,,6.0,0.0,,VOLKEL,NL,063750-99999,2019,15,1.0
025130,99999,2019-10-07,57.717,12.0,2.0,160.0,2.0,16.3,1013.3,,,,1.0,0.0,,GOTEBORG,SW,025130-99999,2019,15,1.0
400250,99999,2019-10-07,35.4,35.933,50.0,120.0,2.0,22.6,1005.2,BKN,,,,,,BASSEL AL ASSAD INTL,SY,400250-99999,2019,15,1.0
994023,99999,2019-10-07,35.177,-120.76,2.0,110.0,1.0,15.8,1015.4,,,,,,,PORT SAN LUIS,US,994023-99999,2019,15,1.0
061810,99999,2019-10-07,55.767,12.533,42.0,0.0,0.0,15.2,1015.1,,,,,,,JAEGERSBORG,DA,061810-99999,2019,15,1.0
013200,99999,2019-10-07,61.833,6.1,60.0,290.0,4.0,12.0,1018.5,,,,,,,SANDANE/ANDA,NO,013200-99999,2019,15,1.0
408770,99999,2019-10-07,27.967,57.7,470.0,240.0,6.0,30.8,989.8,,,,6.0,0.0,,KAHNUJ,IR,408770-99999,2019,15,1.0
232204,99999,2019-10-07,57.19,65.324,115.0,150.0,3.0,20.0,,,,,,,,ROSCHINO,RS,232204-99999,2019,15,1.0
336640,99999,2019-10-07,48.35,27.083,261.0,30.0,1.0,15.0,1008.9,OVC,10.0,8.0,,,,BRICENI,MD,336640-99999,2019,15,1.0
471430,99999,2019-10-07,35.883,128.65,55.0,140.0,1.5,22.6,1008.0,OVC,10.0,2.0,,,,TAEGU ACC (KOR-AFB),KS,471430-99999,2019,15,1.0
725383,54827,2019-10-07,41.813,-85.439,282.0,30.0,1.5,28.6,,CLR,,,,,,KIRSCH MUNICIPAL AIRPORT,US,725383-54827,2019,15,1.0
165220,99999,2019-10-07,40.567,8.167,204.0,60.0,5.7,24.0,1007.0,SCT,,,6.0,0.0,,CAPE CACCIA,IT,165220-99999,2019,15,1.0
377880,99999,2019-10-07,40.15,44.383,854.0,50.0,3.0,22.1,1001.9,,,,,,,YEREVAN ZVARTNOTS,AM,377880-99999,2019,15,1.0
998011,99999,2019-10-07,38.223,-122.026,9999.0,,,,,,,,1.0,0.0,,SAN FRANCISCO BAY RESERVE,US,998011-99999,2019,15,1.0
489170,99999,2019-10-07,10.167,103.983,11.0,330.0,5.7,25.0,,,81.0,,,,,PHU QUOC,VM,489170-99999,2019,15,1.0
998011,99999,2019-10-07,38.217,-122.017,3.0,280.0,7.2,27.7,1014.0,,,,,,,SAN FRANCISCO BAY RESERVE,US,998011-99999,2019,15,1.0
689200,99999,2019-10-07,-34.833,20.017,14.0,350.0,2.1,12.9,1020.2,,,,,,,CAPE AGULHAS,SF,689200-99999,2019,15,1.0
998216,99999,2019-10-07,45.2,-87.35,181.0,130.0,3.6,23.1,1020.3,,,,,,,CHAMBERS ISLAND,US,998216-99999,2019,15,1.0
702510,26528,2019-10-07,62.317,-150.1,109.0,,2.1,20.6,1011.3,,,,,,,TALKEETNA AIRPORT,US,702510-26528,2019,15,1.0
247900,99999,2019-10-07,62.783,148.167,655.0,230.0,3.0,25.1,1002.4,FEW,4.0,0.0,,,,SUSUMAN,RS,247900-99999,2019,15,1.0
483330,99999,2019-10-07,18.867,100.75,264.0,0.0,0.0,25.2,1004.6,BKN,10.0,2.0,24.0,300.0,,NAN AGROMET,TH,483330-99999,2019,15,1.0
483740,99999,2019-10-07,16.767,101.25,145.0,0.0,0.0,26.2,1005.3,BKN,,,,,,LOMSAK,TH,483740-99999,2019,15,1.0
624050,99999,2019-10-07,25.667,32.7,90.0,160.0,1.0,30.3,1004.7,,,,,,,LUXOR INTL,EG,624050-99999,2019,15,1.0
310160,99999,2019-10-07,58.633,128.5,231.0,240.0,1.0,20.2,1007.6,,,,12.0,0.0,,UGINO,RS,310160-99999,2019,15,1.0
426710,99999,2019-10-07,23.85,78.75,551.0,230.0,1.5,25.6,998.9,,,,,,,SAGAR,IN,426710-99999,2019,15,1.0
310540,99999,2019-10-07,59.183,135.15,212.0,,,21.9,1007.1,SCT,,,,,,UST'-JUDOMA,RS,310540-99999,2019,15,1.0
386155,99999,2019-10-07,40.609,72.793,892.0,160.0,4.0,26.0,,,,,,,,OSH,KG,386155-99999,2019,15,1.0
710980,99999,2019-10-07,53.067,-93.35,290.0,220.0,2.6,22.0,1011.0,,,,,,,SANDY LAKE,CA,710980-99999,2019,15,1.0
483040,99999,2019-10-07,19.867,99.767,401.0,0.0,0.0,25.5,1003.3,BKN,,,,,,CHAING RAI ARGOMET,TH,483040-99999,2019,15,1.0
310960,99999,2019-10-07,59.15,149.033,52.0,310.0,10.0,9.5,1012.0,OBS,43.0,4.0,,,,SPAFAR' EVA (OSTROV),RS,310960-99999,2019,15,1.0
405700,99999,2019-10-07,29.1,46.683,289.0,330.0,2.6,27.7,1000.4,,,,,,,SALMY,KU,405700-99999,2019,15,1.0
377560,99999,2019-10-07,40.533,48.933,755.0,,,15.3,1011.4,,,,,,,MARAZA,AJ,377560-99999,2019,15,1.0
306950,99999,2019-10-07,53.467,123.9,266.0,100.0,1.0,20.3,1005.0,OVC,2.0,4.0,12.0,6.0,,DZALINDA,RS,306950-99999,2019,15,1.0
293930,99999,2019-10-07,57.65,99.533,221.0,340.0,3.0,14.9,1006.1,OVC,25.0,8.0,12.0,70.0,,CHERVYANKA,RS,293930-99999,2019,15,1.0
160660,99999,2019-10-07,45.617,8.733,212.0,330.0,2.6,16.1,1011.6,OVC,95.0,9.0,6.0,140.0,,MALPENSA,IT,160660-99999,2019,15,1.0
687220,99999,2019-10-07,-32.383,20.667,1459.0,0.0,0.0,-4.5,,,,,,,,SUTHERLAND,SF,687220-99999,2019,15,1.0
727770,94012,2019-10-07,48.55,-109.767,792.0,270.0,4.1,29.4,1008.9,FEW,,,,,,HAVRE CITY-COUNTY AIRPORT,US,727770-94012,2019,15,1.0
315320,99999,2019-10-07,50.867,132.25,272.0,20.0,1.0,20.2,1010.0,OVC,2.0,8.0,,,,CEKUNDA,RS,315320-99999,2019,15,1.0
336780,99999,2019-10-07,48.2,28.3,173.0,340.0,1.0,15.2,1009.0,OVC,61.0,8.0,,,,SOROCA,MD,336780-99999,2019,15,1.0
443850,99999,2019-10-07,43.2,107.167,914.0,200.0,3.0,25.1,1000.1,BKN,2.0,6.0,12.0,0.0,,HANBOGD,MG,443850-99999,2019,15,1.0
133890,99999,2019-10-07,42.983,21.95,232.0,,,14.8,1010.9,BKN,,,6.0,0.0,,LESKOVAC,RI,133890-99999,2019,15,1.0
236620,99999,2019-10-07,63.983,82.083,33.0,120.0,1.0,16.3,1017.6,BKN,,,,,,TOL'KA,RS,236620-99999,2019,15,1.0
720175,53919,2019-10-07,33.636,-91.756,82.0,120.0,5.7,22.8,,,63.0,,1.0,12.0,,MONTCELO MUNI/ELLIS FLD AP,US,720175-53919,2019,15,1.0
416300,99999,2019-10-07,31.433,73.1,184.0,130.0,4.1,27.0,993.7,BKN,4.0,2.0,12.0,0.0,,FAISALABAD,PK,416300-99999,2019,15,1.0
488030,99999,2019-10-07,22.5,103.967,97.0,,,27.0,1002.2,OVC,2.0,6.0,12.0,4.0,,LAO CAI,VM,488030-99999,2019,15,1.0
712570,99999,2019-10-07,51.65,-112.667,836.0,70.0,2.1,18.3,,,,,24.0,69.0,,MORRIN AGDM  ALTA,CA,712570-99999,2019,15,1.0
998438,99999,2019-10-07,29.667,-91.233,3.0,80.0,1.5,23.1,1014.5,,,,,,,TESORO MARINE TERMINAL,US,998438-99999,2019,15,1.0
249510,99999,2019-10-07,60.817,125.317,118.0,,,20.8,1009.3,,4.0,0.0,12.0,0.0,,ISIT',RS,249510-99999,2019,15,1.0
251230,99999,2019-10-07,68.75,161.283,28.0,350.0,6.0,9.8,1003.8,BKN,2.0,8.0,,,,CHERSKIJ,RS,251230-99999,2019,15,1.0
994043,99999,2019-10-07,18.47,-66.12,5.0,80.0,7.2,28.3,1017.3,,,,,,,SAN JUAN,RQ,994043-99999,2019,15,1.0
362290,99999,2019-10-07,50.283,85.617,978.0,,,13.2,1006.2,FEW,,,12.0,0.0,,UST'- KOKSA,RS,362290-99999,2019,15,1.0
417000,99999,2019-10-07,29.4,71.783,113.0,230.0,4.1,31.5,992.9,SCT,4.0,0.0,12.0,0.0,,BAHAWALPUR,PK,417000-99999,2019,15,1.0
655100,99999,2019-10-07,11.16,-4.331,461.0,200.0,2.1,27.0,,,,,,,,BOBO DIOULASSO,UV,655100-99999,2019,15,1.0
080230,99999,2019-10-07,43.491,-3.8,52.0,190.0,1.5,19.5,1017.5,FEW,10.0,0.0,6.0,9999.0,,SANTANDER,SP,080230-99999,2019,15,1.0
304990,99999,2019-10-07,55.183,124.667,528.0,70.0,1.0,17.7,1007.0,OVC,2.0,8.0,12.0,8.0,,TYNDA,RS,304990-99999,2019,15,1.0
243380,99999,2019-10-07,66.033,117.4,304.0,20.0,1.0,17.8,1015.6,FEW,,,12.0,0.0,,EJK,RS,243380-99999,2019,15,1.0
378630,99999,2019-10-07,40.738,46.318,330.0,90.0,6.2,21.0,,,,,,,,GYANDZHA,AJ,378630-99999,2019,15,1.0
401530,99999,2019-10-07,32.967,35.5,934.0,300.0,4.0,17.3,,,,,24.0,0.0,,HAR-KNAAN (ZEFAT),IS,401530-99999,2019,15,1.0
342020,99999,2019-10-07,50.8,35.767,226.0,80.0,1.0,11.5,1010.1,,,,,,,GOTNJA,RS,342020-99999,2019,15,1.0
747400,13973,2019-10-07,30.5,-99.767,522.0,330.0,3.6,35.0,1009.3,FEW,,,,,,KIMBLE COUNTY AIRPORT,US,747400-13973,2019,15,1.0
442100,99999,2019-10-07,49.6,90.35,1480.0,300.0,2.0,14.5,1004.8,BKN,15.0,6.0,12.0,10.0,,NOGOONNUUR,MG,442100-99999,2019,15,1.0
712570,99999,2019-10-07,51.67,-112.68,836.0,70.0,2.1,18.2,,,,,,,,MORRIN AGDM  ALTA,CA,712570-99999,2019,15,1.0
131600,99999,2019-10-07,45.77,19.15,87.0,300.0,1.0,13.1,1011.9,CLR,1.0,9.0,6.0,3.0,,SOMBOR,RI,131600-99999,2019,15,1.0
071660,99999,2019-10-07,48.767,4.15,179.0,30.0,4.1,12.2,1019.3,,0.0,,6.0,0.0,,VATRY AERO,FR,071660-99999,2019,15,1.0
250440,99999,2019-10-07,69.5,166.583,5.0,20.0,7.0,5.0,1004.5,OVC,80.0,8.0,,,,RAUCHUA,RS,250440-99999,2019,15,1.0
239460,99999,2019-10-07,60.5,74.017,48.0,,,20.2,1015.8,,,,,,,UGUT,RS,239460-99999,2019,15,1.0
546620,99999,2019-10-07,38.966,121.539,33.0,,2.0,27.0,,,,,,,,ZHOUSHUIZI,CH,546620-99999,2019,15,1.0
034050,99999,2019-10-07,52.789,-4.74,95.0,120.0,3.1,15.6,1023.6,,,,6.0,9999.0,,ABERDARON,UK,034050-99999,2019,15,1.0
339240,99999,2019-10-07,45.517,32.7,10.0,40.0,3.0,21.8,1005.6,,,,,,,CHORNOMORS'KE,UP,339240-99999,2019,15,1.0
998005,99999,2019-10-07,33.35,-79.183,4.0,280.0,1.5,28.2,1017.0,,,,,,,NORTH INLET-WINYAH BAY,US,998005-99999,2019,15,1.0
259270,99999,2019-10-07,59.65,154.267,5.0,260.0,9.0,22.2,1005.8,BKN,,,,,,BROHOVO,RS,259270-99999,2019,15,1.0
997382,99999,2019-10-07,60.68,-151.4,8.0,50.0,3.6,15.6,1011.6,,,,,,,NIKISKI AK,US,997382-99999,2019,15,1.0
408510,99999,2019-10-07,29.467,55.717,1739.0,,,21.0,992.4,,,,6.0,0.0,,SIRJAN,IR,408510-99999,2019,15,1.0
296020,99999,2019-10-07,55.3,76.75,111.0,40.0,1.0,16.3,1015.4,,,,12.0,0.0,,CHANY,RS,296020-99999,2019,15,1.0
483510,99999,2019-10-07,17.617,100.1,64.0,0.0,0.0,27.2,1004.3,BKN,,,,,,UTTARADIT,TH,483510-99999,2019,15,1.0
998005,99999,2019-10-07,33.35,-79.191,9999.0,,,,,,,,1.0,0.0,,NORTH INLET-WINYAH BAY,US,998005-99999,2019,15,1.0
388460,99999,2019-10-07,38.367,69.983,1468.0,30.0,3.0,20.2,,,,,,,,HOVALING,TI,388460-99999,2019,15,1.0
209670,99999,2019-10-07,70.167,72.517,18.0,170.0,3.0,12.5,1007.1,BKN,,,,,,SEYAHA,RS,209670-99999,2019,15,1.0
167420,99999,2019-10-07,36.783,27.067,129.0,360.0,3.1,22.0,1005.6,FEW,,,6.0,0.0,,KOS,GR,167420-99999,2019,15,1.0
247680,99999,2019-10-07,62.033,132.6,186.0,220.0,1.0,25.6,1006.0,BKN,,,12.0,0.0,,CURAPCA,RS,247680-99999,2019,15,1.0
296530,99999,2019-10-07,55.3,89.817,387.0,330.0,1.0,10.8,1009.6,BKN,,,12.0,0.0,,UZUR,RS,296530-99999,2019,15,1.0
443050,99999,2019-10-07,46.683,113.283,981.0,110.0,2.0,22.2,1003.5,BKN,,,,,,BARUUN-URT,MG,443050-99999,2019,15,1.0
294560,99999,2019-10-07,56.535,88.567,205.0,360.0,2.0,13.5,1010.5,BKN,,,12.0,9999.0,,TJUHTET,RS,294560-99999,2019,15,1.0
342470,99999,2019-10-07,50.417,41.05,92.0,,,9.7,1009.5,FEW,,,,,,KALAC,RS,342470-99999,2019,15,1.0
911900,22516,2019-10-07,20.9,-156.433,20.0,40.0,11.3,31.7,1015.1,FEW,,,,,,KAHULUI AIRPORT,US,911900-22516,2019,15,1.0
994029,99999,2019-10-07,46.708,-123.965,5.0,300.0,4.6,20.6,1018.9,,,,,,,TOKE POINT,US,994029-99999,2019,15,1.0
144440,99999,2019-10-07,43.539,16.301,19.0,60.0,3.0,22.2,1009.8,FEW,,,6.0,9999.0,,SPLIT,HR,144440-99999,2019,15,1.0
442130,99999,2019-10-07,49.65,94.4,1232.0,350.0,2.0,13.8,1004.1,OVC,63.0,6.0,12.0,230.0,,BARUUNTURUUN,MG,442130-99999,2019,15,1.0
994025,99999,2019-10-07,48.112,-122.758,5.0,280.0,4.6,20.6,1019.3,,,,,,,PORT TOWNSEND,US,994025-99999,2019,15,1.0
248170,99999,2019-10-07,61.267,108.017,291.0,70.0,3.0,21.8,1009.6,OVC,,,12.0,0.0,,ERBOGACEN,RS,248170-99999,2019,15,1.0
136190,99999,2019-10-07,41.683,20.433,653.0,0.0,0.0,17.0,,BKN,,,6.0,0.0,,PESHKOPI,AL,136190-99999,2019,15,1.0
713690,99999,2019-10-07,55.3,-114.783,583.0,300.0,4.6,22.2,1009.6,,,,24.0,2.0,,SLAVE LAKE,CA,713690-99999,2019,15,1.0
338210,99999,2019-10-07,47.283,29.133,40.0,,,15.2,1008.5,FEW,10.0,1.0,,,,DUBASARI,MD,338210-99999,2019,15,1.0
254000,99999,2019-10-07,65.733,150.9,43.0,300.0,7.0,14.6,1008.4,OVC,20.0,9.0,,,,ZYRYANKA,RS,254000-99999,2019,15,1.0
711670,99999,2019-10-07,53.567,-116.45,926.0,320.0,3.6,20.7,1012.4,,,,24.0,5.0,,EDSON,CA,711670-99999,2019,15,1.0
371070,99999,2019-10-07,43.683,40.2,569.0,10.0,1.0,13.6,1005.7,,,,,,,KRASNAYA POLYANA,RS,371070-99999,2019,15,1.0
038080,99999,2019-10-07,50.218,-5.327,87.0,70.0,1.0,14.2,1022.9,FEW,,,6.0,9999.0,,CAMBORNE,UK,038080-99999,2019,15,1.0
360610,99999,2019-10-07,52.25,87.117,326.0,,,12.8,1008.4,FEW,46.0,4.0,12.0,0.0,,TUROCAK,RS,360610-99999,2019,15,1.0
296640,99999,2019-10-07,55.083,90.85,325.0,260.0,2.0,14.6,1008.1,BKN,,,12.0,30.0,,SVETLOLYUBOVO,RS,296640-99999,2019,15,1.0
245250,99999,2019-10-07,64.6,112.517,251.0,,,18.3,1015.4,BKN,,,12.0,0.0,,HABARDINO,RS,245250-99999,2019,15,1.0
443170,99999,2019-10-07,45.9,115.367,1076.0,200.0,2.0,24.0,1004.0,SCT,,,,,,ERDENETSAGAAN,MG,443170-99999,2019,15,1.0
998236,99999,2019-10-07,27.633,-97.233,11.0,140.0,6.2,29.8,1010.7,,,,,,,PACKERY CHANNEL,US,998236-99999,2019,15,1.0
716780,99999,2019-10-07,53.433,-91.767,278.0,40.0,2.6,27.7,1010.0,SCT,,,24.0,0.0,,MUSKRAT DAM,CA,716780-99999,2019,15,1.0
997360,99999,2019-10-07,29.77,-90.42,10.0,0.0,0.0,27.2,1015.4,,,,,,,BAYOU GAUCHE,US,997360-99999,2019,15,1.0
325090,99999,2019-10-07,54.117,159.983,27.0,190.0,4.0,20.4,1007.9,FEW,2.0,4.0,,,,SEMYACHIK,RS,325090-99999,2019,15,1.0
415205,99999,2019-10-07,35.85,71.833,1500.0,0.0,0.0,21.0,,,,,12.0,0.0,,CHITRAL,PK,415205-99999,2019,15,1.0
994016,99999,2019-10-07,37.807,-122.465,2.0,240.0,6.7,14.1,1016.5,,,,,,,SAN FRANCISCO,US,994016-99999,2019,15,1.0
994012,99999,2019-10-07,41.745,-124.183,5.0,310.0,3.6,16.9,1019.9,,,,,,,CRESCENT CITY,US,994012-99999,2019,15,1.0
314160,99999,2019-10-07,52.417,136.5,73.0,160.0,1.0,21.4,1010.6,OVC,,,,,,IM POLINY OSIPENKO,RS,314160-99999,2019,15,1.0
257150,99999,2019-10-07,62.517,155.8,500.0,360.0,2.0,24.0,1002.2,BKN,,,,,,OMSUKCHAN,RS,257150-99999,2019,15,1.0
645700,99999,2019-10-07,-1.667,13.4,444.0,220.0,1.0,20.6,1011.4,BKN,,,,,,FRANCEVILLE MVENGUE,GB,645700-99999,2019,15,1.0
310620,99999,2019-10-07,59.767,137.667,384.0,160.0,1.0,21.3,1007.6,,4.0,0.0,,,,YUGORENOK,RS,310620-99999,2019,15,1.0
714735,99999,2019-10-07,48.42,-123.33,5.0,180.0,4.6,16.0,1018.2,,,,,,,VICTORIA HARBOUR,CA,714735-99999,2019,15,1.0
295630,99999,2019-10-07,56.117,92.2,479.0,,,10.8,1008.7,SCT,,,12.0,0.0,,KACA,RS,295630-99999,2019,15,1.0
269760,99999,2019-10-07,53.017,31.6,148.0,,,12.9,1010.3,OVC,10.0,8.0,,,,KRASNAJA GORA,RS,269760-99999,2019,15,1.0
144440,99999,2019-10-07,43.539,16.298,24.0,40.0,3.6,21.0,,,,,,,,SPLIT,HR,144440-99999,2019,15,1.0
998000,99999,2019-10-07,29.671,-81.224,9999.0,,,,,,,,1.0,0.0,,GUANA TOLOMATO MATANZAS,US,998000-99999,2019,15,1.0
723940,23273,2019-10-07,34.9,-120.45,73.0,300.0,4.6,19.4,1015.5,,,,,,,SANTA MARIA PUB/CAPT G A HANCOCK AP,US,723940-23273,2019,15,1.0
066260,99999,2019-10-07,47.367,7.983,380.0,110.0,0.5,14.4,1015.4,,,,6.0,100.0,,GOESGEN,SZ,066260-99999,2019,15,1.0
650020,99999,2019-10-07,6.467,7.55,137.0,270.0,1.5,22.5,1011.5,BKN,10.0,2.0,6.0,150.0,,ENUGU,NI,650020-99999,2019,15,1.0
682670,99999,2019-10-07,-26.5,29.983,1766.0,360.0,3.1,7.0,,,,,,,,ERMELO,SF,682670-99999,2019,15,1.0
766400,99999,2019-10-07,20.95,-97.4,28.0,140.0,2.0,32.6,1012.6,FEW,2.0,0.0,,,,TUXPAN.VER.,MX,766400-99999,2019,15,1.0
229510,99999,2019-10-07,60.983,40.25,227.0,,,9.5,1011.1,OVC,,,,,,KONOSHA,RS,229510-99999,2019,15,1.0
134811,99999,2019-10-07,42.57,21.03,559.0,,1.5,12.0,,,,,,,,PRISTINA,KV,134811-99999,2019,15,1.0
432200,99999,2019-10-07,15.9,80.467,6.0,340.0,1.0,25.6,1003.7,OVC,95.0,9.0,21.0,10.0,,BAPATLA,IN,432200-99999,2019,15,1.0
216360,99999,2019-10-07,73.336,139.867,25.0,260.0,6.0,1.8,1008.1,OVC,10.0,2.0,12.0,0.0,,KIGILYAH,RS,216360-99999,2019,15,1.0
488080,99999,2019-10-07,22.667,106.25,243.0,,,25.0,1002.1,OVC,61.0,6.0,12.0,10.0,,CAO BANG,VM,488080-99999,2019,15,1.0
484640,99999,2019-10-07,13.486,99.791,9.0,180.0,1.0,27.0,1007.2,BKN,,,6.0,9999.0,,RATCHA BURI,TH,484640-99999,2019,15,1.0
998000,99999,2019-10-07,29.65,-81.217,4.0,130.0,2.1,29.2,1021.0,,,,,,,GUANA TOLOMATO MATANZAS,US,998000-99999,2019,15,1.0
235270,99999,2019-10-07,64.283,60.883,29.0,60.0,1.0,15.9,1005.2,OVC,2.0,9.0,,,,SARAN-PAUL',RS,235270-99999,2019,15,1.0
318780,99999,2019-10-07,45.1,133.5,98.0,170.0,2.0,21.0,1010.1,BKN,,,,,,KIROVSKIJ,RS,318780-99999,2019,15,1.0
077750,99999,2019-10-07,42.267,9.533,74.0,230.0,4.1,21.4,1006.3,OVC,29.0,9.0,6.0,20.0,,ALISTRO,FR,077750-99999,2019,15,1.0
131740,99999,2019-10-07,45.85,20.47,81.0,340.0,2.0,15.5,1011.0,FEW,,,6.0,9999.0,,KIKINDA,RI,131740-99999,2019,15,1.0
818320,99999,2019-10-07,-5.137,-38.357,45.0,33.0,1.7,26.0,1017.3,,,,99.0,9999.0,,MORADA NOVA,BR,818320-99999,2019,15,1.0
218210,99999,2019-10-07,72.003,129.117,17.0,300.0,8.0,8.5,1012.3,BKN,,,12.0,9999.0,,BYKOV (MYS),RS,218210-99999,2019,15,1.0
338150,99999,2019-10-07,47.017,28.983,173.0,140.0,1.0,14.8,1008.1,BKN,,,,,,CHISINAU,MD,338150-99999,2019,15,1.0
998427,99999,2019-10-07,57.73,-152.514,7.0,40.0,3.1,12.6,1006.2,,,,,,,KODIAK ISLAND,US,998427-99999,2019,15,1.0
238840,99999,2019-10-07,61.6,90.017,58.0,,,13.4,1014.0,OVC,,,12.0,0.0,,BOR,RS,238840-99999,2019,15,1.0
719040,99999,2019-10-07,51.933,-113.583,940.0,,,22.2,,,,,,,,WIMBORBE AGCM,CA,719040-99999,2019,15,1.0
718920,99999,2019-10-07,49.194,-123.184,4.0,210.0,4.6,23.0,1018.1,,,,,,,VANCOUVER INTL,CA,718920-99999,2019,15,1.0
994410,99999,2019-10-07,29.86,-81.26,0.0,180.0,4.1,27.1,1019.4,,,,,,,ST. AUGUSTINE  FL,US,994410-99999,2019,15,1.0
433600,99999,2019-10-07,9.835,78.093,140.0,250.0,1.0,26.0,,,10.0,,,,,MADURAI,IN,433600-99999,2019,15,1.0
023170,99999,2019-10-07,62.1,13.617,566.0,290.0,4.0,7.2,,OVC,,,1.0,0.0,,DRAVAGEN,SW,023170-99999,2019,15,1.0
716880,99999,2019-10-07,50.15,-123.117,884.0,190.0,1.0,16.0,1018.7,,,,,,,CALLAGHAN VALLEY,CA,716880-99999,2019,15,1.0
719040,99999,2019-10-07,51.933,-113.583,940.0,0.0,0.0,22.2,,,,,24.0,47.0,,WIMBORBE AGCM,CA,719040-99999,2019,15,1.0
297660,99999,2019-10-07,54.367,92.133,282.0,110.0,1.0,13.5,1007.6,BKN,4.0,1.0,12.0,0.0,,IDRINSKOE,RS,297660-99999,2019,15,1.0
296120,99999,2019-10-07,55.333,78.308,120.0,20.0,1.0,15.2,1015.1,,,,12.0,0.0,,BARABINSK,RS,296120-99999,2019,15,1.0
703260,25503,2019-10-07,58.683,-156.65,16.0,90.0,8.2,19.4,1004.6,BKN,,,6.0,0.0,,KING SALMON AIRPORT,US,703260-25503,2019,15,1.0
718920,99999,2019-10-07,49.183,-123.167,4.0,220.0,4.6,22.8,1018.2,OVC,,,24.0,4.0,,VANCOUVER INTL,CA,718920-99999,2019,15,1.0
723445,93993,2019-10-07,36.01,-94.169,9999.0,,,,,,,,,,0.0,DRAKE FIELD AIRPORT,US,723445-93993,2019,15,1.0
299740,99999,2019-10-07,52.8,93.233,1399.0,,,11.4,,OVC,,,12.0,6.0,,OLEN' YA RECHKA,RS,299740-99999,2019,15,1.0
716880,99999,2019-10-07,50.15,-123.117,884.0,190.0,1.0,16.0,1018.7,,,,24.0,3.0,,CALLAGHAN VALLEY,CA,716880-99999,2019,15,1.0
433600,99999,2019-10-07,9.833,78.083,131.0,250.0,1.0,25.6,1006.7,SCT,10.0,2.0,21.0,10.0,,MADURAI,IN,433600-99999,2019,15,1.0
998209,99999,2019-10-07,36.183,-75.75,7.0,180.0,5.1,30.1,1015.4,,,,,,,DUCK PIER,US,998209-99999,2019,15,1.0
994032,99999,2019-10-07,43.345,-124.322,2.0,300.0,2.1,,1019.2,,,,,,,CHARLESTON,US,994032-99999,2019,15,1.0
306220,99999,2019-10-07,53.967,105.9,533.0,200.0,1.0,16.0,1002.2,OVC,,,12.0,0.0,,KACUG,RS,306220-99999,2019,15,1.0
282250,99999,2019-10-07,57.915,56.021,123.0,40.0,3.0,15.0,,,,,,,,BOLSHOYE SAVINO,RS,282250-99999,2019,15,1.0
442420,99999,2019-10-07,49.45,107.2,762.0,,,24.3,999.7,SCT,4.0,4.0,,,,HADATYN,MG,442420-99999,2019,15,1.0
477500,99999,2019-10-07,35.45,135.317,4.0,20.0,5.1,24.6,1007.0,,,,12.0,10.0,,MAIZURU,JA,477500-99999,2019,15,1.0
442940,99999,2019-10-07,47.3,107.483,1430.0,110.0,5.0,22.6,1000.1,SCT,,,,,,MAANTI,MG,442940-99999,2019,15,1.0
997687,99999,2019-10-07,40.08,-74.88,9.0,300.0,2.1,29.7,1014.1,,,,,,,BURLINGTON DEL RIVER,US,997687-99999,2019,15,1.0
315210,99999,2019-10-07,50.783,129.333,227.0,150.0,2.0,21.1,1008.1,OVC,2.0,8.0,12.0,0.0,,BRATOLJUBOVKA,RS,315210-99999,2019,15,1.0
316830,99999,2019-10-07,49.65,140.083,58.0,200.0,2.0,19.2,1014.6,BKN,,,,,,TUMNIN,RS,316830-99999,2019,15,1.0
306830,99999,2019-10-07,53.967,121.933,522.0,330.0,4.0,14.2,1005.8,OVC,95.0,9.0,12.0,150.0,,EROFEJ PAVLOVIC,RS,306830-99999,2019,15,1.0
224560,99999,2019-10-07,65.383,41.883,69.0,,,9.6,1010.9,OBS,45.0,4.0,,,,KEPINO,RS,224560-99999,2019,15,1.0
727830,24149,2019-10-07,46.367,-117.017,438.0,320.0,3.6,31.1,1013.3,,,,,,,LEWISTON-NEZ PERCE COUNTY AIRPORT,US,727830-24149,2019,15,1.0
416000,99999,2019-10-07,32.5,74.533,256.0,0.0,0.0,24.0,996.8,BKN,,,12.0,0.0,,SIALKOT,PK,416000-99999,2019,15,1.0
998442,99999,2019-10-07,44.657,-67.21,10.0,310.0,2.1,19.2,1008.4,,,,,,,CUTLER FARRIS WHARF,US,998442-99999,2019,15,1.0
309350,99999,2019-10-07,50.367,108.75,771.0,50.0,2.0,17.3,1001.4,OVC,,,12.0,0.0,,KRASNYJ CHIKOJ,RS,309350-99999,2019,15,1.0
116240,99999,2019-10-07,49.941,15.386,238.0,150.0,1.0,12.5,1016.4,FEW,1.0,9.0,6.0,9999.0,,CASLAV,EZ,116240-99999,2019,15,1.0
442190,99999,2019-10-07,48.517,94.3,1263.0,,,15.1,1003.7,BKN,,,12.0,2.0,,URGAMAL,MG,442190-99999,2019,15,1.0
116240,99999,2019-10-07,49.94,15.382,242.0,,0.5,12.0,,,,,,,,CASLAV,EZ,116240-99999,2019,15,1.0
022840,99999,2019-10-07,63.433,19.683,7.0,200.0,5.0,13.2,1011.1,BKN,,,1.0,0.0,,JARNASKLUBB,SW,022840-99999,2019,15,1.0
261570,99999,2019-10-07,58.733,27.833,40.0,50.0,1.0,8.1,1012.0,BKN,,,,,,GDOV,RS,261570-99999,2019,15,1.0
477390,99999,2019-10-07,34.796,138.189,132.0,50.0,3.1,22.0,,,61.0,,,,,SHIZUOKA AIRPORT,JA,477390-99999,2019,15,1.0
714130,99999,2019-10-07,51.817,-111.683,804.0,0.0,0.0,15.2,,,,,24.0,11.0,,SPONDIN AGCM,CA,714130-99999,2019,15,1.0
152790,99999,2019-10-07,45.604,24.615,2070.0,330.0,1.0,5.2,,,45.0,4.0,3.0,9999.0,,BALEA LAC,RO,152790-99999,2019,15,1.0
224460,99999,2019-10-07,65.467,39.733,77.0,80.0,6.0,8.7,1010.0,FEW,,,,,,ZIMNEGORSKIJ MAJAK,RS,224460-99999,2019,15,1.0
433770,99999,2019-10-07,8.083,77.5,37.0,290.0,5.1,26.8,1008.3,SCT,,,,,,KANNIYAKUMARI,IN,433770-99999,2019,15,1.0
294770,99999,2019-10-07,56.5,93.283,164.0,310.0,1.0,14.0,1007.4,BKN,,,12.0,0.0,,SUHOBUZIMSKOE,RS,294770-99999,2019,15,1.0
319870,99999,2019-10-07,43.15,133.017,208.0,170.0,1.0,18.3,1010.3,OVC,1.0,6.0,,,,PARTIZANSK,RS,319870-99999,2019,15,1.0
246610,99999,2019-10-07,64.0,130.3,208.0,20.0,3.0,23.7,1005.3,FEW,,,12.0,0.0,,SEGEN-KYUEL',RS,246610-99999,2019,15,1.0
433630,99999,2019-10-07,9.283,79.217,11.0,200.0,2.1,29.2,1007.2,SCT,,,,,,PAMBAN,IN,433630-99999,2019,15,1.0
311740,99999,2019-10-07,54.833,137.533,21.0,230.0,3.0,11.1,1012.0,BKN,2.0,4.0,,,,BOL'SHOJ SHANTAR,RS,311740-99999,2019,15,1.0
342380,99999,2019-10-07,51.483,40.417,154.0,,,11.5,1010.2,,,,,,,ANNA,RS,342380-99999,2019,15,1.0
247250,99999,2019-10-07,62.533,111.233,260.0,70.0,2.0,18.1,1012.8,OVC,61.0,6.0,12.0,4.0,,TUOJ-HAYA,RS,247250-99999,2019,15,1.0
264050,99999,2019-10-07,57.4,21.533,3.0,,,15.5,1013.4,BKN,,,,,,VENTSPILS,LG,264050-99999,2019,15,1.0
407940,99999,2019-10-07,32.267,48.417,83.0,,,24.4,996.5,,,,6.0,0.0,,SAFI-ABAD DEZFUL,IR,407940-99999,2019,15,1.0
339980,99999,2019-10-07,44.433,34.083,1180.0,40.0,3.0,11.8,,BKN,,,,,,AI-PETRI,UP,339980-99999,2019,15,1.0
942100,99999,2019-10-07,-15.511,123.156,5.0,80.0,9.8,24.2,1018.1,,,,,,,ADELE ISLAND,AS,942100-99999,2019,15,1.0
307770,99999,2019-10-07,52.233,117.7,525.0,250.0,2.0,15.8,1006.1,SCT,,,12.0,0.0,,SRETENSK,RS,307770-99999,2019,15,1.0
303230,99999,2019-10-07,56.8,105.8,326.0,10.0,1.0,17.2,1003.7,OVC,,,12.0,0.0,,UST' KUT,RS,303230-99999,2019,15,1.0
294810,99999,2019-10-07,56.85,95.217,188.0,,,12.1,1006.3,OVC,4.0,1.0,12.0,0.0,,DZERZHINSKOE,RS,294810-99999,2019,15,1.0
997173,99999,2019-10-07,20.037,-155.829,1.0,250.0,3.6,28.0,1013.9,,,,,,,KAWAIHAE,US,997173-99999,2019,15,1.0
442840,99999,2019-10-07,46.7,100.133,2126.0,,,11.0,1007.4,SCT,,,12.0,50.0,,GALUUT,MG,442840-99999,2019,15,1.0
364280,99999,2019-10-07,49.2,84.517,401.0,,,18.0,1001.3,,,,,,,ULKEN NARYN,KZ,364280-99999,2019,15,1.0
726400,14839,2019-10-07,42.95,-87.9,211.0,130.0,4.6,24.4,1017.9,SCT,,,,,,GENERAL MITCHELL INTERNATIONAL AP,US,726400-14839,2019,15,1.0
427790,99999,2019-10-07,22.767,81.9,625.0,0.0,0.0,26.0,1000.6,SCT,,,,,,PENDRA ROAD,IN,427790-99999,2019,15,1.0
546620,99999,2019-10-07,38.9,121.633,97.0,70.0,1.0,25.7,1005.7,FEW,10.0,,24.0,11.0,,ZHOUSHUIZI,CH,546620-99999,2019,15,1.0
297240,99999,2019-10-07,54.333,80.467,160.0,20.0,1.0,16.2,1013.0,,,,12.0,0.0,,KOCHKI,RS,297240-99999,2019,15,1.0
247580,99999,2019-10-07,62.267,127.067,231.0,290.0,2.0,20.9,1008.8,SCT,,,12.0,0.0,,BERDIGESTYAH,RS,247580-99999,2019,15,1.0
714130,99999,2019-10-07,51.8,-111.683,804.0,,,15.2,,,,,1.0,7.0,,SPONDIN AGCM,CA,714130-99999,2019,15,1.0
162800,99999,2019-10-07,40.917,12.95,185.0,80.0,5.1,24.8,1007.9,BKN,,,6.0,0.0,,PONZA ISLAND,IT,162800-99999,2019,15,1.0
246430,99999,2019-10-07,63.95,124.833,77.0,320.0,2.0,19.1,1010.3,FEW,,,12.0,0.0,,HATYAYK-HOMO,RS,246430-99999,2019,15,1.0
443020,99999,2019-10-07,47.783,112.117,926.0,50.0,2.0,20.1,1003.6,BKN,25.0,8.0,12.0,10.0,,BAYAN-OVOO,MG,443020-99999,2019,15,1.0
443730,99999,2019-10-07,43.583,104.417,1465.0,70.0,2.0,21.4,1000.6,SCT,,,,,,DALANZADGAD,MG,443730-99999,2019,15,1.0
246440,99999,2019-10-07,63.45,120.317,115.0,30.0,3.0,19.4,1013.8,BKN,,,12.0,0.0,,VERHNEVILJUJSK,RS,246440-99999,2019,15,1.0
483250,99999,2019-10-07,18.172,97.933,212.0,0.0,0.0,24.7,1005.6,SCT,10.0,6.0,24.0,110.0,,MAE SARIANG,TH,483250-99999,2019,15,1.0
489200,99999,2019-10-07,8.65,111.917,3.0,230.0,8.0,27.7,1006.5,BKN,80.0,8.0,12.0,20.0,,TRUONG SA,VM,489200-99999,2019,15,1.0
489070,99999,2019-10-07,10.0,105.083,3.0,270.0,4.0,29.7,1007.8,BKN,,,,,,RACH GIA,VM,489070-99999,2019,15,1.0
998194,99999,2019-10-07,30.017,-90.117,4.0,180.0,3.6,27.1,1014.7,,,,,,,NEW CANAL,US,998194-99999,2019,15,1.0
713390,99999,2019-10-07,52.3,-55.833,12.0,180.0,3.1,15.8,1009.6,BKN,,,24.0,0.0,,MARYS HARBOUR,CA,713390-99999,2019,15,1.0
314420,99999,2019-10-07,51.983,127.65,281.0,260.0,4.0,20.0,1006.5,OVC,,,12.0,0.0,,SIMANOVSK,RS,314420-99999,2019,15,1.0
278480,99999,2019-10-07,53.45,41.8,142.0,,,9.8,1010.4,,10.0,0.0,,,,MORSANSK,RS,278480-99999,2019,15,1.0
431870,99999,2019-10-07,16.433,81.7,4.0,0.0,0.0,24.8,1004.4,OVC,92.0,9.0,21.0,160.0,,NARSAPUR,IN,431870-99999,2019,15,1.0
689260,99999,2019-10-07,-34.083,21.25,116.0,0.0,0.0,8.8,1022.8,,,,18.0,2.0,,RIVERSDALE,SF,689260-99999,2019,15,1.0
244490,99999,2019-10-07,65.3,127.117,73.0,340.0,4.0,19.2,1011.9,FEW,4.0,0.0,12.0,0.0,,BESTYAHSKAYA ZVEROFERMA,RS,244490-99999,2019,15,1.0
994033,99999,2019-10-07,37.772,-122.298,2.0,250.0,5.7,16.2,1016.9,,,,,,,ALAMEDA,US,994033-99999,2019,15,1.0
337490,99999,2019-10-07,47.367,28.433,78.0,,,14.6,1008.8,BKN,,,,,,BRAVICEA,MD,337490-99999,2019,15,1.0
064760,99999,2019-10-07,50.039,5.404,557.0,20.0,3.0,11.7,1020.0,OVC,,6.0,,,,SAINT HUBERT MIL,BE,064760-99999,2019,15,1.0
132950,99999,2019-10-07,44.233,22.55,44.0,270.0,3.0,18.7,1008.2,,,,6.0,0.0,,NEGOTIN,RI,132950-99999,2019,15,1.0
610990,99999,2019-10-07,11.883,3.45,203.0,0.0,0.0,28.0,1009.5,BKN,,,,,,GAYA,NG,610990-99999,2019,15,1.0
084820,99999,2019-10-07,36.675,-4.499,16.0,280.0,4.6,29.0,,,,,,,,MALAGA,SP,084820-99999,2019,15,1.0
552990,99999,2019-10-07,31.483,92.067,4508.0,70.0,1.0,4.3,,OVC,,,24.0,237.0,,NAGQU,CH,552990-99999,2019,15,1.0
066690,99999,2019-10-07,47.483,8.4,843.0,0.0,0.0,10.9,,,,,,,,LAEGEREN,SZ,066690-99999,2019,15,1.0
823360,99999,2019-10-07,-3.133,-58.433,40.0,0.0,0.0,29.2,,SCT,,,,,,ITACOATIARA,BR,823360-99999,2019,15,1.0
024310,99999,2019-10-07,59.87,15.252,283.0,0.0,0.0,10.9,1012.9,BKN,,,1.0,9999.0,,KLOTEN,SW,024310-99999,2019,15,1.0
564920,99999,2019-10-07,28.8,104.6,342.0,320.0,2.0,22.7,1001.2,OVC,60.0,,24.0,33.0,,YIBIN,CH,564920-99999,2019,15,1.0
027240,99999,2019-10-07,60.117,20.3,11.0,110.0,3.0,13.7,1011.8,,,,,,,LUMPARLAND LANGNAS HARBOUR,FI,027240-99999,2019,15,1.0
474340,99999,2019-10-07,42.794,141.666,27.0,,1.5,20.0,,,,,,,,CHITOSE,JA,474340-99999,2019,15,1.0
549090,99999,2019-10-07,35.083,115.517,51.0,220.0,3.0,27.5,1005.2,BKN,10.0,,,,,DINGTAO,CH,549090-99999,2019,15,1.0
561520,99999,2019-10-07,32.283,100.333,3896.0,110.0,3.0,8.6,,OVC,21.0,,24.0,138.0,,SERTAR,CH,561520-99999,2019,15,1.0
702320,26516,2019-10-07,61.583,-159.533,26.0,140.0,4.1,20.6,1008.3,BKN,,,,,,ANIAK AIRPORT,US,702320-26516,2019,15,1.0
470700,99999,2019-10-07,37.97,126.57,70.0,0.0,0.0,23.0,1007.7,OVC,,,24.0,9999.0,,KAESONG,KN,470700-99999,2019,15,1.0
248940,99999,2019-10-07,61.85,147.667,839.0,240.0,2.0,22.8,1003.1,,,,,,,KOLYMSKAYA,RS,248940-99999,2019,15,1.0
637140,99999,2019-10-07,-0.26,36.1,1901.0,0.0,0.0,13.0,,FEW,,,1.0,9999.0,,NAKURU,KE,637140-99999,2019,15,1.0
289000,99999,2019-10-07,53.505,50.164,145.0,360.0,4.0,17.0,,,,,,,,KURUMOCH,RS,289000-99999,2019,15,1.0
683750,99999,2019-10-07,-27.433,29.167,1671.0,60.0,38.6,0.6,,,,,,,,VREDE,SF,683750-99999,2019,15,1.0
509490,99999,2019-10-07,45.083,124.867,136.0,40.0,2.0,25.1,1005.5,,,,,,,QIAN GORLOS,CH,509490-99999,2019,15,1.0
766470,99999,2019-10-07,20.683,-88.2,27.0,140.0,2.0,33.0,,FEW,,,24.0,0.0,,VALLADOLID  YUC.,MX,766470-99999,2019,15,1.0
531490,99999,2019-10-07,42.533,110.133,1223.0,270.0,3.0,23.5,1000.7,BKN,,,,,,MANDAL,CH,531490-99999,2019,15,1.0
010280,99999,2019-10-07,74.517,19.005,16.0,5.0,1.9,1.7,1016.6,OVC,51.0,5.0,6.0,9999.0,,BJORNOYA ISLAND,NO,010280-99999,2019,15,1.0
577070,99999,2019-10-07,27.3,105.233,1511.0,,,19.4,,OVC,10.0,,,,,BIJIE,CH,577070-99999,2019,15,1.0
682720,99999,2019-10-07,-25.183,29.333,949.0,210.0,2.6,8.4,,,,,,,,OUDESTAD,SF,682720-99999,2019,15,1.0
470250,99999,2019-10-07,40.67,129.2,23.0,0.0,0.0,19.1,1008.3,OVC,60.0,6.0,12.0,7.0,,KIMCHAEK/SONGJIN,KN,470250-99999,2019,15,1.0
722950,23174,2019-10-07,33.933,-118.4,32.0,250.0,5.7,20.0,1013.5,OVC,,,,,,LOS ANGELES INTERNATIONAL AIRPORT,US,722950-23174,2019,15,1.0
116520,99999,2019-10-07,50.013,15.739,226.0,,0.5,14.0,,,,,,,,PARDUBICE,EZ,116520-99999,2019,15,1.0
571310,99999,2019-10-07,34.433,108.967,411.0,70.0,3.0,26.7,1001.4,BKN,,,,,,JINGHE,CH,571310-99999,2019,15,1.0
166820,99999,2019-10-07,37.917,21.283,17.0,0.0,0.0,18.8,1008.0,,,,6.0,0.0,,ANDRAVIDA,GR,166820-99999,2019,15,1.0
724030,93738,2019-10-07,38.983,-77.483,89.0,330.0,4.1,31.7,1015.3,SCT,,,,,,WASHINGTON DULLES INTERNATIONAL AP,US,724030-93738,2019,15,1.0
470030,99999,2019-10-07,42.32,130.4,3.0,0.0,0.0,19.0,1009.2,OVC,51.0,5.0,12.0,1.0,,SENBONG,KN,470030-99999,2019,15,1.0
725520,14935,2019-10-07,40.967,-98.317,566.0,180.0,5.7,31.1,1013.7,,,,,,,CENTRAL NEBRASKA REGIONAL AIRPORT,US,725520-14935,2019,15,1.0
025010,99999,2019-10-07,58.583,11.067,24.0,180.0,5.0,16.4,1012.6,,,,,,,VADEROARNA,SW,025010-99999,2019,15,1.0
425160,99999,2019-10-07,25.567,91.883,1598.0,0.0,0.0,18.2,,OVC,60.0,6.0,21.0,160.0,,SHILLONG,IN,425160-99999,2019,15,1.0
423280,99999,2019-10-07,26.9,70.917,231.0,230.0,7.7,28.6,992.5,BKN,7.0,0.0,,,,JAISALMER,IN,423280-99999,2019,15,1.0
714190,99999,2019-10-07,45.35,-60.98,8.0,180.0,9.3,14.8,1007.3,,,,,,,HART ISLAND (AUT)  NS,CA,714190-99999,2019,15,1.0
714190,99999,2019-10-07,45.35,-60.983,8.0,180.0,9.3,14.8,1007.3,,,,24.0,9999.0,,HART ISLAND (AUT)  NS,CA,714190-99999,2019,15,1.0
433210,99999,2019-10-07,11.031,77.044,404.0,200.0,2.6,24.0,,,10.0,,,,,COIMBATORE,IN,433210-99999,2019,15,1.0
167100,99999,2019-10-07,37.517,22.4,644.0,220.0,0.5,15.5,1009.8,,,,,,,TRIPOLIS,GR,167100-99999,2019,15,1.0
235890,99999,2019-10-07,64.2,93.783,105.0,250.0,1.0,14.8,1015.0,BKN,,,12.0,0.0,,TUTONCHANY,RS,235890-99999,2019,15,1.0
723100,13883,2019-10-07,33.942,-81.118,9999.0,,,,,,,,,,0.0,COLUMBIA METROPOLITAN AIRPORT,US,723100-13883,2019,15,1.0
433210,99999,2019-10-07,11.033,77.05,389.0,200.0,2.6,23.8,1008.2,SCT,10.0,1.0,,,,COIMBATORE,IN,433210-99999,2019,15,1.0
428090,99999,2019-10-07,22.655,88.447,5.0,210.0,4.6,31.0,,,5.0,,,,,NETAJI SUBHASH CHANDRA BOSE INTL,IN,428090-99999,2019,15,1.0
575980,99999,2019-10-07,29.033,114.583,147.0,,,23.7,1004.8,BKN,60.0,,24.0,8.0,,XIUSHUI,CH,575980-99999,2019,15,1.0
116520,99999,2019-10-07,50.017,15.733,230.0,270.0,1.0,14.4,1015.8,BKN,1.0,9.0,6.0,1.0,,PARDUBICE,EZ,116520-99999,2019,15,1.0
504680,99999,2019-10-07,50.25,127.45,166.0,110.0,2.0,23.5,1007.2,BKN,,,24.0,41.0,,AIHUI,CH,504680-99999,2019,15,1.0
998227,99999,2019-10-07,13.444,144.657,3.0,160.0,1.0,26.9,1008.4,,,,,,,APRA HARBOR GUAM,GQ,998227-99999,2019,15,1.0
543420,99999,2019-10-07,41.733,123.517,43.0,,,23.3,1005.5,BKN,,,24.0,138.0,,SHENYANG,CH,543420-99999,2019,15,1.0
723100,13883,2019-10-07,33.95,-81.117,69.0,300.0,3.1,28.9,1017.8,BKN,,,,,,COLUMBIA METROPOLITAN AIRPORT,US,723100-13883,2019,15,1.0
330004,99999,2019-10-07,48.357,35.101,147.0,0.0,0.0,16.0,,,,,,,,DNIPROPETROVSK INTL,UP,330004-99999,2019,15,1.0
150940,99999,2019-10-07,47.017,27.583,400.0,360.0,1.0,14.1,1010.5,,,,6.0,0.0,,BARNOVA,RO,150940-99999,2019,15,1.0
713160,99999,2019-10-07,54.767,-112.017,567.0,340.0,1.5,17.6,1009.1,,,,24.0,110.0,,LACLABICHE CLIMATE  ALTA,CA,713160-99999,2019,15,1.0
717670,99999,2019-10-07,45.23,-81.63,214.0,210.0,2.1,17.9,1019.4,,,,,,,TOBERMORY RCS,CA,717670-99999,2019,15,1.0
717670,99999,2019-10-07,45.233,-81.633,214.0,210.0,2.1,17.9,1019.4,,,,24.0,0.0,,TOBERMORY RCS,CA,717670-99999,2019,15,1.0
470280,99999,2019-10-07,40.45,124.933,76.0,,,20.5,1006.9,OVC,,,,,,SUPUNG,KN,470280-99999,2019,15,1.0
027930,99999,2019-10-07,62.55,29.667,80.0,70.0,2.0,12.3,1010.9,,,,,,,LIPERI TUISKAVANLUOTO,FI,027930-99999,2019,15,1.0
725080,14740,2019-10-07,41.933,-72.683,55.0,310.0,4.1,27.8,1012.9,FEW,,,,,,BRADLEY INTERNATIONAL AIRPORT,US,725080-14740,2019,15,1.0
431170,99999,2019-10-07,17.667,75.9,479.0,320.0,1.0,24.6,1004.9,BKN,,,,,,SHOLAPUR,IN,431170-99999,2019,15,1.0
719440,99999,2019-10-07,55.299,-124.032,689.0,199.0,3.5,16.6,1015.6,,,,24.0,9.0,,MACKENZIE A,CA,719440-99999,2019,15,1.0
719440,99999,2019-10-07,55.3,-123.133,690.0,210.0,3.6,17.0,1015.5,SCT,,,,,,MACKENZIE A,CA,719440-99999,2019,15,1.0
428400,99999,2019-10-07,21.2,72.833,12.0,230.0,4.1,28.8,1003.0,BKN,,,21.0,30.0,,SURAT,IN,428400-99999,2019,15,1.0
890610,89061,2019-10-07,-64.45,-64.067,8.0,350.0,0.5,-1.0,1003.5,OVC,,,1.0,9999.0,,PALMER STATION,AY,890610-89061,2019,15,1.0
685580,99999,2019-10-07,-30.933,27.6,1819.0,30.0,5.1,3.8,,,,,,,,BARKLY EAST,SF,685580-99999,2019,15,1.0
166140,99999,2019-10-07,40.45,21.267,661.0,310.0,2.1,15.5,1010.4,,,,,,,ARISTOTELIS,GR,166140-99999,2019,15,1.0
712600,99999,2019-10-07,46.483,-84.517,192.0,290.0,1.5,22.2,1018.3,BKN,,,24.0,0.0,,SAULT STE MARIE,CA,712600-99999,2019,15,1.0
543740,99999,2019-10-07,41.8,126.917,381.0,,,20.3,1007.6,BKN,,,24.0,18.0,,LINJIANG,CH,543740-99999,2019,15,1.0
712600,99999,2019-10-07,46.485,-84.509,192.0,290.0,2.1,22.0,1018.3,,,,,,,SAULT STE MARIE,CA,712600-99999,2019,15,1.0
425590,99999,2019-10-07,24.65,77.317,478.0,290.0,4.1,27.4,998.8,SCT,,,,,,GUNA,IN,425590-99999,2019,15,1.0
111760,99999,2019-10-07,47.467,15.333,527.0,270.0,1.0,10.6,1016.0,,,,6.0,0.0,,KAPFENBERG-FLUGFELD,AU,111760-99999,2019,15,1.0
589110,99999,2019-10-07,25.85,116.367,311.0,160.0,1.0,26.7,1005.2,OVC,,,24.0,83.0,,CHANGTING,CH,589110-99999,2019,15,1.0
581410,99999,2019-10-07,33.67,119.03,15.0,200.0,2.0,27.5,1005.5,CLR,10.0,,24.0,9999.0,,HUAIYIN,CH,581410-99999,2019,15,1.0
133880,99999,2019-10-07,43.333,21.9,203.0,,,16.6,1011.0,BKN,,,6.0,0.0,,NIS,RI,133880-99999,2019,15,1.0
471500,99999,2019-10-07,36.333,126.55,18.0,180.0,1.5,25.5,1005.9,BKN,,,12.0,0.0,,BORYEONG,KS,471500-99999,2019,15,1.0
717140,99999,2019-10-07,46.783,-71.383,74.0,260.0,2.6,19.0,1011.7,,,,24.0,88.0,,QUEBEC/JEAN LESAGE INTL  QUE,CA,717140-99999,2019,15,1.0
723830,23187,2019-10-07,34.75,-118.733,1379.0,320.0,4.6,31.1,1015.4,,,,,,,SANDBERG,US,723830-23187,2019,15,1.0
766650,99999,2019-10-07,19.7,-101.183,1913.0,210.0,1.0,23.8,1006.5,BKN,16.0,6.0,6.0,80.0,,MORELIA  MICH.,MX,766650-99999,2019,15,1.0
714420,99999,2019-10-07,51.083,-97.55,253.0,230.0,2.1,30.3,1008.3,,,,24.0,5.0,,FISHER BRANCH (AUT)  MAN,CA,714420-99999,2019,15,1.0
388750,99999,2019-10-07,39.017,73.55,3940.0,180.0,2.0,4.1,,FEW,,,,,,KARAKUL,TI,388750-99999,2019,15,1.0
543370,99999,2019-10-07,41.133,121.117,70.0,,,27.1,1005.3,BKN,,,24.0,0.0,,JINZHOU,CH,543370-99999,2019,15,1.0
727450,14913,2019-10-07,46.833,-92.183,432.0,130.0,2.6,23.3,1013.9,BKN,,,6.0,0.0,,DULUTH INTERNATIONAL AIRPORT,US,727450-14913,2019,15,1.0
066160,99999,2019-10-07,47.433,6.95,597.0,50.0,4.1,12.6,1016.4,,,,6.0,1.0,,FAHY-BONCOURT,SZ,066160-99999,2019,15,1.0
592110,99999,2019-10-07,23.9,106.6,177.0,0.0,0.0,24.7,1002.0,OVC,60.0,,24.0,26.0,,BAISE,CH,592110-99999,2019,15,1.0
607150,99999,2019-10-07,36.833,10.233,4.0,310.0,1.0,26.0,1008.5,,,,18.0,0.0,,CARTHAGE,TS,607150-99999,2019,15,1.0
607150,99999,2019-10-07,36.851,10.227,7.0,310.0,2.6,26.0,,,,,,,,CARTHAGE,TS,607150-99999,2019,15,1.0
607280,99999,2019-10-07,36.467,10.7,78.0,290.0,1.5,24.7,1008.2,,,,18.0,9999.0,,NABEUL,TS,607280-99999,2019,15,1.0
524180,99999,2019-10-07,40.15,94.683,1140.0,360.0,2.0,20.4,993.6,,,,,,,DUNHUANG,CH,524180-99999,2019,15,1.0
725560,14941,2019-10-07,41.983,-97.433,473.0,170.0,7.2,30.0,1012.3,,,,,,,KARL STEFAN MEMORIAL AIRPORT,US,725560-14941,2019,15,1.0
417460,99999,2019-10-07,26.85,68.133,47.0,180.0,1.0,28.0,991.9,,,,12.0,0.0,,PADIDAN,PK,417460-99999,2019,15,1.0
417560,99999,2019-10-07,25.07,61.8,56.0,130.0,2.0,27.0,1001.2,BKN,4.0,0.0,12.0,9999.0,,JIWANI,PK,417560-99999,2019,15,1.0
118550,99999,2019-10-07,48.283,18.133,136.0,360.0,3.0,16.4,1012.8,,,,6.0,0.0,,NITRA,LO,118550-99999,2019,15,1.0
509530,99999,2019-10-07,45.933,126.567,118.0,140.0,2.0,21.6,1005.8,OVC,60.0,,,,,HARBIN,CH,509530-99999,2019,15,1.0
034620,99999,2019-10-07,52.617,-0.467,73.0,360.0,2.6,10.7,1024.0,,,,6.0,0.0,,WITTERING,UK,034620-99999,2019,15,1.0
593580,99999,2019-10-07,23.0,120.22,14.0,0.0,0.0,30.6,1006.4,BKN,,,24.0,9999.0,,TAINAN,CH,593580-99999,2019,15,1.0
998204,99999,2019-10-07,46.917,-124.117,8.0,320.0,6.2,18.0,1019.2,,,,,,,WESTPORT,US,998204-99999,2019,15,1.0
719270,99999,2019-10-07,48.817,-123.717,60.0,170.0,1.5,23.4,1017.6,,,,24.0,0.0,,NORTH COWICHAN,CA,719270-99999,2019,15,1.0
282240,99999,2019-10-07,57.989,56.335,171.0,70.0,1.0,15.2,1008.3,OVC,,,,,,PERM',RS,282240-99999,2019,15,1.0
401030,99999,2019-10-07,34.45,35.8,5.0,220.0,2.1,24.8,1005.8,FEW,,,,,,TRIPOLI,LE,401030-99999,2019,15,1.0
818390,99999,2019-10-07,-5.837,-35.208,48.0,178.0,3.9,23.7,1014.4,,,,99.0,9999.0,,NATAL,BR,818390-99999,2019,15,1.0
712590,99999,2019-10-07,51.13,-111.7,750.0,340.0,12.8,19.3,,,,,,,,POLLOCKVILLE AGDM  ALTA,CA,712590-99999,2019,15,1.0
723080,13737,2019-10-07,36.9,-76.2,9.0,0.0,0.0,32.2,1015.3,,,,,,,NORFOLK INTERNATIONAL AIRPORT,US,723080-13737,2019,15,1.0
717460,99999,2019-10-07,43.0,-82.3,181.0,30.0,3.1,21.6,1019.7,,,,24.0,0.0,,SARNIA CLIMATE,CA,717460-99999,2019,15,1.0
685930,99999,2019-10-07,-29.767,31.05,8.0,210.0,1.0,14.6,1020.4,,,,,,,VIRGINIA,SF,685930-99999,2019,15,1.0
027360,99999,2019-10-07,61.9,27.883,112.0,,,8.2,1011.4,,,,,,,JUVA PARTALA,FI,027360-99999,2019,15,1.0
681760,99999,2019-10-07,-23.15,29.567,897.0,0.0,0.0,6.9,,,,,,,,MARA,SF,681760-99999,2019,15,1.0
560790,99999,2019-10-07,33.583,102.967,3441.0,290.0,3.0,7.0,,OVC,,,24.0,88.0,,RUO'ERGAI,CH,560790-99999,2019,15,1.0
388470,99999,2019-10-07,38.1,69.317,660.0,,,24.4,998.9,FEW,,,,,,DANGARA,TI,388470-99999,2019,15,1.0
574260,99999,2019-10-07,30.683,107.8,455.0,40.0,1.0,24.6,1001.3,OVC,,,,,,LIANGPING,CH,574260-99999,2019,15,1.0
637200,99999,2019-10-07,-0.5,37.45,1493.0,0.0,0.0,17.2,,BKN,,,,,,EMBU,KE,637200-99999,2019,15,1.0
030720,99999,2019-10-07,56.883,-3.417,933.0,290.0,1.0,9.9,,,,,,,,CAIRNWELL,UK,030720-99999,2019,15,1.0
066360,99999,2019-10-07,46.983,7.283,483.0,90.0,3.6,13.4,1014.3,,,,6.0,10.0,,MUEHLEBERG,SZ,066360-99999,2019,15,1.0
172910,99999,2019-10-07,37.251,27.657,11.0,90.0,1.0,21.1,1005.8,SCT,,,6.0,9999.0,,MILAS BODRUM,TU,172910-99999,2019,15,1.0
471920,99999,2019-10-07,35.2,128.1,23.0,90.0,1.0,24.2,1007.6,BKN,,,12.0,6.0,,JINJU,KS,471920-99999,2019,15,1.0
864900,99999,2019-10-07,-33.25,-58.067,17.0,170.0,1.5,5.3,1020.1,FEW,,,,,,MERCEDES/RICARDO DE,UY,864900-99999,2019,15,1.0
470200,99999,2019-10-07,40.97,126.6,306.0,0.0,0.0,19.5,1007.8,OVC,62.0,6.0,12.0,110.0,,KANGGYE,KN,470200-99999,2019,15,1.0
470220,99999,2019-10-07,40.82,128.15,1206.0,0.0,0.0,17.2,,OVC,,,24.0,9999.0,,PUNGSAN,KN,470220-99999,2019,15,1.0
999999,96404,2019-10-07,62.737,-141.208,610.0,,1.2,24.6,,,,,1.0,0.0,,TOK 70 SE,US,999999-96404,2019,15,1.0
359690,99999,2019-10-07,45.25,67.067,138.0,70.0,1.0,22.3,,,,,,,,ZLIKHA,KZ,359690-99999,2019,15,1.0
283190,99999,2019-10-07,57.083,54.75,131.0,20.0,1.0,14.7,1008.5,OVC,,,,,,NOZOVKA,RS,283190-99999,2019,15,1.0
713340,99999,2019-10-07,58.72,-98.5,262.0,80.0,1.5,21.1,1008.9,,,,,,,TADOULE LAKE CS  MAN,CA,713340-99999,2019,15,1.0
590820,99999,2019-10-07,24.67,113.6,68.0,180.0,2.0,28.5,1004.6,BKN,,,24.0,9999.0,,SHAOGUAN,CH,590820-99999,2019,15,1.0
576040,99999,2019-10-07,28.783,105.383,364.0,140.0,1.0,24.7,1000.4,OVC,,,,,,NAXI,CH,576040-99999,2019,15,1.0
859680,99999,2019-10-07,-54.933,-67.617,27.0,0.0,0.0,0.1,1006.6,,,,,,,PUERTO WILLIAMS,CI,859680-99999,2019,15,1.0
717460,99999,2019-10-07,43.0,-82.3,181.0,30.0,3.1,21.6,1019.7,,,,,,,SARNIA CLIMATE,CA,717460-99999,2019,15,1.0
560210,99999,2019-10-07,34.133,95.783,4176.0,,,3.0,,BKN,,,24.0,4.0,,QUMARLEB,CH,560210-99999,2019,15,1.0
584370,99999,2019-10-07,30.133,118.15,1836.0,110.0,3.0,17.4,,BKN,,,,,,HUANG SHAN,CH,584370-99999,2019,15,1.0
999999,63862,2019-10-07,34.565,-85.617,311.0,,,25.8,,,,,1.0,0.0,,VALLEY HEAD 1 SSW,US,999999-63862,2019,15,1.0
471460,99999,2019-10-07,35.841,127.119,61.0,117.0,1.4,25.6,1006.9,FEW,10.0,1.0,,,,JEONJU,KS,471460-99999,2019,15,1.0
713080,99999,2019-10-07,45.62,-61.68,67.0,160.0,2.1,17.4,1008.4,,,,,,,TRACADIE  NS  NS,CA,713080-99999,2019,15,1.0
471720,99999,2019-10-07,35.43,126.7,56.0,160.0,1.5,24.2,1006.2,BKN,,,12.0,9999.0,,GOCHANG,KS,471720-99999,2019,15,1.0
713080,99999,2019-10-07,45.6,-61.667,67.0,160.0,2.1,17.4,1008.4,,,,24.0,9999.0,,TRACADIE  NS  NS,CA,713080-99999,2019,15,1.0
284340,99999,2019-10-07,56.65,57.783,206.0,10.0,2.0,17.0,1005.6,OVC,80.0,8.0,,,,KRASNOUFIMSK,RS,284340-99999,2019,15,1.0
548430,99999,2019-10-07,36.77,119.18,22.0,360.0,1.0,27.1,1005.2,CLR,5.0,,24.0,5.0,,WEIFANG,CH,548430-99999,2019,15,1.0
998486,99999,2019-10-07,29.178,-89.258,10.0,180.0,5.1,28.1,1016.6,,,,,,,PILOT TOWN,US,998486-99999,2019,15,1.0
999999,63895,2019-10-07,34.454,-87.71,219.0,,,21.7,,,,,1.0,57.0,,RUSSELLVILLE 4 SSE,US,999999-63895,2019,15,1.0
873710,99999,2019-10-07,-31.15,-60.8,17.0,0.0,0.0,8.7,1018.7,SCT,10.0,2.0,1.0,9999.0,,SAUCE VIEJO,AR,873710-99999,2019,15,1.0
415150,99999,2019-10-07,35.57,71.78,1464.0,0.0,0.0,25.7,,CLR,,,12.0,9999.0,,DROSH,PK,415150-99999,2019,15,1.0
999999,63893,2019-10-07,32.717,-87.623,85.0,87.0,2.4,22.5,,,,,1.0,2.0,,GREENSBORO 2 WNW,US,999999-63893,2019,15,1.0
715540,99999,2019-10-07,48.52,-68.47,5.0,230.0,6.2,14.6,1007.5,,,,,,,POINTE-AU-PERE (INRS),CA,715540-99999,2019,15,1.0
715540,99999,2019-10-07,48.517,-68.467,5.0,230.0,6.2,14.6,1007.5,,,,24.0,73.0,,POINTE-AU-PERE (INRS),CA,715540-99999,2019,15,1.0
471450,99999,2019-10-07,36.77,127.12,22.0,160.0,1.5,23.6,1006.8,BKN,,,24.0,9999.0,,CHEONAN,KS,471450-99999,2019,15,1.0
111050,99999,2019-10-07,47.267,9.617,439.0,220.0,1.0,14.7,1013.9,,,,6.0,50.0,,FELDKIRCH,AU,111050-99999,2019,15,1.0
561440,99999,2019-10-07,31.733,98.567,3201.0,140.0,1.0,12.3,,OVC,60.0,,24.0,83.0,,DEGE,CH,561440-99999,2019,15,1.0
825330,99999,2019-10-07,-5.817,-61.3,50.0,0.0,0.0,27.8,,,,,,,,MANICORE,BR,825330-99999,2019,15,1.0
152840,99999,2019-10-07,45.603,26.41,1632.0,330.0,4.0,7.0,,,45.0,8.0,6.0,2.0,,PENTELEU,RO,152840-99999,2019,15,1.0
260990,99999,2019-10-07,59.5,34.7,176.0,,,3.2,1011.9,,,,,,,EFIMOVSKAJA,RS,260990-99999,2019,15,1.0
470310,99999,2019-10-07,40.37,127.25,1081.0,0.0,0.0,17.2,,BKN,,,24.0,9999.0,,CHANGJIN,KN,470310-99999,2019,15,1.0
471290,99999,2019-10-07,36.777,126.494,25.0,182.0,1.0,23.5,1006.9,OVC,,,12.0,9999.0,,SEOSAN,KS,471290-99999,2019,15,1.0
713340,99999,2019-10-07,58.709,-98.502,262.0,78.0,1.5,21.2,1008.9,,,,24.0,3.0,,TADOULE LAKE CS  MAN,CA,713340-99999,2019,15,1.0
560800,99999,2019-10-07,35.0,102.9,2910.0,180.0,2.0,9.0,,OVC,60.0,,24.0,188.0,,HEZUO,CH,560800-99999,2019,15,1.0
561960,99999,2019-10-07,31.45,104.733,522.0,290.0,3.0,23.8,1002.0,OVC,,,24.0,7.0,,MIANYANG,CH,561960-99999,2019,15,1.0
319090,99999,2019-10-07,45.0,136.6,68.0,90.0,1.0,16.4,1013.5,OVC,2.0,6.0,,,,TERNEJ,RS,319090-99999,2019,15,1.0
578530,99999,2019-10-07,26.733,110.633,340.0,110.0,1.0,23.4,1004.6,OVC,,,,,,WUGANG,CH,578530-99999,2019,15,1.0
415730,99999,2019-10-07,33.92,73.38,2126.0,130.0,1.0,17.0,,BKN,,,12.0,80.0,,MURREE,PK,415730-99999,2019,15,1.0
578450,99999,2019-10-07,26.167,109.783,397.0,,,23.5,1003.8,BKN,60.0,,24.0,7.0,,TONGDAO,CH,578450-99999,2019,15,1.0
711233,99999,2019-10-07,53.668,-113.854,687.0,290.0,1.5,23.0,1009.8,CLR,,,,,,EDMONTON VILLENEUVE,CA,711233-99999,2019,15,1.0
766120,99999,2019-10-07,20.667,-103.383,1551.0,290.0,2.0,26.3,1005.9,BKN,,,24.0,281.0,,GUADALAJARA  JAL.,MX,766120-99999,2019,15,1.0
724350,03816,2019-10-07,37.067,-88.767,126.0,240.0,4.1,23.9,1020.3,,,,6.0,0.0,,BARKLEY REGIONAL AIRPORT,US,724350-03816,2019,15,1.0
563120,99999,2019-10-07,29.57,94.47,3001.0,270.0,1.0,12.2,,OVC,,,24.0,12.0,,NYINGCHI,CH,563120-99999,2019,15,1.0
560330,99999,2019-10-07,34.92,98.22,4273.0,20.0,2.0,2.5,,OVC,,,24.0,9999.0,,MADOI,CH,560330-99999,2019,15,1.0
471880,99999,2019-10-07,33.387,126.88,20.0,182.0,1.2,24.1,1007.9,BKN,,,,,,SEONGSAN,KS,471880-99999,2019,15,1.0
724560,13996,2019-10-07,39.067,-95.617,269.0,130.0,4.6,31.7,1014.2,FEW,,,,,,PHILIP BILLARD MUNICIPAL AIRPORT,US,724560-13996,2019,15,1.0
590960,99999,2019-10-07,24.367,114.483,214.0,160.0,3.0,26.8,1005.2,OBS,,,24.0,76.0,,LIANPING,CH,590960-99999,2019,15,1.0
561060,99999,2019-10-07,31.883,93.783,4024.0,340.0,1.0,2.6,,OVC,21.0,,24.0,313.0,,SOG XIAN,CH,561060-99999,2019,15,1.0
589210,99999,2019-10-07,25.97,117.35,204.0,90.0,2.0,27.1,1005.2,BKN,10.0,,24.0,9999.0,,YONG'AN,CH,589210-99999,2019,15,1.0
599480,99999,2019-10-07,18.23,109.52,7.0,0.0,0.0,26.5,1004.8,BKN,,,24.0,9999.0,,SANYA,CH,599480-99999,2019,15,1.0
719230,99999,2019-10-07,61.13,-100.88,353.0,240.0,6.7,14.8,1009.1,,,,,,,ENNADAI LAKE (AUT)  NU,CA,719230-99999,2019,15,1.0
719230,99999,2019-10-07,61.117,-100.883,353.0,240.0,6.7,14.8,1009.1,,,,24.0,0.0,,ENNADAI LAKE (AUT)  NU,CA,719230-99999,2019,15,1.0
712590,99999,2019-10-07,51.117,-111.7,750.0,340.0,12.9,19.3,,,,,24.0,50.0,,POLLOCKVILLE AGDM  ALTA,CA,712590-99999,2019,15,1.0
764050,99999,2019-10-07,24.167,-110.3,18.0,250.0,2.0,38.6,1009.5,SCT,,,24.0,0.0,,LA PAZ  BCS,MX,764050-99999,2019,15,1.0
685850,99999,2019-10-07,-30.4,30.667,98.0,300.0,2.1,13.4,1018.7,,,,,,,PENNINGTON SOUTH,SF,685850-99999,2019,15,1.0
711233,99999,2019-10-07,53.668,-113.856,688.0,290.0,2.1,22.6,1009.8,,,,24.0,0.0,,EDMONTON VILLENEUVE,CA,711233-99999,2019,15,1.0
471140,99999,2019-10-07,37.338,127.947,151.0,140.0,1.5,22.9,1007.3,OBS,,,12.0,0.0,,WONJU,KS,471140-99999,2019,15,1.0
135970,99999,2019-10-07,41.15,22.5,59.0,360.0,2.0,20.0,1008.5,,,,6.0,0.0,,GEVGELIJA,MK,135970-99999,2019,15,1.0
724750,23176,2019-10-07,38.417,-113.017,1536.0,230.0,7.7,36.1,1010.7,,,,6.0,0.0,,MILFORD MUNICIPAL AIRPORT,US,724750-23176,2019,15,1.0
032570,99999,2019-10-07,54.3,-1.533,32.0,320.0,1.5,9.9,1025.0,,,,6.0,0.0,,LEEMING,UK,032570-99999,2019,15,1.0
573280,99999,2019-10-07,31.2,107.5,344.0,90.0,1.0,26.2,1001.0,OVC,,,24.0,9999.0,,DA XIAN,CH,573280-99999,2019,15,1.0
026610,99999,2019-10-07,56.833,15.467,232.0,,,12.1,1014.5,,,,6.0,1.0,,KOSTA (ORREFORS),SW,026610-99999,2019,15,1.0
027720,99999,2019-10-07,62.067,28.567,80.0,260.0,2.0,13.0,1011.0,,,,,,,RANTASALMI RUKKASLUOTO,FI,027720-99999,2019,15,1.0
585270,99999,2019-10-07,29.3,117.2,60.0,0.0,0.0,23.6,1005.5,OVC,64.0,,24.0,50.0,,JINGDEZHEN,CH,585270-99999,2019,15,1.0
561820,99999,2019-10-07,32.667,103.6,2883.0,200.0,1.0,11.3,,OVC,,,24.0,0.0,,SONGPAN,CH,561820-99999,2019,15,1.0
540120,99999,2019-10-07,44.583,117.6,997.0,70.0,2.0,22.5,1005.1,FEW,,,,,,XI UJIMQIN QI,CH,540120-99999,2019,15,1.0
111710,99999,2019-10-07,47.8,15.3,872.0,170.0,1.0,9.5,1016.7,,,,6.0,0.0,,ST SEBASTIAN/MARIAZELL,AU,111710-99999,2019,15,1.0
111710,99999,2019-10-07,47.8,15.3,975.0,120.0,1.0,10.0,,,,,,,,ST SEBASTIAN/MARIAZELL,AU,111710-99999,2019,15,1.0
085340,99999,2019-10-07,38.704,-9.036,14.0,330.0,3.1,20.0,,,,,,,,MONTIJO,PO,085340-99999,2019,15,1.0
020810,99999,2019-10-07,68.45,22.45,330.0,340.0,2.0,8.2,1013.7,,,,1.0,0.0,,KARESUANDO,SW,020810-99999,2019,15,1.0
061970,99999,2019-10-07,55.05,15.1,25.0,270.0,2.6,13.8,1015.7,,,,6.0,9999.0,,NEXOE VEST,DA,061970-99999,2019,15,1.0
085340,99999,2019-10-07,38.714,-9.025,14.0,330.0,3.0,19.6,1015.9,FEW,,,3.0,9999.0,,MONTIJO,PO,085340-99999,2019,15,1.0
066480,99999,2019-10-07,47.183,8.0,522.0,20.0,3.6,13.8,1015.1,,,,6.0,120.0,,EGOLZWIL,SZ,066480-99999,2019,15,1.0
607340,99999,2019-10-07,36.067,9.367,445.0,0.0,0.0,22.5,1009.3,,,,18.0,9999.0,,SILIANA,TS,607340-99999,2019,15,1.0
944570,99999,2019-10-07,-26.133,126.583,460.0,110.0,5.7,9.4,1031.2,,,,,,,WARBURTON AIRFIELD,AS,944570-99999,2019,15,1.0
542080,99999,2019-10-07,42.183,116.467,1247.0,220.0,1.0,19.4,1005.4,,,,,,,DUOLUN,CH,542080-99999,2019,15,1.0
560650,99999,2019-10-07,34.733,101.6,3501.0,290.0,3.0,4.6,,OVC,60.0,,24.0,30.0,,HENAN,CH,560650-99999,2019,15,1.0
592540,99999,2019-10-07,23.4,110.083,44.0,70.0,5.0,26.2,1003.3,BKN,,,24.0,74.0,,GUIPING,CH,592540-99999,2019,15,1.0
152920,99999,2019-10-07,45.417,22.229,241.0,90.0,1.0,14.2,1010.7,OVC,25.0,8.0,6.0,8.0,,CARANSEBES,RO,152920-99999,2019,15,1.0
431920,99999,2019-10-07,15.483,73.817,58.0,290.0,4.6,24.0,1006.8,OVC,50.0,6.0,21.0,340.0,,GOA/PANJIM,IN,431920-99999,2019,15,1.0
133880,99999,2019-10-07,43.337,21.854,198.0,,0.5,16.0,,,,,,,,NIS,RI,133880-99999,2019,15,1.0
569850,99999,2019-10-07,23.45,103.333,1314.0,160.0,1.0,21.6,1001.3,BKN,,,24.0,171.0,,MENGZI,CH,569850-99999,2019,15,1.0
368210,99999,2019-10-07,44.833,76.267,396.0,360.0,3.0,19.9,1002.3,,,,,,,BAKANAS,KZ,368210-99999,2019,15,1.0
387740,99999,2019-10-07,38.433,57.417,159.0,350.0,4.0,27.2,1006.5,BKN,,,,,,BAKHERDEN,TX,387740-99999,2019,15,1.0
369820,99999,2019-10-07,41.883,78.233,3639.0,340.0,2.0,0.7,,BKN,21.0,6.0,,,,TIAN-SHAN',KG,369820-99999,2019,15,1.0
596440,99999,2019-10-07,21.483,109.1,16.0,160.0,1.0,29.2,1002.6,BKN,10.0,,,,,BEIHAI,CH,596440-99999,2019,15,1.0
241430,99999,2019-10-07,68.733,124.0,39.0,360.0,4.0,16.6,1015.6,,,,12.0,0.0,,DZARDZAN,RS,241430-99999,2019,15,1.0
417800,99999,2019-10-07,24.9,67.133,22.0,230.0,8.2,30.0,997.6,BKN,,,12.0,0.0,,JINNAH INTL,PK,417800-99999,2019,15,1.0
681830,99999,2019-10-07,-23.067,30.383,618.0,220.0,3.1,10.2,,,,,,,,THOHOYANDOU,SF,681830-99999,2019,15,1.0
369110,99999,2019-10-07,42.833,75.283,817.0,,,19.0,1002.7,,,,,,,TOKMAK,KG,369110-99999,2019,15,1.0
417800,99999,2019-10-07,24.907,67.161,30.0,270.0,9.3,30.0,,,4.0,,,,,JINNAH INTL,PK,417800-99999,2019,15,1.0
718200,99999,2019-10-07,44.217,-76.6,93.0,190.0,2.1,22.0,1016.6,,,,24.0,0.0,,KINGSTON CLIMATE,CA,718200-99999,2019,15,1.0
607290,99999,2019-10-07,36.433,10.767,156.0,,,,,,,,,,,ZAGHONAN MAGRANE,TS,607290-99999,2019,15,1.0
587520,99999,2019-10-07,27.783,120.65,38.0,70.0,1.0,24.4,1005.9,OVC,10.0,,24.0,18.0,,RUIAN,CH,587520-99999,2019,15,1.0
715860,99999,2019-10-07,55.15,-105.27,379.0,120.0,2.6,22.7,1007.9,,,,,,,LA RONGE RCS  SASK,CA,715860-99999,2019,15,1.0
033210,99999,2019-10-07,53.175,-2.986,11.0,180.0,2.6,13.5,1024.1,,,,6.0,9999.0,,HAWARDEN,UK,033210-99999,2019,15,1.0
376820,99999,2019-10-07,40.95,43.783,1866.0,360.0,1.0,11.4,,,,,,,,AMASIA,AM,376820-99999,2019,15,1.0
762250,99999,2019-10-07,28.633,-106.083,1433.0,50.0,3.0,34.2,1001.4,FEW,,,24.0,0.0,,CHIHUAHUA  CHIH.,MX,762250-99999,2019,15,1.0
067960,99999,2019-10-07,46.602,10.426,1386.0,216.0,3.3,12.2,,,,,6.0,9999.0,,STA MARIA VAL MUESTAIR,SZ,067960-99999,2019,15,1.0
726798,24150,2019-10-07,45.698,-110.44,1408.0,160.0,4.6,17.2,,,,,,,,MISSION FIELD AIRPORT,US,726798-24150,2019,15,1.0
021205,99999,2019-10-07,65.017,17.7,251.0,290.0,4.0,9.5,1011.2,BKN,,,1.0,0.0,,STORUMAN,SW,021205-99999,2019,15,1.0
150630,99999,2019-10-07,47.195,23.047,295.0,210.0,2.0,14.7,1010.3,BKN,2.0,8.0,6.0,2.0,,ZALAU,RO,150630-99999,2019,15,1.0
363970,99999,2019-10-07,49.217,81.217,455.0,290.0,2.0,17.3,1003.6,,,,,,,ZHANGIZTOBE,KZ,363970-99999,2019,15,1.0
685820,99999,2019-10-07,-29.65,30.4,739.0,230.0,2.6,13.0,,,,,,,,ORIBI AIRPORT,SF,685820-99999,2019,15,1.0
684160,99999,2019-10-07,-29.133,19.383,990.0,190.0,1.5,7.8,,,,,,,,POFADDER,SF,684160-99999,2019,15,1.0
718200,99999,2019-10-07,44.217,-76.6,93.0,190.0,2.1,22.0,1016.6,,,,,,,KINGSTON CLIMATE,CA,718200-99999,2019,15,1.0
135710,99999,2019-10-07,42.0,20.967,462.0,,,14.0,1010.9,SCT,,,6.0,0.0,,TETOVO,MK,135710-99999,2019,15,1.0
381413,99999,2019-10-07,40.215,69.695,442.0,260.0,1.0,25.0,,CLR,,,,,,KHUDZHAND,TI,381413-99999,2019,15,1.0
997349,99999,2019-10-07,17.7,-64.75,10.0,100.0,2.6,28.4,1017.0,,,,,,,LIME TREE BAY,VQ,997349-99999,2019,15,1.0
319890,99999,2019-10-07,42.9,133.9,43.0,110.0,1.0,16.6,1010.7,OVC,2.0,6.0,,,,PREOBRAZHENIE,RS,319890-99999,2019,15,1.0
421050,99999,2019-10-07,30.733,76.883,347.0,90.0,1.5,23.6,995.7,SCT,,,21.0,290.0,,CHANDIGARH(IAFB),IN,421050-99999,2019,15,1.0
577450,99999,2019-10-07,27.45,109.683,273.0,20.0,1.0,23.5,1004.2,BKN,,,,,,ZHIJIANG,CH,577450-99999,2019,15,1.0
477040,99999,2019-10-07,36.395,136.407,11.0,360.0,6.2,24.0,,,,,,,,KOMATSU,JA,477040-99999,2019,15,1.0
128510,99999,2019-10-07,47.867,20.017,1015.0,360.0,5.0,9.7,,,,,,,,KEKESTETO,HU,128510-99999,2019,15,1.0
768450,99999,2019-10-07,16.75,-92.633,2116.0,60.0,3.0,19.8,1010.7,BKN,,,24.0,0.0,,SN. CRISTOBAL LAS CASAS  CHIS.,MX,768450-99999,2019,15,1.0
685240,99999,2019-10-07,-30.35,21.817,962.0,0.0,0.0,7.3,,,,,,,,VANWYKSVLEI,SF,685240-99999,2019,15,1.0
789900,00413,2019-10-07,12.13,-68.276,2.0,83.0,7.0,27.5,1012.8,SCT,,,6.0,9999.0,,FLAMINGO INTERNATIONAL AIRPORT,NL,789900-00413,2019,15,1.0
066890,99999,2019-10-07,47.371,8.942,1144.0,25.0,2.4,10.5,,,,,6.0,280.0,,HOERNLI,SZ,066890-99999,2019,15,1.0
727670,94014,2019-10-07,48.183,-103.633,581.0,200.0,3.6,31.1,1009.4,,,,,,,SLOULIN FIELD INTERNATIONAL AIRPORT,US,727670-94014,2019,15,1.0
588340,99999,2019-10-07,26.633,118.15,153.0,70.0,1.0,26.2,1005.4,OVC,10.0,,24.0,131.0,,NANPING,CH,588340-99999,2019,15,1.0
332750,99999,2019-10-07,50.85,34.667,181.0,100.0,2.0,12.6,1009.3,,,,,,,SUMY,UP,332750-99999,2019,15,1.0
161530,99999,2019-10-07,43.95,8.183,221.0,40.0,2.1,21.0,1007.9,BKN,60.0,9.0,6.0,9999.0,,CAPE MELE,IT,161530-99999,2019,15,1.0
076280,99999,2019-10-07,43.45,1.25,189.0,280.0,4.6,19.9,1014.5,,0.0,,6.0,0.0,,MURET-LHERM,FR,076280-99999,2019,15,1.0
911820,22521,2019-10-07,21.35,-157.933,5.0,60.0,7.2,32.2,1015.2,FEW,,,,,,HONOLULU INTERNATIONAL AIRPORT,US,911820-22521,2019,15,1.0
590230,99999,2019-10-07,24.7,108.05,214.0,40.0,1.0,24.9,1002.7,OVC,10.0,,24.0,289.0,,HECHI,CH,590230-99999,2019,15,1.0
682680,99999,2019-10-07,-24.9,28.333,1132.0,350.0,1.5,6.7,,,,,,,,WARMBAD TOWOOMBA,SF,682680-99999,2019,15,1.0
151130,99999,2019-10-07,46.85,27.45,131.0,280.0,2.0,14.8,1009.3,,,,6.0,0.0,,NEGRESTI,RO,151130-99999,2019,15,1.0
471840,99999,2019-10-07,33.52,126.53,24.0,360.0,2.0,24.5,1007.8,BKN,10.0,1.0,24.0,9999.0,,JEJU,KS,471840-99999,2019,15,1.0
347120,99999,2019-10-07,47.033,37.5,70.0,360.0,2.0,15.3,1007.6,FEW,,,,,,MARIUPOL',UP,347120-99999,2019,15,1.0
607420,99999,2019-10-07,35.5,11.067,12.0,320.0,3.1,27.1,1007.9,,,,18.0,9999.0,,MAHDIA,TS,607420-99999,2019,15,1.0
584770,99999,2019-10-07,30.033,122.117,37.0,40.0,1.0,26.3,1006.0,SCT,,,24.0,2.0,,DINGHAI,CH,584770-99999,2019,15,1.0
374090,99999,2019-10-07,42.033,43.483,1245.0,90.0,6.0,14.6,,SCT,,,,,,MTA-SABUETI,GG,374090-99999,2019,15,1.0
350370,99999,2019-10-07,51.867,58.183,341.0,90.0,9.0,26.5,996.0,OVC,80.0,2.0,,,,AK'JAR,RS,350370-99999,2019,15,1.0
683290,99999,2019-10-07,-26.883,22.05,928.0,70.0,1.0,7.4,,,,,,,,VAN ZYLSRUS,SF,683290-99999,2019,15,1.0
172410,99999,2019-10-07,37.855,30.368,869.0,330.0,3.1,17.2,1002.8,SCT,2.0,8.0,6.0,4.0,,SULEYMAN DEMIREL,TU,172410-99999,2019,15,1.0
725776,24166,2019-10-07,43.6,-110.733,1965.0,290.0,17.5,23.0,,SCT,,,1.0,0.0,,JACKSON HOLE AIRPORT,US,725776-24166,2019,15,1.0
025050,99999,2019-10-07,58.1,11.333,16.0,190.0,5.0,17.3,,OVC,,,1.0,0.0,,MASESKAR,SW,025050-99999,2019,15,1.0
346910,99999,2019-10-07,47.9,48.8,-10.0,230.0,4.0,15.5,1006.9,BKN,,,,,,NOVYJ USHTOGAN,KZ,346910-99999,2019,15,1.0
388860,99999,2019-10-07,37.383,60.517,186.0,300.0,4.0,30.0,1002.8,,,,,,,TEDZHEN,TX,388860-99999,2019,15,1.0
582390,99999,2019-10-07,29.825,121.465,4.0,310.0,2.0,24.0,,,,,,,,LISHE,CH,582390-99999,2019,15,1.0
415235,99999,2019-10-07,34.733,72.35,951.0,0.0,0.0,24.0,,,,,12.0,0.0,,SAIDU SHARIF,PK,415235-99999,2019,15,1.0
368700,99999,2019-10-07,43.233,76.933,851.0,150.0,1.0,21.8,1001.5,,,,,,,ALMATY,KZ,368700-99999,2019,15,1.0
998004,99999,2019-10-07,41.633,-71.333,13.0,310.0,2.1,26.3,1012.0,,,,,,,NARRAGANSETT BAY RESERVE,US,998004-99999,2019,15,1.0
769030,99999,2019-10-07,14.917,-92.25,118.0,210.0,4.0,28.1,1011.0,BKN,50.0,2.0,24.0,51.0,,TAPACHULA  CHIS,MX,769030-99999,2019,15,1.0
113650,99999,2019-10-07,47.2,14.767,682.0,300.0,1.0,9.0,1016.8,,,,6.0,0.0,,ZELTWEG/AUTOM. STAT.,AU,113650-99999,2019,15,1.0
242630,99999,2019-10-07,67.65,134.683,214.0,320.0,4.0,15.9,1012.8,FEW,4.0,0.0,,,,BATAGAJ,RS,242630-99999,2019,15,1.0
063500,99999,2019-10-07,51.567,4.933,13.0,310.0,2.0,11.5,1021.0,OVC,,,6.0,0.0,,GILZE RIJEN,NL,063500-99999,2019,15,1.0
687270,99999,2019-10-07,-32.35,22.55,899.0,320.0,2.6,13.3,,,,,,,,BEAUFORT WEST,SF,687270-99999,2019,15,1.0
688250,99999,2019-10-07,-33.5,21.283,538.0,0.0,0.0,7.0,,,,,,,,LADISMITH,SF,688250-99999,2019,15,1.0
143070,99999,2019-10-07,44.9,13.917,63.0,40.0,4.0,19.0,1010.7,SCT,,,6.0,0.0,,PULA,HR,143070-99999,2019,15,1.0
998004,99999,2019-10-07,41.641,-71.341,9999.0,,,,,,,,1.0,0.0,,NARRAGANSETT BAY RESERVE,US,998004-99999,2019,15,1.0
135830,99999,2019-10-07,41.05,21.367,589.0,,,14.2,1010.5,FEW,,,6.0,0.0,,BITOLA,MK,135830-99999,2019,15,1.0
587250,99999,2019-10-07,27.333,117.467,219.0,340.0,1.0,25.1,1005.5,OVC,10.0,,24.0,244.0,,SHAOWU,CH,587250-99999,2019,15,1.0
592650,99999,2019-10-07,23.483,111.3,120.0,340.0,1.0,27.6,1004.2,BKN,,,24.0,7.0,,WUZHOU,CH,592650-99999,2019,15,1.0
165500,99999,2019-10-07,39.917,9.7,150.0,330.0,4.1,23.4,1006.0,FEW,,,6.0,0.0,,CAPE BELLAVISTA,IT,165500-99999,2019,15,1.0
981320,99999,2019-10-07,20.8,121.85,124.0,270.0,1.0,29.7,1008.6,FEW,1.0,4.0,,,,ITBAYAT,RP,981320-99999,2019,15,1.0
040130,99999,2019-10-07,65.083,-22.733,8.0,90.0,6.7,11.4,1014.9,OVC,,,,,,STYKKISHOLMUR,IC,040130-99999,2019,15,1.0
723600,23051,2019-10-07,36.45,-103.15,1515.0,140.0,8.2,30.0,1013.0,,,,,,,CLAYTON  MUNICIPAL AIRPARK AIRPORT,US,723600-23051,2019,15,1.0
405500,99999,2019-10-07,30.067,47.683,25.0,330.0,2.1,29.7,998.8,,,,,,,ABDALY,KU,405500-99999,2019,15,1.0
405730,99999,2019-10-07,29.367,46.967,232.0,310.0,3.1,29.4,999.9,,,,,,,ABRAQUE MAZRAA,KU,405730-99999,2019,15,1.0
039560,99999,2019-10-07,52.29,-6.49,62.0,330.0,2.0,11.6,1023.3,,,,6.0,9999.0,,JOHNSTOWN CASTLE,EI,039560-99999,2019,15,1.0
354160,99999,2019-10-07,49.067,54.683,128.0,250.0,4.0,17.5,1001.3,BKN,2.0,8.0,,,,UIL,KZ,354160-99999,2019,15,1.0
685230,99999,2019-10-07,-30.467,20.483,923.0,290.0,1.0,6.1,,,,,,,,BRANDVLEI,SF,685230-99999,2019,15,1.0
319741,99999,2019-10-07,43.399,132.148,14.0,0.0,0.0,19.0,,,,,,,,KNEVICHI,RS,319741-99999,2019,15,1.0
161490,99999,2019-10-07,44.033,12.617,13.0,180.0,1.0,21.5,1009.9,,,,6.0,0.0,,RIMINI,IT,161490-99999,2019,15,1.0
684490,99999,2019-10-07,-28.817,27.9,1614.0,20.0,1.5,1.1,,,,,,,,FICKSBURG,SF,684490-99999,2019,15,1.0
405920,99999,2019-10-07,28.567,48.067,107.0,310.0,2.6,31.5,999.2,,,,,,,WAFRA,KU,405920-99999,2019,15,1.0
586660,99999,2019-10-07,28.45,121.883,84.0,70.0,3.0,23.1,1006.4,OVC,28.0,,24.0,29.0,,DACHEN DAO,CH,586660-99999,2019,15,1.0
765480,99999,2019-10-07,22.2,-97.85,25.0,130.0,5.0,32.8,1011.5,SCT,,,24.0,0.0,,TAMPICO  TAMPS,MX,765480-99999,2019,15,1.0
434360,99999,2019-10-07,7.717,81.7,8.0,320.0,1.0,26.0,1007.7,BKN,,,3.0,0.0,,BATTICALOA,CE,434360-99999,2019,15,1.0
376750,99999,2019-10-07,41.367,48.517,552.0,,,14.8,1010.6,BKN,,,,,,GUBA,AJ,376750-99999,2019,15,1.0
152890,99999,2019-10-07,45.383,21.133,83.0,280.0,2.0,13.3,1010.8,,,,6.0,0.0,,BANLOC,RO,152890-99999,2019,15,1.0
111570,99999,2019-10-07,47.533,14.133,652.0,360.0,1.0,11.9,1016.7,OVC,,,6.0,0.0,,AIGEN/ENNSTAL (MIL),AU,111570-99999,2019,15,1.0
685770,99999,2019-10-07,-30.5,29.4,1443.0,200.0,1.0,6.6,,,,,,,,KOKSTAD,SF,685770-99999,2019,15,1.0
385450,99999,2019-10-07,40.467,62.283,142.0,,,22.5,1000.3,,,,,,,DARGANATA,TX,385450-99999,2019,15,1.0
135810,99999,2019-10-07,41.217,21.467,9999.0,360.0,2.0,14.6,,FEW,,,6.0,0.0,,TOPOLCANI-PGC,MK,135810-99999,2019,15,1.0
712420,99999,2019-10-07,52.45,-113.75,860.0,260.0,3.6,21.9,1011.4,,,,,,,LACOMBE CDA 2  ALTA,CA,712420-99999,2019,15,1.0
994280,99999,2019-10-07,44.61,-124.07,9.0,330.0,6.2,16.4,,,,,,,,NEWPORT  OR,US,994280-99999,2019,15,1.0
726980,24229,2019-10-07,45.6,-122.6,12.0,290.0,4.6,28.3,1016.3,SCT,,,,,,PORTLAND INTERNATIONAL AIRPORT,US,726980-24229,2019,15,1.0
714640,99999,2019-10-07,42.55,-80.05,175.0,190.0,6.2,21.5,1018.1,,,,,,,LONG POINT (AUT),CA,714640-99999,2019,15,1.0
714640,99999,2019-10-07,42.55,-80.05,175.0,190.0,6.2,21.5,1018.1,,,,24.0,9999.0,,LONG POINT (AUT),CA,714640-99999,2019,15,1.0
381960,99999,2019-10-07,43.55,68.9,822.0,320.0,2.0,25.6,1000.8,,,,,,,ASHCHYSAI,KZ,381960-99999,2019,15,1.0
013380,99999,2019-10-07,61.172,6.645,49.0,204.0,7.2,13.0,1016.1,,,,6.0,9999.0,,VANGSNES,NO,013380-99999,2019,15,1.0
166060,99999,2019-10-07,41.067,23.567,35.0,,0.5,17.3,1008.3,,,,,,,SERRAI,GR,166060-99999,2019,15,1.0
532310,99999,2019-10-07,41.45,106.383,1510.0,160.0,5.0,20.0,,BKN,,,24.0,150.0,,HAILS,CH,532310-99999,2019,15,1.0
711210,99999,2019-10-07,53.667,-113.467,688.0,300.0,3.1,23.1,1009.5,SCT,,,24.0,9999.0,,EDMONTON/NAMAO(MIL),CA,711210-99999,2019,15,1.0
685880,99999,2019-10-07,-29.967,30.95,8.0,260.0,1.5,14.4,1020.4,,,,,,,DURBAN INTL,SF,685880-99999,2019,15,1.0
060960,99999,2019-10-07,55.183,8.567,9.0,310.0,6.2,13.5,1016.8,BKN,,,,,,ROEMOE/JUVRE,DA,060960-99999,2019,15,1.0
711210,99999,2019-10-07,53.667,-113.467,688.0,300.0,2.6,23.0,1009.5,FEW,,,,,,EDMONTON/NAMAO(MIL),CA,711210-99999,2019,15,1.0
683550,99999,2019-10-07,-27.666,27.314,1434.0,30.0,4.1,8.1,,,,,,,,KROONSTAD,SF,683550-99999,2019,15,1.0
389870,99999,2019-10-07,35.283,62.35,625.0,220.0,1.0,22.8,1002.1,,,,,,,GYSHGY,TX,389870-99999,2019,15,1.0
383340,99999,2019-10-07,42.483,70.3,808.0,110.0,2.0,20.6,1001.1,,,,,,,AUL TURARA RYSKULOVA,KZ,383340-99999,2019,15,1.0
470610,99999,2019-10-07,38.733,128.183,34.0,,,21.0,1007.9,OVC,,,,,,CHANGJON,KN,470610-99999,2019,15,1.0
725970,24225,2019-10-07,42.367,-122.867,399.0,300.0,4.6,32.8,1013.3,,,,,,,ROGUE VALLEY INTL-MEDFORD AIRPORT,US,725970-24225,2019,15,1.0
432960,99999,2019-10-07,12.95,77.633,888.0,250.0,5.1,21.1,,,,,,,,BANGALORE/HINDUSTAN AIRPORT,IN,432960-99999,2019,15,1.0
727720,24144,2019-10-07,46.6,-112.0,1188.0,340.0,4.6,28.9,1011.8,,,,6.0,10.0,,HELENA REGIONAL AIRPORT,US,727720-24144,2019,15,1.0
382640,99999,2019-10-07,42.45,59.617,77.0,310.0,6.0,28.4,1002.7,,,,,,,NUKUS,UZ,382640-99999,2019,15,1.0
580400,99999,2019-10-07,34.85,119.133,10.0,290.0,1.0,24.9,1005.7,FEW,10.0,,24.0,4.0,,GANYU,CH,580400-99999,2019,15,1.0
417120,99999,2019-10-07,28.883,64.4,850.0,230.0,3.1,30.0,,,,,12.0,0.0,,DAL BANDIN,PK,417120-99999,2019,15,1.0
085610,99999,2019-10-07,38.079,-7.927,194.0,270.0,4.0,17.6,1016.2,SCT,,,3.0,9999.0,,BEJA/B. AEREA,PO,085610-99999,2019,15,1.0
722700,23044,2019-10-07,31.8,-106.4,1194.0,130.0,4.1,37.8,1007.0,SCT,,,,,,EL PASO INTERNATIONAL AIRPORT,US,722700-23044,2019,15,1.0
571780,99999,2019-10-07,33.1,112.483,182.0,220.0,2.0,26.9,1004.3,FEW,10.0,,,,,NANYANG,CH,571780-99999,2019,15,1.0
671430,99999,2019-10-07,-21.2,48.367,5.0,0.0,0.0,,1023.0,FEW,,,,,,MANANJARY,MA,671430-99999,2019,15,1.0
387150,99999,2019-10-07,39.567,68.583,3143.0,,,11.4,,,,,,,,SHAHRISTANSKIJ PEREVAL,TI,387150-99999,2019,15,1.0
160540,99999,2019-10-07,45.733,7.35,551.0,50.0,2.6,18.7,,,,,,,,AOSTA POLLEIN,IT,160540-99999,2019,15,1.0
030080,99999,2019-10-07,59.533,-1.633,57.0,290.0,3.1,11.1,1023.7,,,,6.0,0.0,,FAIR ISLE,UK,030080-99999,2019,15,1.0
688430,99999,2019-10-07,-33.567,26.883,84.0,280.0,2.6,11.2,1020.3,,,,,,,PORT ALFRED AIRPORT,SF,688430-99999,2019,15,1.0
353580,99999,2019-10-07,49.633,63.5,9999.0,70.0,2.0,21.6,1002.9,,,,,,,TORGAI,KZ,353580-99999,2019,15,1.0
470550,99999,2019-10-07,39.183,127.433,36.0,,,20.3,1007.5,OVC,,,,,,WONSAN,KN,470550-99999,2019,15,1.0
570670,99999,2019-10-07,34.083,111.067,660.0,200.0,1.0,22.2,1004.5,BKN,,,,,,LUSHI,CH,570670-99999,2019,15,1.0
381780,99999,2019-10-07,43.15,64.333,234.0,,,26.5,1000.9,,,,,,,AK-BAJTAL,UZ,381780-99999,2019,15,1.0
162060,99999,2019-10-07,42.75,11.083,7.0,130.0,2.6,23.6,1007.3,BKN,,,6.0,0.0,,GROSSETO,IT,162060-99999,2019,15,1.0
317350,99999,2019-10-07,48.517,135.167,76.0,160.0,2.0,22.4,1011.2,BKN,,,,,,NOVY,RS,317350-99999,2019,15,1.0
682730,99999,2019-10-07,-25.833,29.183,1550.0,80.0,1.5,6.7,,,,,,,,WITBANK,SF,682730-99999,2019,15,1.0
589260,99999,2019-10-07,25.3,117.4,203.0,40.0,2.0,26.5,1005.2,BKN,,,24.0,6.0,,ZHANG PING,CH,589260-99999,2019,15,1.0
592780,99999,2019-10-07,23.05,112.467,12.0,70.0,2.0,29.2,1004.4,BKN,,,24.0,32.0,,GAOYAO,CH,592780-99999,2019,15,1.0
945951,99999,2019-10-07,-27.641,152.712,28.0,300.0,7.2,16.0,,,,,,,,AMBERLEY,AS,945951-99999,2019,15,1.0
154340,99999,2019-10-07,44.442,24.354,172.0,50.0,1.0,13.6,1009.1,CLR,,,6.0,9999.0,,SLATINA,RO,154340-99999,2019,15,1.0
032650,99999,2019-10-07,54.205,-1.389,25.0,120.0,1.5,9.5,1025.0,,,,6.0,9999.0,,TOPCLIFFE,UK,032650-99999,2019,15,1.0
405860,99999,2019-10-07,29.317,47.667,56.0,290.0,1.5,33.4,999.5,,,,,,,JAHRA,KU,405860-99999,2019,15,1.0
582650,99999,2019-10-07,32.07,121.6,10.0,200.0,1.0,25.2,1006.1,FEW,10.0,,24.0,9999.0,,LUSI,CH,582650-99999,2019,15,1.0
538450,99999,2019-10-07,36.583,109.45,1181.0,20.0,1.0,20.0,1003.3,BKN,,,,,,YAN AN,CH,538450-99999,2019,15,1.0
164290,99999,2019-10-07,37.917,12.5,9.0,180.0,6.2,25.6,1006.3,BKN,17.0,9.0,6.0,0.0,,TRAPANI BIRGI,IT,164290-99999,2019,15,1.0
527540,99999,2019-10-07,37.333,100.133,3302.0,340.0,3.0,8.8,,BKN,,,,,,GANGCA,CH,527540-99999,2019,15,1.0
355760,99999,2019-10-07,48.3,69.65,9999.0,80.0,1.0,17.2,1006.9,,,,,,,KYZYLZHAR,KZ,355760-99999,2019,15,1.0
362080,99999,2019-10-07,50.333,83.55,811.0,130.0,1.0,16.2,1007.7,,,,,,,LENINOGORSK,KZ,362080-99999,2019,15,1.0
965950,99999,2019-10-07,-0.95,114.9,60.0,0.0,0.0,21.8,1011.8,SCT,,,,,,MUARATEWE/BERINGIN,ID,965950-99999,2019,15,1.0
683500,99999,2019-10-07,-26.733,27.067,1351.0,0.0,0.0,3.5,,,,,,,,POTCHEFSTROOM,SF,683500-99999,2019,15,1.0
386830,99999,2019-10-07,39.717,64.617,226.0,340.0,4.0,25.8,998.2,,,,,,,BUHARA,UZ,386830-99999,2019,15,1.0
596730,99999,2019-10-07,21.733,112.767,18.0,140.0,3.0,29.4,1004.2,BKN,,,24.0,0.0,,SHANGCHUAN DAO,CH,596730-99999,2019,15,1.0
689160,99999,2019-10-07,-34.35,18.5,238.0,320.0,5.1,11.6,1021.8,,,,,,,CAPE POINT,SF,689160-99999,2019,15,1.0
375490,99999,2019-10-07,41.75,44.769,495.0,160.0,3.0,21.7,1007.8,OVC,,,,,,TBILISI / LOCHINI AIRPORT,GG,375490-99999,2019,15,1.0
685890,99999,2019-10-07,-29.267,29.517,1763.0,200.0,3.1,12.5,,,,,,,,GIANTS CASTLE,SF,685890-99999,2019,15,1.0
574110,99999,2019-10-07,30.75,106.133,347.0,360.0,1.0,25.5,1000.6,OVC,,,24.0,0.0,,GAOPING,CH,574110-99999,2019,15,1.0
136250,99999,2019-10-07,40.083,20.15,194.0,0.0,0.0,19.6,1006.9,,,,6.0,0.0,,GJIROKASTRA,AL,136250-99999,2019,15,1.0
685870,99999,2019-10-07,-31.067,30.233,12.0,350.0,1.0,12.7,1019.4,,,,,,,PORT EDWARD,SF,685870-99999,2019,15,1.0
417640,99999,2019-10-07,25.383,68.417,30.0,230.0,12.4,29.0,996.0,SCT,7.0,0.0,12.0,0.0,,HYDERABAD AIRPORT,PK,417640-99999,2019,15,1.0
998167,99999,2019-10-07,59.601,-151.409,9999.0,,,,,,,,1.0,0.0,,KACHEMAK BAY RESERVE,US,998167-99999,2019,15,1.0
368640,99999,2019-10-07,43.533,75.25,743.0,,,16.4,1003.7,,,,,,,OTAR,KZ,368640-99999,2019,15,1.0
998167,99999,2019-10-07,59.6,-151.417,10.0,50.0,1.0,15.8,1009.0,,,,,,,KACHEMAK BAY RESERVE,US,998167-99999,2019,15,1.0
361520,99999,2019-10-07,50.867,78.35,149.0,20.0,4.0,19.2,1008.2,,,,,,,SEMIJARKA,KZ,361520-99999,2019,15,1.0
427056,99999,2019-10-07,13.2,77.7,915.0,250.0,5.1,21.0,,,,,,,,BANGALURU INTL AIRPORT,IN,427056-99999,2019,15,1.0
271130,99999,2019-10-07,59.267,38.017,114.0,50.0,1.0,8.1,1011.2,BKN,10.0,2.0,,,,CHEREPOVEC,RS,271130-99999,2019,15,1.0
683610,99999,2019-10-07,-26.15,28.0,1626.0,0.0,0.0,6.3,,,,,,,,JOHANNESBURG BOT. GARDENS,SF,683610-99999,2019,15,1.0
032300,99999,2019-10-07,55.285,-2.278,211.0,290.0,1.0,9.1,1025.3,,,,6.0,9999.0,,REDESDALE CAMP,UK,032300-99999,2019,15,1.0
712420,99999,2019-10-07,52.45,-113.75,860.0,260.0,3.6,21.9,1011.4,,,,24.0,77.0,,LACOMBE CDA 2  ALTA,CA,712420-99999,2019,15,1.0
470460,99999,2019-10-07,40.033,128.183,19.0,50.0,1.0,21.6,1007.8,OVC,,,,,,SINPO,KN,470460-99999,2019,15,1.0
383960,99999,2019-10-07,41.567,60.633,101.0,360.0,1.0,23.5,1001.5,,,,,,,URGENCH,UZ,383960-99999,2019,15,1.0
564440,99999,2019-10-07,28.45,98.883,3320.0,90.0,1.0,11.0,,OVC,60.0,,24.0,1.0,,DEQEN,CH,564440-99999,2019,15,1.0
408000,99999,2019-10-07,32.751,51.862,1546.0,260.0,3.1,24.0,,,,,,,,ESFAHAN SHAHID BEHESHTI INTL,IR,408000-99999,2019,15,1.0
317350,99999,2019-10-07,48.528,135.188,75.0,160.0,2.0,23.0,,,,,,,,NOVY,RS,317350-99999,2019,15,1.0
714760,99999,2019-10-07,54.58,-130.698,10.0,,,17.5,1018.3,,,,24.0,9999.0,,GREY ISLET (AUT),CA,714760-99999,2019,15,1.0
714760,99999,2019-10-07,54.58,-130.7,8.0,,,17.4,1018.3,,,,,,,GREY ISLET (AUT),CA,714760-99999,2019,15,1.0
617010,99999,2019-10-07,13.338,-16.652,29.0,250.0,1.5,27.0,,,,,,,,BANJUL INTL,GA,617010-99999,2019,15,1.0
511330,99999,2019-10-07,46.733,83.0,535.0,360.0,2.0,17.9,1001.6,,,,24.0,100.0,,TACHENG,CH,511330-99999,2019,15,1.0
142800,99999,2019-10-07,45.5,18.567,89.0,320.0,1.0,14.2,1011.5,,,,6.0,0.0,,OSIJEK-CEPIN,HR,142800-99999,2019,15,1.0
247630,99999,2019-10-07,62.817,134.433,115.0,140.0,2.0,23.0,1006.8,,,,,,,KREST-HAL' DZHAY,RS,247630-99999,2019,15,1.0
233390,99999,2019-10-07,66.033,68.683,36.0,120.0,2.0,19.5,1006.3,,,,,,,POLUJ,RS,233390-99999,2019,15,1.0
617010,99999,2019-10-07,13.2,-16.633,36.0,250.0,1.5,27.2,1013.8,SCT,,,,,,BANJUL INTL,GA,617010-99999,2019,15,1.0
135900,99999,2019-10-07,41.9,21.85,856.0,360.0,3.0,12.9,,FEW,,,6.0,0.0,,GURISTE-PGC,MK,135900-99999,2019,15,1.0
375140,99999,2019-10-07,41.65,43.0,989.0,,,11.8,1008.3,,,,,,,AKHALTSIKHE,GG,375140-99999,2019,15,1.0
574610,99999,2019-10-07,30.733,111.367,258.0,320.0,1.0,24.4,1004.5,BKN,,,,,,YICHANG,CH,574610-99999,2019,15,1.0
835660,99999,2019-10-07,-19.617,-43.967,827.0,30.0,4.1,21.2,,,,,6.0,0.0,,CONFINS (AERO),BR,835660-99999,2019,15,1.0
381490,99999,2019-10-07,43.083,58.933,64.0,320.0,5.0,26.2,1003.1,,,,,,,KUNGRAD,UZ,381490-99999,2019,15,1.0
470080,99999,2019-10-07,41.783,129.817,43.0,,,18.4,1010.1,OVC,,,12.0,0.0,,CHONGJIN,KN,470080-99999,2019,15,1.0
223120,99999,2019-10-07,66.7,32.883,18.0,20.0,2.0,9.4,1010.7,,,,,,,KOVDA,RS,223120-99999,2019,15,1.0
387500,99999,2019-10-07,37.467,53.967,-22.0,360.0,1.0,24.8,1008.9,BKN,,,,,,ESENGULY,TX,387500-99999,2019,15,1.0
134620,99999,2019-10-07,42.37,19.25,33.0,360.0,3.0,20.5,1008.7,CLR,2.0,1.0,,,,PODGORICA / GOLUBOVCI,MJ,134620-99999,2019,15,1.0
408000,99999,2019-10-07,32.518,51.706,1550.0,340.0,3.0,30.2,990.2,BKN,,,6.0,0.0,,ESFAHAN SHAHID BEHESHTI INTL,IR,408000-99999,2019,15,1.0
298070,99999,2019-10-07,53.35,75.45,94.0,50.0,1.0,18.4,1012.4,,,,,,,ERTIS,KZ,298070-99999,2019,15,1.0
576870,99999,2019-10-07,28.117,112.783,120.0,140.0,1.0,24.0,1004.8,OVC,,,24.0,0.0,,CHANGSHA,CH,576870-99999,2019,15,1.0
688230,99999,2019-10-07,-33.183,22.017,544.0,70.0,2.1,5.5,,,,,,,,PRINS ALBERT,SF,688230-99999,2019,15,1.0
443130,99999,2019-10-07,47.617,118.617,688.0,230.0,2.0,19.8,1004.9,BKN,,,,,,KHALKH-GOL,MG,443130-99999,2019,15,1.0
713140,99999,2019-10-07,44.48,-79.55,289.0,290.0,4.6,19.8,1018.9,,,,,,,BARRIE-ORO,CA,713140-99999,2019,15,1.0
785260,11641,2019-10-07,18.417,-65.983,4.0,90.0,5.1,28.3,1017.1,SCT,,,6.0,30.0,,LUIS MUNOZ MARIN INTERNATIONAL AP,RQ,785260-11641,2019,15,1.0
845150,99999,2019-10-07,-8.367,-74.567,148.0,20.0,1.0,25.8,1010.6,BKN,3.0,2.0,6.0,9.0,,CAP FAP DAVID ABENZUR RENGIFO INTL,PE,845150-99999,2019,15,1.0
845150,99999,2019-10-07,-8.378,-74.574,156.0,20.0,1.0,26.0,,,,,,,,CAP FAP DAVID ABENZUR RENGIFO INTL,PE,845150-99999,2019,15,1.0
346010,99999,2019-10-07,47.867,35.316,114.0,0.0,0.0,15.0,,,,,,,,ZAPORIZHZHIA INTL,UP,346010-99999,2019,15,1.0
346010,99999,2019-10-07,47.8,35.017,112.0,,,14.5,1007.8,,,,,,,ZAPORIZHZHIA INTL,UP,346010-99999,2019,15,1.0
965810,99999,2019-10-07,-0.15,109.4,3.0,140.0,1.5,22.8,1011.5,FEW,4.0,2.0,,,,SUPADIO,ID,965810-99999,2019,15,1.0
725440,14923,2019-10-07,41.45,-90.5,181.0,200.0,2.1,32.2,1016.3,,,,,,,QUAD CITY INTERNATIONAL AIRPORT,US,725440-14923,2019,15,1.0
261280,99999,2019-10-07,58.567,23.517,3.0,190.0,1.0,10.4,1012.5,,,,3.0,0.0,,VIRTSU,EN,261280-99999,2019,15,1.0
619680,99999,2019-10-07,-11.583,47.29,3.0,100.0,5.1,25.0,1016.3,,,,99.0,9999.0,,ILES GLORIEUSES,FS,619680-99999,2019,15,1.0
060110,99999,2019-10-07,62.023,-6.765,54.0,39.0,1.0,14.2,1021.2,BKN,,,3.0,9999.0,,TORSHAVN,DA,060110-99999,2019,15,1.0
407190,99999,2019-10-07,37.317,49.617,-9.0,240.0,2.0,21.2,1009.3,OVC,51.0,6.0,6.0,110.0,,RASHT,IR,407190-99999,2019,15,1.0
714040,99999,2019-10-07,58.967,-110.433,215.0,0.0,0.0,13.6,1008.0,,,,24.0,9999.0,,EGG ISLAND  ALTA,CA,714040-99999,2019,15,1.0
175350,99999,2019-10-07,35.283,33.883,39.0,130.0,3.1,21.4,1004.2,,,,6.0,0.0,,ISKELE,CY,175350-99999,2019,15,1.0
917920,00487,2019-10-07,-21.233,-175.15,41.0,90.0,5.7,24.6,1014.7,FEW,1.0,0.0,24.0,0.0,,FUA AMOTU TONGA,FJ,917920-00487,2019,15,1.0
917920,00487,2019-10-07,-21.241,-175.15,38.0,90.0,5.7,25.0,,,,,,,,FUA AMOTU TONGA,FJ,917920-00487,2019,15,1.0
871290,99999,2019-10-07,-27.75,-64.283,198.0,0.0,0.0,17.6,1016.6,OVC,,,1.0,9999.0,,SANTIAGO DEL ESTERO,AR,871290-99999,2019,15,1.0
710880,99999,2019-10-07,69.083,-79.033,41.0,150.0,8.2,5.2,1005.1,,,,24.0,9999.0,,ROWLEY ISLAND,CA,710880-99999,2019,15,1.0
710880,99999,2019-10-07,69.07,-79.07,41.0,150.0,8.8,5.0,,,,,,,,ROWLEY ISLAND,CA,710880-99999,2019,15,1.0
276070,99999,2019-10-07,55.565,52.093,196.0,20.0,4.0,15.0,,,,,,,,BEGISHEVO,RS,276070-99999,2019,15,1.0
123990,99999,2019-10-07,52.067,23.617,137.0,280.0,1.0,9.5,1012.5,FEW,10.0,1.0,6.0,0.0,,TERESPOL,PL,123990-99999,2019,15,1.0
999999,03062,2019-10-07,35.858,-106.521,2657.0,,1.5,20.8,,,,,1.0,0.0,,LOS ALAMOS 13 W,US,999999-03062,2019,15,1.0
714040,99999,2019-10-07,58.98,-110.43,215.0,,5.7,13.6,1008.0,,,,,,,EGG ISLAND  ALTA,CA,714040-99999,2019,15,1.0
719220,99999,2019-10-07,55.15,-105.267,379.0,100.0,2.6,22.4,1008.6,OVC,,,24.0,0.0,,LA RONGE,CA,719220-99999,2019,15,1.0
407190,99999,2019-10-07,37.325,49.606,-12.0,240.0,2.1,21.0,,,51.0,,,,,RASHT,IR,407190-99999,2019,15,1.0
719170,99999,2019-10-07,79.994,-85.812,83.0,143.0,7.2,16.2,1009.3,SCT,0.0,,24.0,9999.0,,EUREKA,CA,719170-99999,2019,15,1.0
143820,99999,2019-10-07,45.15,18.7,98.0,300.0,1.0,15.2,1011.6,,2.0,8.0,6.0,60.0,,GRADISTE,HR,143820-99999,2019,15,1.0
854690,99999,2019-10-07,-27.167,-109.433,172.0,320.0,4.6,20.3,1022.0,BKN,2.0,2.0,,,,MATAVERI INTL,CI,854690-99999,2019,15,1.0
854690,99999,2019-10-07,-27.165,-109.422,69.0,320.0,4.6,20.0,,,,,,,,MATAVERI INTL,CI,854690-99999,2019,15,1.0
999999,92821,2019-10-07,28.616,-80.693,1.0,,1.5,28.2,,,,,1.0,0.0,,TITUSVILLE 7 E,US,999999-92821,2019,15,1.0
170310,99999,2019-10-07,41.258,36.556,7.0,100.0,0.5,19.2,1002.9,BKN,80.0,2.0,6.0,9999.0,,CARSAMBA,TU,170310-99999,2019,15,1.0
786370,99999,2019-10-07,15.731,-88.584,10.0,30.0,3.1,30.0,,,,,,,,PUERTO BARRIOS,GT,786370-99999,2019,15,1.0
135780,99999,2019-10-07,41.117,20.8,761.0,340.0,2.0,13.5,,,,,6.0,0.0,,OHRID,MK,135780-99999,2019,15,1.0
135780,99999,2019-10-07,41.18,20.742,705.0,360.0,3.1,12.0,,,,,,,,OHRID,MK,135780-99999,2019,15,1.0
260460,99999,2019-10-07,59.333,27.383,75.0,290.0,1.0,4.6,1012.2,,,,3.0,0.0,,JOHVI,EN,260460-99999,2019,15,1.0
719170,99999,2019-10-07,79.983,-85.933,10.0,140.0,6.7,16.0,1009.3,SCT,,,,,,EUREKA,CA,719170-99999,2019,15,1.0
034820,99999,2019-10-07,52.651,0.568,21.0,340.0,2.6,13.1,1023.9,BKN,2.0,5.0,6.0,9999.0,,MARHAM,UK,034820-99999,2019,15,1.0
718240,99999,2019-10-07,49.82,-74.98,381.0,310.0,0.5,17.2,,,,,,,,CHAPAIS  QUE,CA,718240-99999,2019,15,1.0
165460,99999,2019-10-07,39.35,8.967,24.0,40.0,2.1,22.8,1006.9,,,,6.0,0.0,,DECIMOMANNU,IT,165460-99999,2019,15,1.0
260580,99999,2019-10-07,59.389,28.117,30.0,230.0,1.0,5.3,1011.8,,,,3.0,0.0,,NARVA-JOESUU,EN,260580-99999,2019,15,1.0
718240,99999,2019-10-07,49.817,-74.967,381.0,310.0,0.5,17.2,,,,,24.0,0.0,,CHAPAIS  QUE,CA,718240-99999,2019,15,1.0
484070,99999,2019-10-07,15.25,104.867,124.0,0.0,0.0,26.4,1005.0,BKN,,,24.0,405.0,,UBON RATCHATHANI,TH,484070-99999,2019,15,1.0
067540,99999,2019-10-07,46.417,8.933,2171.0,320.0,3.6,5.2,,,,,,,,MATRO,SZ,067540-99999,2019,15,1.0
605310,99999,2019-10-07,35.017,-1.45,248.0,120.0,2.1,24.0,,,,,,,,ZENATA,AG,605310-99999,2019,15,1.0
605310,99999,2019-10-07,35.017,-1.467,246.0,120.0,2.1,24.1,1013.0,FEW,,,6.0,0.0,,ZENATA,AG,605310-99999,2019,15,1.0
484070,99999,2019-10-07,15.251,104.87,124.0,120.0,1.5,26.0,,CLR,,,,,,UBON RATCHATHANI,TH,484070-99999,2019,15,1.0
164590,99999,2019-10-07,37.4,14.917,29.0,110.0,5.1,24.6,1008.6,BKN,,,6.0,9999.0,,CATANIA/SIGONELLA,IT,164590-99999,2019,15,1.0
723120,03870,2019-10-07,34.9,-82.217,296.0,250.0,2.6,27.2,1018.4,,,,,,,GREENVILLE-SPARTANBURG INTL AIRPORT,US,723120-03870,2019,15,1.0
719220,99999,2019-10-07,55.151,-105.262,379.0,100.0,3.1,22.0,1008.5,,,,,,,LA RONGE,CA,719220-99999,2019,15,1.0
636860,99999,2019-10-07,0.4,35.233,2104.0,130.0,3.1,12.9,,BKN,,,,,,ELDORET,KE,636860-99999,2019,15,1.0
162450,99999,2019-10-07,41.65,12.45,21.0,50.0,2.1,23.8,1008.2,BKN,,,6.0,9999.0,,PRATICA DI MARE,IT,162450-99999,2019,15,1.0
710230,99999,2019-10-07,54.92,-109.95,658.0,350.0,4.6,14.0,1011.1,,,,1.0,40.0,,JIMMY LAKE,CA,710230-99999,2019,15,1.0
945520,99999,2019-10-07,-27.417,151.733,407.0,230.0,7.2,9.9,1022.1,,,,,,,OAKEY,AS,945520-99999,2019,15,1.0
945520,99999,2019-10-07,-27.411,151.735,407.0,230.0,7.2,10.0,,,,,,,,OAKEY,AS,945520-99999,2019,15,1.0
872700,99999,2019-10-07,-29.183,-59.7,48.0,140.0,2.1,15.3,1017.6,BKN,,,,,,RECONQUISTA AERO,AR,872700-99999,2019,15,1.0
838400,99999,2019-10-07,-25.517,-49.167,908.0,110.0,3.6,16.2,,SCT,,,6.0,0.0,,AFONSO PENA,BR,838400-99999,2019,15,1.0
838400,99999,2019-10-07,-25.528,-49.176,911.0,110.0,3.6,16.0,,,,,,,,AFONSO PENA,BR,838400-99999,2019,15,1.0
713250,99999,2019-10-07,44.657,-63.66,10.0,286.0,0.8,16.6,1008.6,,,,24.0,9999.0,,BEDFORD RANGE,CA,713250-99999,2019,15,1.0
713250,99999,2019-10-07,44.75,-63.67,10.0,290.0,1.0,17.2,1008.6,,,,,,,BEDFORD RANGE,CA,713250-99999,2019,15,1.0
170920,99999,2019-10-07,39.716,39.525,1154.0,100.0,0.5,12.6,,CLR,,,6.0,9999.0,,ERZINCAN,TU,170920-99999,2019,15,1.0
782640,99999,2019-10-07,19.967,-75.85,55.0,,,28.2,1015.4,SCT,5.0,0.0,,,,ANTONIO MACEO INTL,CU,782640-99999,2019,15,1.0
029450,99999,2019-10-07,61.855,24.805,143.0,254.0,0.8,9.7,1011.6,,,,,,,HALLI,FI,029450-99999,2019,15,1.0
578160,99999,2019-10-07,26.583,106.733,1223.0,40.0,2.0,21.0,1002.5,OVC,,,24.0,0.0,,LONGDONGBAO,CH,578160-99999,2019,15,1.0
578160,99999,2019-10-07,26.539,106.801,1139.0,50.0,2.0,21.0,,,,,,,,LONGDONGBAO,CH,578160-99999,2019,15,1.0
408930,99999,2019-10-07,25.654,57.799,6.0,90.0,5.1,30.0,,CLR,10.0,,,,,JASK,IR,408930-99999,2019,15,1.0
918220,99999,2019-10-07,-19.08,-169.926,64.0,100.0,5.7,26.0,,,,,,,,ALOFI,NE,918220-99999,2019,15,1.0
407470,99999,2019-10-07,35.333,47.0,1373.0,,,15.8,999.0,,,,6.0,0.0,,SANANDAJ,IR,407470-99999,2019,15,1.0
477720,99999,2019-10-07,34.683,135.517,83.0,40.0,2.6,24.7,1005.9,BKN,,,24.0,140.0,,OSAKA,JA,477720-99999,2019,15,1.0
407470,99999,2019-10-07,35.247,47.009,1378.0,0.0,0.0,16.0,,,,,,,,SANANDAJ,IR,407470-99999,2019,15,1.0
579570,99999,2019-10-07,25.333,110.3,166.0,,,24.5,1004.0,OVC,60.0,,24.0,129.0,,LIANGJIANG,CH,579570-99999,2019,15,1.0
121150,99999,2019-10-07,54.583,16.867,11.0,240.0,2.0,12.4,1015.3,FEW,,,6.0,0.0,,USTKA,PL,121150-99999,2019,15,1.0
172440,99999,2019-10-07,37.984,32.574,1031.0,250.0,4.6,18.7,,BKN,,,6.0,9999.0,,KONYA,TU,172440-99999,2019,15,1.0
999999,25380,2019-10-07,58.429,-135.69,6.0,,1.4,17.0,,,,,1.0,0.0,,GUSTAVUS 2 NE,US,999999-25380,2019,15,1.0
070590,99999,2019-10-07,49.967,2.704,111.0,20.0,4.6,12.5,1021.4,OVC,0.0,,6.0,0.0,,MEAULTE,FR,070590-99999,2019,15,1.0
636860,99999,2019-10-07,0.404,35.239,2116.0,130.0,3.1,13.0,,,,,,,,ELDORET,KE,636860-99999,2019,15,1.0
163320,99999,2019-10-07,40.233,18.133,53.0,,1.0,18.0,1010.4,,,,6.0,0.0,,LECCE,IT,163320-99999,2019,15,1.0
117870,99999,2019-10-07,49.55,18.45,1327.0,10.0,8.0,7.5,,,,,6.0,0.0,,LYSA HORA,EZ,117870-99999,2019,15,1.0
592871,99999,2019-10-07,28.189,113.22,66.0,170.0,2.0,24.0,,,,,,,,HUANGHUA,CH,592871-99999,2019,15,1.0
122700,99999,2019-10-07,53.1,20.35,149.0,290.0,2.0,9.8,1014.7,FEW,,,6.0,0.0,,MLAWA,PL,122700-99999,2019,15,1.0
945956,99999,2019-10-07,-21.717,122.217,292.0,130.0,7.2,13.2,1025.3,,,,,,,TELFER,AS,945956-99999,2019,15,1.0
945956,99999,2019-10-07,-21.715,122.229,296.0,130.0,7.2,13.0,,CLR,,,,,,TELFER,AS,945956-99999,2019,15,1.0
074710,99999,2019-10-07,45.083,3.767,833.0,340.0,1.5,12.9,,,0.0,,6.0,0.0,,LOUDES,FR,074710-99999,2019,15,1.0
688420,99999,2019-10-07,-33.983,25.617,63.0,280.0,2.1,11.5,1020.5,SCT,,,,,,PORT ELIZABETH INTL,SF,688420-99999,2019,15,1.0
386110,99999,2019-10-07,40.983,71.583,474.0,320.0,1.0,25.0,994.0,,,,,,,NAMANGAN,UZ,386110-99999,2019,15,1.0
688420,99999,2019-10-07,-33.985,25.617,69.0,280.0,2.1,11.0,,,,,,,,PORT ELIZABETH INTL,SF,688420-99999,2019,15,1.0
702310,26510,2019-10-07,62.95,-155.6,103.0,0.0,0.0,22.2,1008.3,BKN,,,,,,MCGRATH AIRPORT,US,702310-26510,2019,15,1.0
435550,99999,2019-10-07,4.2,73.533,2.0,340.0,2.1,28.2,1010.0,BKN,2.0,9.0,24.0,0.0,,MALE INTL,MV,435550-99999,2019,15,1.0
435550,99999,2019-10-07,4.192,73.529,2.0,340.0,2.1,28.0,,,,,,,,MALE INTL,MV,435550-99999,2019,15,1.0
261350,99999,2019-10-07,58.817,25.417,65.0,,,6.5,1012.5,,,,3.0,0.0,,TURI,EN,261350-99999,2019,15,1.0
011220,99999,2019-10-07,65.783,13.217,73.0,350.0,2.0,8.4,1015.1,,,,6.0,0.0,,KJAERSTAD,NO,011220-99999,2019,15,1.0
475120,99999,2019-10-07,39.067,141.717,38.0,70.0,4.1,25.3,1007.6,,,,12.0,0.0,,OFUNATO,JA,475120-99999,2019,15,1.0
476880,99999,2019-10-07,34.987,139.829,3.0,30.0,3.1,22.0,,,61.0,,,,,TATEYAMA,JA,476880-99999,2019,15,1.0
710230,99999,2019-10-07,54.9,-109.967,637.0,300.0,3.6,13.9,1011.1,OVC,,,24.0,270.0,,JIMMY LAKE,CA,710230-99999,2019,15,1.0
386110,99999,2019-10-07,40.983,71.583,474.0,310.0,2.1,25.0,,CLR,,,,,,NAMANGAN,UZ,386110-99999,2019,15,1.0
029810,99999,2019-10-07,59.783,21.367,7.0,330.0,2.0,13.9,1012.1,,,,,,,PARAINEN UTO,FI,029810-99999,2019,15,1.0
607690,99999,2019-10-07,33.867,10.767,3.0,10.0,7.7,29.6,1004.3,FEW,,,18.0,0.0,,ZARZIS,TS,607690-99999,2019,15,1.0
170220,99999,2019-10-07,41.45,31.8,137.0,200.0,2.1,18.1,1004.1,BKN,25.0,8.0,6.0,30.0,,ZONGULDAK,TU,170220-99999,2019,15,1.0
607690,99999,2019-10-07,33.875,10.775,6.0,10.0,7.7,30.0,,CLR,,,,,,ZARZIS,TS,607690-99999,2019,15,1.0
639800,99999,2019-10-07,-4.667,55.517,3.0,130.0,5.7,25.7,1011.4,BKN,,,,,,SEYCHELLES INTL,SE,639800-99999,2019,15,1.0
062520,99999,2019-10-07,53.217,3.217,30.0,350.0,6.0,14.0,,,,,,,,K13-A,NL,062520-99999,2019,15,1.0
639800,99999,2019-10-07,-4.674,55.522,3.0,130.0,5.7,26.0,,,,,,,,SEYCHELLES INTL,SE,639800-99999,2019,15,1.0
061200,99999,2019-10-07,55.483,10.333,21.0,250.0,3.6,12.2,1015.8,BKN,,,,,,ODENSE,DA,061200-99999,2019,15,1.0
134630,99999,2019-10-07,42.433,19.283,50.0,340.0,1.0,22.3,1010.2,,2.0,1.0,6.0,0.0,,PODGORICA-GRAD,MJ,134630-99999,2019,15,1.0
476170,99999,2019-10-07,36.15,137.25,562.0,50.0,1.5,22.0,1005.4,,,,12.0,0.0,,TAKAYAMA,JA,476170-99999,2019,15,1.0
124970,99999,2019-10-07,51.55,23.533,179.0,320.0,3.0,10.9,1012.3,FEW,,,6.0,0.0,,WLODAWA,PL,124970-99999,2019,15,1.0
724860,23154,2019-10-07,39.3,-114.842,1908.0,220.0,5.7,32.2,1010.7,,,,,,,ELY AIRPORT/YELLAND FIELD/AIRPORT,US,724860-23154,2019,15,1.0
999999,26564,2019-10-07,68.485,-155.751,582.0,,5.7,20.4,,,,,1.0,0.0,,IVOTUK 1 NNE,US,999999-26564,2019,15,1.0
075350,99999,2019-10-07,44.75,1.4,261.0,350.0,1.5,17.7,1015.2,BKN,0.0,,6.0,0.0,,GOURDON,FR,075350-99999,2019,15,1.0
427240,99999,2019-10-07,23.883,91.25,16.0,180.0,1.0,25.2,1000.5,BKN,10.0,2.0,21.0,40.0,,AGARTALA,IN,427240-99999,2019,15,1.0
262140,99999,2019-10-07,58.383,21.817,6.0,260.0,1.0,13.8,1013.0,BKN,2.0,2.0,3.0,0.0,,VILSANDI,EN,262140-99999,2019,15,1.0
161200,99999,2019-10-07,44.417,8.85,3.0,30.0,2.6,22.8,1007.9,BKN,2.0,6.0,6.0,0.0,,GENOVA SESTRI,IT,161200-99999,2019,15,1.0
381417,99999,2019-10-07,38.834,65.921,416.0,70.0,3.1,27.0,,,,,,,,KARSHI KHANABAD,UZ,381417-99999,2019,15,1.0
713510,99999,2019-10-07,53.65,-113.35,665.0,330.0,3.6,23.2,,,,,,,,OLIVER AGDM  ALTA,CA,713510-99999,2019,15,1.0
997278,99999,2019-10-07,41.8,-71.4,10.0,10.0,6.2,29.1,1011.3,,,,,,,PROVIDENCE,US,997278-99999,2019,15,1.0
713510,99999,2019-10-07,53.65,-113.35,665.0,330.0,3.6,23.2,,,,,24.0,9999.0,,OLIVER AGDM  ALTA,CA,713510-99999,2019,15,1.0
066880,99999,2019-10-07,46.85,9.183,2480.0,20.0,1.5,2.6,,,,,,,,CRAP MASEGN,SZ,066880-99999,2019,15,1.0
114232,99999,2019-10-07,50.121,14.544,286.0,340.0,2.6,16.0,,,,,,,,KBELY,EZ,114232-99999,2019,15,1.0
350675,99999,2019-10-07,50.037,82.494,286.0,,1.0,16.0,,CLR,,,,,,UST KAMENOGORSK,KZ,350675-99999,2019,15,1.0
427240,99999,2019-10-07,23.887,91.24,14.0,180.0,2.6,25.0,,,10.0,,,,,AGARTALA,IN,427240-99999,2019,15,1.0
984260,41231,2019-10-07,14.8,120.267,19.0,80.0,2.0,27.2,1008.0,BKN,5.0,4.0,24.0,0.0,,SUBIC BAY WEATHER,RP,984260-41231,2019,15,1.0
478540,99999,2019-10-07,32.084,131.451,79.0,170.0,1.5,25.0,,,,,,,,NYUTABARU,JA,478540-99999,2019,15,1.0
711200,99999,2019-10-07,54.417,-110.283,541.0,240.0,5.1,25.5,1008.3,SCT,,,24.0,0.0,,COLD LAKE,CA,711200-99999,2019,15,1.0
040480,99999,2019-10-07,63.4,-20.283,124.0,110.0,7.7,11.3,,,,,3.0,10.0,,VESTMANNAEYJAR,IC,040480-99999,2019,15,1.0
335620,99999,2019-10-07,49.233,28.6,298.0,,,14.5,1009.0,OVC,,,,,,VINNYTSIA,UP,335620-99999,2019,15,1.0
384031,99999,2019-10-07,42.483,59.633,77.0,310.0,6.2,28.0,,,,,,,,NUKUS / KARAKALPAKSTAN,UZ,384031-99999,2019,15,1.0
407980,99999,2019-10-07,32.297,50.842,2049.0,110.0,1.0,16.0,,,,,,,,SHAHRE  KORD,IR,407980-99999,2019,15,1.0
143280,99999,2019-10-07,45.267,15.233,328.0,330.0,1.0,15.0,1014.1,,,,,,,OGULIN,HR,143280-99999,2019,15,1.0
407980,99999,2019-10-07,32.283,50.85,2019.0,110.0,1.0,15.8,996.3,,,,6.0,0.0,,SHAHRE  KORD,IR,407980-99999,2019,15,1.0
129820,99999,2019-10-07,46.256,20.09,81.0,343.0,2.3,14.1,1011.5,,,,6.0,9999.0,,SZEGED (AUT),HU,129820-99999,2019,15,1.0
485320,99999,2019-10-07,9.778,98.585,17.0,0.0,0.0,25.0,,,,,,,,RANONG,TH,485320-99999,2019,15,1.0
485320,99999,2019-10-07,9.983,98.617,8.0,0.0,0.0,25.4,1008.7,SCT,,,24.0,6.0,,RANONG,TH,485320-99999,2019,15,1.0
711200,99999,2019-10-07,54.405,-110.279,541.0,240.0,4.1,26.0,1008.3,SCT,,,,,,COLD LAKE,CA,711200-99999,2019,15,1.0
875850,99999,2019-10-07,-34.433,-58.467,25.0,50.0,0.5,9.5,1020.5,SCT,,,1.0,9999.0,,BUENOS AIRES (OBS),AR,875850-99999,2019,15,1.0
488200,99999,2019-10-07,21.221,105.807,12.0,70.0,2.6,28.0,,,10.0,,,,,NOIBAI INTL,VM,488200-99999,2019,15,1.0
486470,99999,2019-10-07,3.117,101.55,22.0,0.0,0.0,24.5,1010.5,BKN,5.0,9.0,24.0,352.0,,SULTAN ABDUL AZIZ SHAH INTL,MY,486470-99999,2019,15,1.0
486470,99999,2019-10-07,3.131,101.549,27.0,0.0,0.0,25.0,,,,,,,,SULTAN ABDUL AZIZ SHAH INTL,MY,486470-99999,2019,15,1.0
607403,99999,2019-10-07,35.758,10.755,3.0,320.0,2.6,27.0,,CLR,,,,,,HABIB BOURGUIBA INTL,TS,607403-99999,2019,15,1.0
724450,03945,2019-10-07,38.817,-92.217,274.0,170.0,3.6,29.4,1016.9,,,,,,,COLUMBIA REGIONAL AIRPORT,US,724450-03945,2019,15,1.0
719150,99999,2019-10-07,64.2,-83.367,57.0,0.0,0.0,11.9,1006.9,BKN,,,24.0,0.0,,CORAL HARBOUR,CA,719150-99999,2019,15,1.0
022600,99999,2019-10-07,63.133,18.25,143.0,,,8.4,1011.7,,,,1.0,0.0,,VASTMARKUM,SW,022600-99999,2019,15,1.0
719150,99999,2019-10-07,64.193,-83.359,64.0,300.0,6.2,12.0,1006.8,,,,,,,CORAL HARBOUR,CA,719150-99999,2019,15,1.0
024290,99999,2019-10-07,59.667,14.183,133.0,,,9.6,,SCT,,,1.0,0.0,,DAGLOSEN,SW,024290-99999,2019,15,1.0
999999,23906,2019-10-07,28.305,-96.823,5.0,,2.0,29.6,,,,,1.0,0.0,,PORT ARANSAS 32 NNE,US,999999-23906,2019,15,1.0
984260,41231,2019-10-07,14.794,120.271,20.0,80.0,1.5,27.0,,,,,,,,SUBIC BAY WEATHER,RP,984260-41231,2019,15,1.0
802220,99999,2019-10-07,4.7,-74.15,2547.0,60.0,4.0,15.2,,BKN,,,6.0,0.0,,ELDORADO INTL,CO,802220-99999,2019,15,1.0
802220,99999,2019-10-07,4.702,-74.147,2548.0,60.0,3.6,15.0,,,16.0,,,,,ELDORADO INTL,CO,802220-99999,2019,15,1.0
713270,99999,2019-10-07,44.65,-63.62,51.0,250.0,1.5,17.0,1008.1,,,,,,,HALIFAX WINDSOR PARK,CA,713270-99999,2019,15,1.0
874180,99999,2019-10-07,-32.267,-68.767,705.0,230.0,1.5,11.2,1019.0,FEW,,,1.0,9999.0,,EL PLUMERILLO,AR,874180-99999,2019,15,1.0
722260,13895,2019-10-07,32.3,-86.4,62.0,60.0,2.1,25.0,1019.8,,,,6.0,170.0,,MONTGOMERY  RGNL (DANNELLY FD) AP,US,722260-13895,2019,15,1.0
874180,99999,2019-10-07,-32.832,-68.793,704.0,230.0,1.5,11.0,,,,,,,,EL PLUMERILLO,AR,874180-99999,2019,15,1.0
420710,99999,2019-10-07,31.633,74.867,229.0,90.0,2.6,25.0,994.4,FEW,10.0,0.0,21.0,30.0,,AMRITSAR,IN,420710-99999,2019,15,1.0
486150,99999,2019-10-07,6.167,102.283,5.0,210.0,2.6,24.7,1009.1,BKN,3.0,2.0,24.0,0.0,,SULTAN ISMAIL PETRA,MY,486150-99999,2019,15,1.0
486150,99999,2019-10-07,6.167,102.293,5.0,210.0,2.6,25.0,,,,,,,,SULTAN ISMAIL PETRA,MY,486150-99999,2019,15,1.0
601410,99999,2019-10-07,33.927,-4.978,579.0,220.0,3.1,21.0,,,,,,,,SAISS,MO,601410-99999,2019,15,1.0
407809,99999,2019-10-07,36.533,61.167,235.0,300.0,6.0,30.7,1001.5,,,,6.0,0.0,,SARAKHS,IR,407809-99999,2019,15,1.0
286420,99999,2019-10-07,55.306,61.503,234.0,110.0,3.0,18.0,,,,,,,,BALANDINO,RS,286420-99999,2019,15,1.0
601410,99999,2019-10-07,33.933,-4.983,571.0,220.0,3.6,20.6,1016.5,,,,,,,SAISS,MO,601410-99999,2019,15,1.0
420710,99999,2019-10-07,31.71,74.797,230.0,100.0,2.6,25.0,,,10.0,,,,,AMRITSAR,IN,420710-99999,2019,15,1.0
072600,99999,2019-10-07,47.0,3.1,176.0,350.0,3.6,15.0,1017.5,,0.0,,6.0,0.0,,FOURCHAMBAULT,FR,072600-99999,2019,15,1.0
999999,03047,2019-10-07,31.622,-102.807,830.0,,2.4,34.2,,,,,1.0,0.0,,MONAHANS 6 ENE,US,999999-03047,2019,15,1.0
713280,99999,2019-10-07,44.65,-63.58,4.0,250.0,3.1,17.6,1008.5,,,,,,,HALIFAX DOCKYARD,CA,713280-99999,2019,15,1.0
478810,99999,2019-10-07,34.133,134.607,8.0,10.0,4.6,25.0,,,,,,,,TOKUSHIMA,JA,478810-99999,2019,15,1.0
724110,13741,2019-10-07,37.317,-79.967,358.0,290.0,2.6,32.2,1017.5,FEW,,,,,,ROANOKE REGIONAL/WOODRUM FIELD AP,US,724110-13741,2019,15,1.0
123000,99999,2019-10-07,52.75,15.283,73.0,350.0,3.0,14.1,1016.2,FEW,,,6.0,0.0,,GORZOW WLKP,PL,123000-99999,2019,15,1.0
408355,99999,2019-10-07,34.35,58.68,1056.0,130.0,5.1,28.0,,,,,,,,GONABAD,IR,408355-99999,2019,15,1.0
262180,99999,2019-10-07,57.917,22.05,4.0,360.0,2.0,12.0,1012.9,BKN,,,3.0,0.0,,SORVE,EN,262180-99999,2019,15,1.0
151480,99999,2019-10-07,46.65,25.3,1279.0,40.0,1.0,8.6,,BKN,1.0,8.0,6.0,20.0,,BUCIN,RO,151480-99999,2019,15,1.0
713270,99999,2019-10-07,44.657,-63.66,51.0,245.0,0.8,16.6,1008.1,,,,24.0,9999.0,,HALIFAX WINDSOR PARK,CA,713270-99999,2019,15,1.0
604450,99999,2019-10-07,36.178,5.33,1033.0,240.0,1.5,20.2,,CLR,,,6.0,9999.0,,SETIF AIN ARNAT,AG,604450-99999,2019,15,1.0
604450,99999,2019-10-07,36.178,5.324,1050.0,,1.5,20.0,,,,,,,,SETIF AIN ARNAT,AG,604450-99999,2019,15,1.0
070460,99999,2019-10-07,49.533,0.083,94.0,70.0,2.6,13.6,1022.2,,0.0,,6.0,0.0,,LE HAVRE-OCTEVILLE,FR,070460-99999,2019,15,1.0
409900,99999,2019-10-07,31.5,65.85,1010.0,100.0,1.0,24.4,989.9,,,,6.0,0.0,,KANDAHAR,AF,409900-99999,2019,15,1.0
725360,94830,2019-10-07,41.583,-83.8,211.0,50.0,2.6,30.6,1017.9,,,,,,,TOLEDO EXPRESS AIRPORT,US,725360-94830,2019,15,1.0
160990,99999,2019-10-07,45.65,12.183,23.0,70.0,1.0,20.4,1011.3,,,,6.0,0.0,,TREVISO,IT,160990-99999,2019,15,1.0
476260,99999,2019-10-07,36.15,139.383,32.0,90.0,2.1,21.5,1007.5,,,,12.0,60.0,,KUMAGAYA,JA,476260-99999,2019,15,1.0
964410,99999,2019-10-07,3.2,113.033,5.0,120.0,1.5,25.3,1009.4,BKN,1.0,2.0,24.0,310.0,,BINTULU,MY,964410-99999,2019,15,1.0
442920,99999,2019-10-07,47.917,106.867,1306.0,70.0,5.0,24.3,998.7,BKN,,,,,,CHINGGIS KHAAN INTL,MG,442920-99999,2019,15,1.0
085600,99999,2019-10-07,40.717,-7.883,644.0,340.0,1.0,16.5,1016.2,,,,6.0,0.0,,VISEU,PO,085600-99999,2019,15,1.0
964410,99999,2019-10-07,3.124,113.02,23.0,120.0,1.5,25.0,,,,,,,,BINTULU,MY,964410-99999,2019,15,1.0
067590,99999,2019-10-07,46.2,8.792,1661.0,60.0,1.8,7.7,,,,,6.0,130.0,,CIMETTA,SZ,067590-99999,2019,15,1.0
486650,99999,2019-10-07,2.267,102.25,9.0,240.0,1.5,24.4,1011.4,OVC,95.0,9.0,24.0,40.0,,MALACCA,MY,486650-99999,2019,15,1.0
011160,99999,2019-10-07,65.95,12.467,17.0,360.0,2.0,8.6,1015.5,,,,,,,STOKKA,NO,011160-99999,2019,15,1.0
442920,99999,2019-10-07,47.843,106.767,1330.0,140.0,6.0,26.0,,,,,,,,CHINGGIS KHAAN INTL,MG,442920-99999,2019,15,1.0
486650,99999,2019-10-07,2.263,102.252,11.0,240.0,1.5,24.0,,,95.0,,,,,MALACCA,MY,486650-99999,2019,15,1.0
121200,99999,2019-10-07,54.75,17.533,6.0,180.0,2.0,9.5,1015.1,,11.0,0.0,6.0,0.0,,LEBA,PL,121200-99999,2019,15,1.0
999999,26655,2019-10-07,68.028,-162.921,287.0,,2.9,18.2,,,,,1.0,0.0,,RED DOG MINE 3 SSW,US,999999-26655,2019,15,1.0
072553,99999,2019-10-07,47.039,5.427,197.0,30.0,5.1,16.0,,,,,,,,TAVAUX,FR,072553-99999,2019,15,1.0
